ct,frequency,band,bandwidth,cell_id,rsrp,rssi,rsrq,bler,tx_power,plmn,tac,drx,emm_state,rrc_state,net_op_mode,emm_cause,esm_cause,time_boot_ms,lat,lon,alt,relative_alt
20220901T093458,2600,5,10,413(0x19d),-71,43,-8,0,-6,450f06,18640,1280,REGISTERED,CONNECTED,CS_PS_MODE1,18,0,49524,379532045,1287699275,8250,607
20220901T093500,2600,5,10,413(0x19d),-71,43,-8,0,-12,450f06,18640,1280,REGISTERED,CONNECTED,CS_PS_MODE1,18,0,51532,379531970,1287699155,7370,31
20220901T093502,2600,5,10,413(0x19d),-71,43,-8,0,0,450f06,18640,1280,REGISTERED,CONNECTED,CS_PS_MODE1,18,0,53532,379531953,1287699155,6810,-67
20220901T093504,2600,5,10,413(0x19d),-71,43,-8,0,0,450f06,18640,1280,REGISTERED,CONNECTED,CS_PS_MODE1,18,0,55862,379531928,1287699158,12940,-133
20220901T093506,2600,5,10,413(0x19d),-71,43,-8,0,0,450f06,18640,1280,REGISTERED,CONNECTED,CS_PS_MODE1,18,0,57859,379531917,1287699165,12860,-216
20220901T093508,2600,5,10,413(0x19d),-71,43,-8,0,0,450f06,18640,1280,REGISTERED,CONNECTED,CS_PS_MODE1,18,0,59857,379531972,1287699170,12850,-225
20220901T093510,2600,5,10,413(0x19d),-71,43,-8,0,0,450f06,18640,1280,REGISTERED,CONNECTED,CS_PS_MODE1,18,0,61857,379531966,1287699175,12750,-326
20220901T093512,2600,5,10,413(0x19d),-71,43,-8,0,-4,450f06,18640,1280,REGISTERED,CONNECTED,CS_PS_MODE1,18,0,63854,379531955,1287699176,12710,-365
20220901T093514,2600,5,10,413(0x19d),-71,43,-8,0,0,450f06,18640,1280,REGISTERED,CONNECTED,CS_PS_MODE1,18,0,65852,379531950,1287699180,12630,-443
20220901T093517,2600,5,10,413(0x19d),-71,43,-8,0,5,450f06,18640,1280,REGISTERED,CONNECTED,CS_PS_MODE1,18,0,68182,379531942,1287699183,12690,-382
20220901T093519,2600,5,10,413(0x19d),-71,43,-8,0,0,450f06,18640,1280,REGISTERED,CONNECTED,CS_PS_MODE1,18,0,70182,379531936,1287699270,13460,388
20220901T093521,2600,5,10,413(0x19d),-71,43,-8,0,-10,450f06,18640,1280,REGISTERED,CONNECTED,CS_PS_MODE1,18,0,72179,379531855,1287699582,13560,488
20220901T093523,2600,5,10,413(0x19d),-71,43,-8,0,-11,450f06,18640,1280,REGISTERED,CONNECTED,CS_PS_MODE1,18,0,74177,379531744,1287699847,13460,389
20220901T093525,2600,5,10,413(0x19d),-71,43,-8,0,-21,450f06,18640,1280,REGISTERED,CONNECTED,CS_PS_MODE1,18,0,76174,379531564,1287700063,13510,431
20220901T093527,2600,5,10,413(0x19d),-71,43,-8,0,0,450f06,18640,1280,REGISTERED,CONNECTED,CS_PS_MODE1,18,0,78172,379531419,1287700242,13480,403
20220901T093529,2600,5,10,413(0x19d),-71,43,-8,0,-8,450f06,18640,1280,REGISTERED,CONNECTED,CS_PS_MODE1,18,0,80172,379531226,1287700151,13380,304
20220901T093531,2600,5,10,413(0x19d),-71,43,-8,0,0,450f06,18640,1280,REGISTERED,CONNECTED,CS_PS_MODE1,18,0,82169,379531055,1287700114,13000,-71
20220901T093533,2600,5,10,413(0x19d),-71,50,-8,0,1,450f06,18640,1280,REGISTERED,CONNECTED,CS_PS_MODE1,18,0,84167,379531043,1287700109,12710,-367
20220901T093536,2600,5,10,413(0x19d),-71,50,-8,0,-12,450f06,18640,1280,REGISTERED,CONNECTED,CS_PS_MODE1,18,0,87165,379531042,1287700105,12680,-391
20220901T093538,2600,5,10,413(0x19d),-71,50,-8,0,-15,450f06,18640,1280,REGISTERED,CONNECTED,CS_PS_MODE1,18,0,89162,379531040,1287700103,12640,-431
20220901T093540,2600,5,10,413(0x19d),-71,50,-8,0,-15,450f06,18640,1280,REGISTERED,CONNECTED,CS_PS_MODE1,18,0,91159,379531038,1287700102,12580,-490
20220901T093542,2600,5,10,413(0x19d),-71,50,-8,0,0,450f06,18640,1280,REGISTERED,CONNECTED,CS_PS_MODE1,18,0,93157,379531092,1287700068,13270,196
20220901T093544,2600,5,10,413(0x19d),-71,50,-8,0,-12,450f06,18640,1280,REGISTERED,CONNECTED,CS_PS_MODE1,18,0,95157,379531131,1287700048,13270,193
20220901T093546,2600,5,10,413(0x19d),-71,50,-8,0,-3,450f06,18640,1280,REGISTERED,CONNECTED,CS_PS_MODE1,18,0,97154,379531128,1287700052,13210,138
20220901T093548,2600,5,10,413(0x19d),-71,50,-8,0,-5,450f06,18640,1280,REGISTERED,CONNECTED,CS_PS_MODE1,18,0,99152,379531082,1287700090,13200,122
20220901T093550,2600,5,10,413(0x19d),-71,50,-8,0,-7,450f06,18640,1280,REGISTERED,CONNECTED,CS_PS_MODE1,18,0,101149,379531034,1287700040,12620,-457
20220901T093553,2600,5,10,413(0x19d),-71,50,-8,0,-15,450f06,18640,1280,REGISTERED,CONNECTED,CS_PS_MODE1,18,0,104147,379531034,1287700043,12480,-597
20220901T093555,2600,5,10,413(0x19d),-71,50,-8,0,-6,450f06,18640,1280,REGISTERED,CONNECTED,CS_PS_MODE1,18,0,106144,379531026,1287700034,12460,-617
20220901T093557,2600,5,10,413(0x19d),-71,50,-8,0,-5,450f06,18640,1280,REGISTERED,CONNECTED,CS_PS_MODE1,18,0,108382,379531137,1287700033,12340,-731
20220901T093559,2600,5,10,413(0x19d),-71,50,-8,0,-11,450f06,18640,1280,REGISTERED,CONNECTED,CS_PS_MODE1,18,0,110387,379531177,1287700032,12440,-634
20220901T093601,2600,5,10,413(0x19d),-71,50,-8,0,-17,450f06,18640,1280,REGISTERED,CONNECTED,CS_PS_MODE1,18,0,112384,379531175,1287700059,12300,-772
20220901T093603,2600,5,10,413(0x19d),-65,42,-8,0,-5,450f06,18640,1280,REGISTERED,CONNECTED,CS_PS_MODE1,18,0,114382,379531170,1287700073,12270,-802
20220901T093605,2600,5,10,413(0x19d),-65,42,-8,0,-3,450f06,18640,1280,REGISTERED,CONNECTED,CS_PS_MODE1,18,0,116379,379531158,1287700069,12250,-827
20220901T093607,2600,5,10,413(0x19d),-65,42,-8,0,-20,450f06,18640,1280,REGISTERED,CONNECTED,CS_PS_MODE1,18,0,118377,379531157,1287700069,12260,-818
20220901T093610,2600,5,10,413(0x19d),-65,42,-8,0,-25,450f06,18640,1280,REGISTERED,CONNECTED,CS_PS_MODE1,18,0,121374,379531153,1287700068,12220,-857
20220901T093612,2600,5,10,413(0x19d),-65,42,-8,0,-13,450f06,18640,1280,REGISTERED,CONNECTED,CS_PS_MODE1,18,0,123374,379531153,1287700070,12170,-907
20220901T093614,2600,5,10,413(0x19d),-65,42,-8,0,-14,450f06,18640,1280,REGISTERED,CONNECTED,CS_PS_MODE1,18,0,125372,379531156,1287700067,12200,-878
20220901T093616,2600,5,10,413(0x19d),-65,42,-8,0,-17,450f06,18640,1280,REGISTERED,CONNECTED,CS_PS_MODE1,18,0,127369,379531157,1287700067,12150,-928
20220901T093618,2600,5,10,413(0x19d),-65,42,-8,0,-20,450f06,18640,1280,REGISTERED,CONNECTED,CS_PS_MODE1,18,0,129367,379531163,1287700065,12130,-944
20220901T093620,2600,5,10,413(0x19d),-65,42,-8,0,-5,450f06,18640,1280,REGISTERED,CONNECTED,CS_PS_MODE1,18,0,131365,379531166,1287700062,12110,-965
20220901T093622,2600,5,10,413(0x19d),-65,42,-8,0,0,450f06,18640,1280,REGISTERED,CONNECTED,CS_PS_MODE1,18,0,133362,379531169,1287700059,12110,-969
20220901T093624,2600,5,10,413(0x19d),-65,42,-8,0,-14,450f06,18640,1280,REGISTERED,CONNECTED,CS_PS_MODE1,18,0,135362,379531174,1287700052,12080,-997
20220901T093627,2600,5,10,413(0x19d),-65,42,-8,0,4,450f06,18640,1280,REGISTERED,CONNECTED,CS_PS_MODE1,18,0,138357,379531180,1287700040,11990,-1089
20220901T093629,2600,5,10,413(0x19d),-65,42,-8,0,-20,450f06,18640,1280,REGISTERED,CONNECTED,CS_PS_MODE1,18,0,140357,379531185,1287700034,11970,-1108
20220901T093631,2600,5,10,413(0x19d),-65,42,-8,0,-23,450f06,18640,1280,REGISTERED,CONNECTED,CS_PS_MODE1,18,0,142354,379531188,1287700027,11970,-1102
20220901T093633,2600,5,10,413(0x19d),-65,42,-8,0,-20,450f06,18640,1280,REGISTERED,CONNECTED,CS_PS_MODE1,18,0,144352,379531191,1287700021,11970,-1100
20220901T093635,2600,5,10,413(0x19d),-65,42,-8,0,-24,450f06,18640,1280,REGISTERED,CONNECTED,CS_PS_MODE1,18,0,146682,379531194,1287700014,11940,-1130
20220901T093637,2600,5,10,413(0x19d),-65,42,-8,0,-24,450f06,18640,1280,REGISTERED,CONNECTED,CS_PS_MODE1,18,0,148682,379531193,1287700007,12020,-1055
20220901T093639,2600,5,10,413(0x19d),-65,42,-8,0,-19,450f06,18640,1280,REGISTERED,CONNECTED,CS_PS_MODE1,18,0,150679,379531195,1287700003,12070,-1003
20220901T093641,2600,5,10,413(0x19d),-65,42,-8,0,-20,450f06,18640,1280,REGISTERED,CONNECTED,CS_PS_MODE1,18,0,152677,379531195,1287699999,12200,-878
20220901T093644,2600,5,10,413(0x19d),-65,42,-8,0,-14,450f06,18640,1280,REGISTERED,CONNECTED,CS_PS_MODE1,18,0,155342,379531195,1287699993,12300,-774
20220901T093646,2600,5,10,413(0x19d),-65,42,-8,0,-14,450f06,18640,1280,REGISTERED,CONNECTED,CS_PS_MODE1,18,0,157339,379531195,1287699989,12380,-698
20220901T093648,2600,5,10,413(0x19d),-65,42,-8,0,-23,450f06,18640,1280,REGISTERED,CONNECTED,CS_PS_MODE1,18,0,159337,379531194,1287699985,12430,-649
20220901T093650,2600,5,10,413(0x19d),-65,42,-8,0,3,450f06,18640,1280,REGISTERED,CONNECTED,CS_PS_MODE1,18,0,161334,379531193,1287699984,12460,-618
20220901T093652,2600,5,10,413(0x19d),-65,42,-8,0,-14,450f06,18640,1280,REGISTERED,CONNECTED,CS_PS_MODE1,18,0,163332,379531192,1287699982,12550,-529
20220901T093654,2600,5,10,413(0x19d),-65,42,-8,0,-14,450f06,18640,1280,REGISTERED,CONNECTED,CS_PS_MODE1,18,0,165332,379531189,1287699981,12560,-516
20220901T093656,2600,5,10,413(0x19d),-65,42,-8,0,0,450f06,18640,1280,REGISTERED,CONNECTED,CS_PS_MODE1,18,0,167329,379531187,1287699980,12590,-484
20220901T093658,2600,5,10,413(0x19d),-65,42,-8,0,-23,450f06,18640,1280,REGISTERED,CONNECTED,CS_PS_MODE1,18,0,169327,379531182,1287699974,12660,-411
20220901T093701,2600,5,10,413(0x19d),-65,42,-8,0,-9,450f06,18640,1280,REGISTERED,CONNECTED,CS_PS_MODE1,18,0,172657,379531176,1287699963,12740,-334
20220901T093703,2600,5,10,413(0x19d),-65,42,-8,0,-7,450f06,18640,1280,REGISTERED,CONNECTED,CS_PS_MODE1,18,0,174654,379531171,1287699958,12820,-252
20220901T093705,2600,5,10,413(0x19d),-65,36,-8,0,0,450f06,18640,1280,REGISTERED,CONNECTED,CS_PS_MODE1,18,0,176652,379531165,1287699952,12820,-253
20220901T093707,2600,5,10,413(0x19d),-65,43,-8,0,-9,450f06,18640,1280,REGISTERED,CONNECTED,CS_PS_MODE1,18,0,178652,379531162,1287699948,12880,-191
20220901T093709,2600,5,10,413(0x19d),-65,43,-8,0,-20,450f06,18640,1280,REGISTERED,CONNECTED,CS_PS_MODE1,18,0,180982,379531157,1287699943,12920,-153
20220901T093711,2600,5,10,413(0x19d),-65,43,-8,0,-9,450f06,18640,1280,REGISTERED,CONNECTED,CS_PS_MODE1,18,0,182979,379531156,1287699938,12920,-158
20220901T093713,2600,5,10,413(0x19d),-65,43,-8,0,-20,450f06,18640,1280,REGISTERED,CONNECTED,CS_PS_MODE1,18,0,184977,379531155,1287699934,12940,-134
20220901T093716,2600,5,10,413(0x19d),-65,43,-8,0,-23,450f06,18640,1280,REGISTERED,CONNECTED,CS_PS_MODE1,18,0,187309,379531152,1287699932,12990,-82
20220901T093718,2600,5,10,413(0x19d),-65,43,-8,0,-20,450f06,18640,1280,REGISTERED,CONNECTED,CS_PS_MODE1,18,0,189307,379531150,1287699932,13050,-25
20220901T093720,2600,5,10,413(0x19d),-65,43,-8,0,-15,450f06,18640,1280,REGISTERED,CONNECTED,CS_PS_MODE1,18,0,191305,379531146,1287699935,13060,-10
20220901T093722,2600,5,10,413(0x19d),-65,43,-8,0,-9,450f06,18640,1280,REGISTERED,CONNECTED,CS_PS_MODE1,18,0,193302,379531143,1287699938,13090,11
20220901T093724,2600,5,10,413(0x19d),-65,43,-8,0,-10,450f06,18640,1280,REGISTERED,CONNECTED,CS_PS_MODE1,18,0,195302,379531141,1287699942,13070,-9
20220901T093726,2600,5,10,413(0x19d),-65,43,-8,0,-23,450f06,18640,1280,REGISTERED,CONNECTED,CS_PS_MODE1,18,0,197299,379531139,1287699947,13060,-18
20220901T093728,2600,5,10,413(0x19d),-65,43,-8,0,-20,450f06,18640,1280,REGISTERED,CONNECTED,CS_PS_MODE1,18,0,199297,379531137,1287699951,13070,-6
20220901T093730,2600,5,10,413(0x19d),-65,43,-8,0,-24,450f06,18640,1280,REGISTERED,CONNECTED,CS_PS_MODE1,18,0,201294,379531135,1287699954,13090,19
20220901T093733,2600,5,10,413(0x19d),-65,43,-8,0,-23,450f06,18640,1280,REGISTERED,CONNECTED,CS_PS_MODE1,18,0,204957,379531132,1287699958,13110,33
20220901T093735,2600,5,10,413(0x19d),-65,43,-8,0,-9,450f06,18640,1280,REGISTERED,CONNECTED,CS_PS_MODE1,18,0,206957,379531129,1287699960,13100,24
20220901T093737,2600,5,10,413(0x19d),-65,43,-8,0,-19,450f06,18640,1280,REGISTERED,CONNECTED,CS_PS_MODE1,18,0,208287,379531127,1287699962,13140,62
20220901T093739,2600,5,10,413(0x19d),-65,43,-8,0,0,450f06,18640,1280,REGISTERED,CONNECTED,CS_PS_MODE1,18,0,210287,379531123,1287699963,13150,78
20220901T093741,2600,5,10,413(0x19d),-65,43,-8,0,-20,450f06,18640,1280,REGISTERED,CONNECTED,CS_PS_MODE1,18,0,212284,379531121,1287699962,13140,64
20220901T093743,2600,5,10,413(0x19d),-65,36,-8,0,-25,450f06,18640,1280,REGISTERED,CONNECTED,CS_PS_MODE1,18,0,214282,379531119,1287699963,13200,125
20220901T093745,2600,5,10,413(0x19d),-65,43,-8,0,-15,450f06,18640,1280,REGISTERED,CONNECTED,CS_PS_MODE1,18,0,216280,379531119,1287699963,13220,142
20220901T093748,2600,5,10,413(0x19d),-65,43,-8,0,-20,450f06,18640,1280,REGISTERED,CONNECTED,CS_PS_MODE1,18,0,219280,379531117,1287699957,13220,147
20220901T093750,2600,5,10,413(0x19d),-65,43,-8,0,1,450f06,18640,1280,REGISTERED,CONNECTED,CS_PS_MODE1,18,0,221280,379531117,1287699958,13240,164
20220901T093752,2600,5,10,413(0x19d),-65,43,-8,0,-20,450f06,18640,1280,REGISTERED,CONNECTED,CS_PS_MODE1,18,0,223272,379531117,1287699958,13250,178
20220901T093754,2600,5,10,413(0x19d),-65,43,-8,0,-23,450f06,18640,1280,REGISTERED,CONNECTED,CS_PS_MODE1,18,0,225272,379531117,1287699960,13260,184
20220901T093756,2600,5,10,413(0x19d),-65,43,-8,0,-23,450f06,18640,1280,REGISTERED,CONNECTED,CS_PS_MODE1,18,0,227269,379531117,1287699959,13250,177
20220901T093758,2600,5,10,413(0x19d),-65,43,-8,0,-15,450f06,18640,1280,REGISTERED,CONNECTED,CS_PS_MODE1,18,0,229267,379531117,1287699960,13270,196
20220901T093800,2600,5,10,413(0x19d),-65,43,-8,0,-20,450f06,18640,1280,REGISTERED,CONNECTED,CS_PS_MODE1,18,0,231265,379531117,1287699960,13270,196
20220901T093802,2600,5,10,413(0x19d),-65,43,-8,0,-9,450f06,18640,1280,REGISTERED,CONNECTED,CS_PS_MODE1,18,0,233262,379531119,1287699957,13280,200
20220901T093805,2600,5,10,413(0x19d),-65,43,-8,0,3,450f06,18640,1280,REGISTERED,CONNECTED,CS_PS_MODE1,18,0,236259,379531122,1287699957,13290,216
20220901T093807,2600,5,10,413(0x19d),-65,43,-8,0,-15,450f06,18640,1280,REGISTERED,CONNECTED,CS_PS_MODE1,18,0,238257,379531120,1287699954,13310,230
20220901T093809,2600,5,10,413(0x19d),-65,43,-8,0,-23,450f06,18640,1280,REGISTERED,CONNECTED,CS_PS_MODE1,18,0,240257,379531120,1287699951,13340,267
20220901T093811,2600,5,10,413(0x19d),-65,43,-8,0,-8,450f06,18640,1280,REGISTERED,CONNECTED,CS_PS_MODE1,18,0,242254,379531121,1287699949,13300,224
20220901T093813,2600,5,10,413(0x19d),-65,43,-8,0,0,450f06,18640,1280,REGISTERED,CONNECTED,CS_PS_MODE1,18,0,244252,379531124,1287699948,13270,199
20220901T093815,2600,5,10,413(0x19d),-65,43,-8,0,-8,450f06,18640,1280,REGISTERED,CONNECTED,CS_PS_MODE1,18,0,246249,379531130,1287699951,13290,212
20220901T093817,2600,5,10,413(0x19d),-65,43,-8,0,-21,450f06,18640,1280,REGISTERED,CONNECTED,CS_PS_MODE1,18,0,248247,379531133,1287699956,13310,232
20220901T093819,2600,5,10,413(0x19d),-65,43,-8,0,-14,450f06,18640,1280,REGISTERED,CONNECTED,CS_PS_MODE1,18,0,250247,379531134,1287699959,13340,266
20220901T093822,2600,5,10,413(0x19d),-65,43,-8,0,-23,450f06,18640,1280,REGISTERED,CONNECTED,CS_PS_MODE1,18,0,253577,379531142,1287699965,13320,247
20220901T093824,2600,5,10,413(0x19d),-65,43,-8,0,-24,450f06,18640,1280,REGISTERED,CONNECTED,CS_PS_MODE1,18,0,255574,379531145,1287699967,13350,276
20220901T093826,2600,5,10,413(0x19d),-65,43,-8,0,-1,450f06,18640,1280,REGISTERED,CONNECTED,CS_PS_MODE1,18,0,257572,379531148,1287699968,13330,252
20220901T093828,2600,5,10,413(0x19d),-65,43,-8,0,-13,450f06,18640,1280,REGISTERED,CONNECTED,CS_PS_MODE1,18,0,259569,379531148,1287699969,13310,237
20220901T093830,2600,5,10,413(0x19d),-65,43,-8,0,-19,450f06,18640,1280,REGISTERED,CONNECTED,CS_PS_MODE1,18,0,261567,379531146,1287699970,13290,218
20220901T093832,2600,5,10,413(0x19d),-65,43,-8,0,-8,450f06,18640,1280,REGISTERED,CONNECTED,CS_PS_MODE1,18,0,263565,379531147,1287699972,13290,211
20220901T093834,2600,5,10,413(0x19d),-65,43,-8,0,-9,450f06,18640,1280,REGISTERED,CONNECTED,CS_PS_MODE1,18,0,265565,379531148,1287699976,13300,224
20220901T093837,2600,5,10,413(0x19d),-65,43,-8,0,4,450f06,18640,1280,REGISTERED,CONNECTED,CS_PS_MODE1,18,0,268227,379531148,1287699977,13320,240
20220901T093839,2600,5,10,413(0x19d),-65,43,-8,0,-20,450f06,18640,1280,REGISTERED,CONNECTED,CS_PS_MODE1,18,0,270227,379531150,1287699981,13320,244
20220901T093841,2600,5,10,413(0x19d),-65,43,-8,0,-8,450f06,18640,1280,REGISTERED,CONNECTED,CS_PS_MODE1,18,0,272224,379531148,1287699984,13360,281
20220901T093843,2600,5,10,413(0x19d),-65,43,-8,0,-22,450f06,18640,1280,REGISTERED,CONNECTED,CS_PS_MODE1,18,0,274222,379531147,1287699984,13360,286
20220901T093845,2600,5,10,413(0x19d),-65,43,-8,0,-13,450f06,18640,1280,REGISTERED,CONNECTED,CS_PS_MODE1,18,0,276219,379531148,1287699983,13400,323
20220901T093847,2600,5,10,413(0x19d),-65,43,-8,0,-21,450f06,18640,1280,REGISTERED,CONNECTED,CS_PS_MODE1,18,0,278217,379531146,1287699980,13400,320
20220901T093849,2600,5,10,413(0x19d),-65,43,-8,0,-12,450f06,18640,1280,REGISTERED,CONNECTED,CS_PS_MODE1,18,0,280215,379531146,1287699977,13370,298
20220901T093851,2600,5,10,413(0x19d),-65,43,-8,0,-7,450f06,18640,1280,REGISTERED,CONNECTED,CS_PS_MODE1,18,0,282215,379531145,1287699972,13350,275
20220901T093854,2600,5,10,413(0x19d),-65,43,-8,0,-14,450f06,18640,1280,REGISTERED,CONNECTED,CS_PS_MODE1,18,0,285877,379531147,1287699961,13310,232
20220901T093856,2600,5,10,413(0x19d),-65,43,-8,0,-22,450f06,18640,1280,REGISTERED,CONNECTED,CS_PS_MODE1,18,0,287874,379531148,1287699953,13310,238
20220901T093858,2600,5,10,413(0x19d),-65,43,-8,0,-13,450f06,18640,1280,REGISTERED,CONNECTED,CS_PS_MODE1,18,0,289872,379531148,1287699946,13320,243
20220901T093900,2600,5,10,413(0x19d),-65,43,-8,0,-24,450f06,18640,1280,REGISTERED,CONNECTED,CS_PS_MODE1,18,0,291872,379531149,1287699940,13320,244
20220901T093902,2600,5,10,413(0x19d),-65,43,-8,0,-23,450f06,18640,1280,REGISTERED,CONNECTED,CS_PS_MODE1,18,0,293869,379531152,1287699937,13370,290
20220901T093904,2600,5,10,413(0x19d),-65,43,-8,0,0,450f06,18640,1280,REGISTERED,CONNECTED,CS_PS_MODE1,18,0,295867,379531154,1287699930,13420,341
20220901T093906,2600,5,10,413(0x19d),-65,43,-8,0,-10,450f06,18640,1280,REGISTERED,CONNECTED,CS_PS_MODE1,18,0,297864,379531155,1287699925,13390,312
20220901T093908,2600,5,10,413(0x19d),-65,43,-8,0,-12,450f06,18640,1280,REGISTERED,CONNECTED,CS_PS_MODE1,18,0,299865,379531158,1287699923,13380,305
20220901T093911,2600,5,10,413(0x19d),-65,43,-8,0,-19,450f06,18640,1280,REGISTERED,CONNECTED,CS_PS_MODE1,18,0,302194,379531165,1287699923,13430,355
20220901T093913,2600,5,10,413(0x19d),-65,43,-8,0,-14,450f06,18640,1280,REGISTERED,CONNECTED,CS_PS_MODE1,18,0,304192,379531171,1287699922,13390,312
20220901T093915,2600,5,10,413(0x19d),-65,43,-8,0,-19,450f06,18640,1280,REGISTERED,CONNECTED,CS_PS_MODE1,18,0,306189,379531177,1287699924,13380,309
20220901T093917,2600,5,10,413(0x19d),-65,43,-8,0,-19,450f06,18640,1280,REGISTERED,CONNECTED,CS_PS_MODE1,18,0,308187,379531181,1287699923,13340,267
20220901T093919,2600,5,10,413(0x19d),-65,43,-8,0,-14,450f06,18640,1280,REGISTERED,CONNECTED,CS_PS_MODE1,18,0,310187,379531185,1287699924,13320,246
20220901T093921,2600,5,10,413(0x19d),-65,43,-8,0,-19,450f06,18640,1280,REGISTERED,CONNECTED,CS_PS_MODE1,18,0,312184,379531192,1287699926,13310,236
20220901T093923,2600,5,10,413(0x19d),-65,43,-8,0,-15,450f06,18640,1280,REGISTERED,CONNECTED,CS_PS_MODE1,18,0,314182,379531419,1287699925,14010,930
20220901T093925,2600,5,10,413(0x19d),-65,43,-8,0,-12,450f06,18640,1280,REGISTERED,CONNECTED,CS_PS_MODE1,18,0,316179,379531636,1287699780,14080,1002
20220901T093928,2600,5,10,413(0x19d),-65,43,-8,0,0,450f06,18640,1280,REGISTERED,CONNECTED,CS_PS_MODE1,18,0,319177,379531866,1287699637,13870,790
20220901T093930,2600,5,10,413(0x19d),-65,43,-8,0,-15,450f06,18640,1280,REGISTERED,CONNECTED,CS_PS_MODE1,18,0,321174,379531936,1287699740,14040,966
20220901T093932,2600,5,10,413(0x19d),-74,52,-8,0,-2,450f06,18640,1280,REGISTERED,CONNECTED,CS_PS_MODE1,18,0,323172,379532140,1287699730,14100,1025
20220901T093934,2600,5,10,413(0x19d),-69,46,-8,0,5,450f06,18640,1280,REGISTERED,CONNECTED,CS_PS_MODE1,18,0,325172,379532130,1287699578,14100,1021
20220901T093936,2600,5,10,413(0x19d),-69,46,-8,0,-13,450f06,18640,1280,REGISTERED,CONNECTED,CS_PS_MODE1,18,0,327169,379532008,1287699523,13780,707
20220901T093938,2600,5,10,413(0x19d),-69,46,-8,0,-14,450f06,18640,1280,REGISTERED,CONNECTED,CS_PS_MODE1,18,0,329167,379532010,1287699528,13470,396
20220901T093940,2600,5,10,413(0x19d),-69,46,-8,0,-17,450f06,18640,1280,REGISTERED,CONNECTED,CS_PS_MODE1,18,0,331165,379532012,1287699535,13480,403
20220901T093943,2600,5,10,413(0x19d),-69,46,-8,0,-3,450f06,18640,1280,REGISTERED,CONNECTED,CS_PS_MODE1,18,0,334494,379532013,1287699557,13430,358
20220901T093945,2600,5,10,413(0x19d),-69,46,-8,0,6,450f06,18640,1280,REGISTERED,CONNECTED,CS_PS_MODE1,18,0,336492,379532014,1287699564,13640,569
20220901T093947,2600,5,10,413(0x19d),-69,46,-8,0,-5,450f06,18640,1280,REGISTERED,CONNECTED,CS_PS_MODE1,18,0,338492,379532126,1287699514,13430,350
20220901T093949,2600,5,10,413(0x19d),-69,46,-8,0,-17,450f06,18640,1280,REGISTERED,CONNECTED,CS_PS_MODE1,18,0,340489,379532125,1287699514,13360,282
20220901T093951,2600,5,10,413(0x19d),-69,46,-8,0,-14,450f06,18640,1280,REGISTERED,CONNECTED,CS_PS_MODE1,18,0,342487,379532131,1287699512,13360,285
20220901T093953,2600,5,10,413(0x19d),-69,46,-8,0,-2,450f06,18640,1280,REGISTERED,CONNECTED,CS_PS_MODE1,18,0,344484,379532145,1287699509,13360,286
20220901T093955,2600,5,10,413(0x19d),-69,46,-8,0,-14,450f06,18640,1280,REGISTERED,CONNECTED,CS_PS_MODE1,18,0,346482,379532159,1287699505,13380,309
20220901T093957,2600,5,10,413(0x19d),-69,46,-8,0,-17,450f06,18640,1280,REGISTERED,CONNECTED,CS_PS_MODE1,18,0,348482,379532173,1287699504,13360,282
20220901T094000,2600,5,10,413(0x19d),-69,46,-8,0,-2,450f06,18640,1280,REGISTERED,CONNECTED,CS_PS_MODE1,18,0,351144,379532186,1287699503,13410,338
20220901T094002,2600,5,10,413(0x19d),-69,46,-8,0,-14,450f06,18640,1280,REGISTERED,CONNECTED,CS_PS_MODE1,18,0,353142,379532196,1287699500,13410,336
20220901T094004,2600,5,10,413(0x19d),-69,46,-8,0,3,450f06,18640,1280,REGISTERED,CONNECTED,CS_PS_MODE1,18,0,355142,379532209,1287699500,13390,319
20220901T094006,2600,5,10,413(0x19d),-69,46,-8,0,0,450f06,18640,1280,REGISTERED,CONNECTED,CS_PS_MODE1,18,0,357139,379532219,1287699498,13390,310
20220901T094008,2600,5,10,413(0x19d),-69,46,-8,0,-14,450f06,18640,1280,REGISTERED,CONNECTED,CS_PS_MODE1,18,0,359137,379532230,1287699498,13390,313
20220901T094010,2600,5,10,413(0x19d),-69,46,-8,0,-8,450f06,18640,1280,REGISTERED,CONNECTED,CS_PS_MODE1,18,0,361134,379532238,1287699499,13420,340
20220901T094012,2600,5,10,413(0x19d),-69,46,-8,0,-2,450f06,18640,1280,REGISTERED,CONNECTED,CS_PS_MODE1,18,0,363132,379532244,1287699502,13460,386
20220901T094015,2600,5,10,413(0x19d),-69,46,-8,0,-14,450f06,18640,1280,REGISTERED,CONNECTED,CS_PS_MODE1,18,0,366797,379532248,1287699502,13400,326
20220901T094017,2600,5,10,413(0x19d),-69,46,-8,0,-9,450f06,18640,1280,REGISTERED,CONNECTED,CS_PS_MODE1,18,0,368794,379532248,1287699505,13390,315
20220901T094019,2600,5,10,413(0x19d),-69,46,-8,0,-7,450f06,18640,1280,REGISTERED,CONNECTED,CS_PS_MODE1,18,0,370792,379532249,1287699508,13420,343
20220901T094021,2600,5,10,413(0x19d),-69,46,-8,0,-13,450f06,18640,1280,REGISTERED,CONNECTED,CS_PS_MODE1,18,0,372789,379532251,1287699511,13440,367
20220901T094023,2600,5,10,413(0x19d),-69,46,-8,0,0,450f06,18640,1280,REGISTERED,CONNECTED,CS_PS_MODE1,18,0,374787,379532248,1287699512,13430,355
20220901T094025,2600,5,10,413(0x19d),-69,46,-8,0,0,450f06,18640,1280,REGISTERED,CONNECTED,CS_PS_MODE1,18,0,376787,379532246,1287699512,13450,377
20220901T094027,2600,5,10,413(0x19d),-69,46,-8,0,-18,450f06,18640,1280,REGISTERED,CONNECTED,CS_PS_MODE1,18,0,378784,379532243,1287699512,13420,346
20220901T094029,2600,5,10,413(0x19d),-69,46,-8,0,-1,450f06,18640,1280,REGISTERED,CONNECTED,CS_PS_MODE1,18,0,380782,379532239,1287699512,13370,294
20220901T094032,2600,5,10,413(0x19d),-69,46,-8,0,-17,450f06,18640,1280,REGISTERED,CONNECTED,CS_PS_MODE1,18,0,383447,379532207,1287699516,13320,248
20220901T094034,2600,5,10,413(0x19d),-69,46,-8,0,0,450f06,18640,1280,REGISTERED,CONNECTED,CS_PS_MODE1,18,0,385444,379532205,1287699506,13300,220
20220901T094036,2600,5,10,413(0x19d),-69,46,-8,0,-5,450f06,18640,1280,REGISTERED,CONNECTED,CS_PS_MODE1,18,0,387442,379532197,1287699505,13340,269
20220901T094038,2600,5,10,413(0x19d),-69,46,-8,0,-13,450f06,18640,1280,REGISTERED,CONNECTED,CS_PS_MODE1,18,0,389439,379532197,1287699483,13650,579
20220901T094040,2600,5,10,413(0x19d),-79,56,-8,0,-11,450f06,18640,1280,REGISTERED,CONNECTED,CS_PS_MODE1,18,0,391437,379532153,1287699331,14100,1024
20220901T094042,2600,5,10,413(0x19d),-79,56,-8,0,-2,450f06,18640,1280,REGISTERED,CONNECTED,CS_PS_MODE1,18,0,393437,379532138,1287699292,13600,521
20220901T094044,2600,5,10,413(0x19d),-79,56,-8,0,-3,450f06,18640,1280,REGISTERED,CONNECTED,CS_PS_MODE1,18,0,395434,379532138,1287699292,13570,494
20220901T094046,2600,5,10,413(0x19d),-79,56,-8,0,-12,450f06,18640,1280,REGISTERED,CONNECTED,CS_PS_MODE1,18,0,397432,379532138,1287699291,13500,428
20220901T094049,2600,5,10,413(0x19d),-79,56,-8,0,-8,450f06,18640,1280,REGISTERED,CONNECTED,CS_PS_MODE1,18,0,401094,379532140,1287699297,13420,341
20220901T094051,2600,5,10,413(0x19d),-79,56,-8,0,-13,450f06,18640,1280,REGISTERED,CONNECTED,CS_PS_MODE1,18,0,403092,379532141,1287699306,13380,309
20220901T094053,2600,5,10,413(0x19d),-79,56,-8,0,-12,450f06,18640,1280,REGISTERED,CONNECTED,CS_PS_MODE1,18,0,405092,379532144,1287699310,13390,319
20220901T094055,2600,5,10,413(0x19d),-79,56,-8,0,-15,450f06,18640,1280,REGISTERED,CONNECTED,CS_PS_MODE1,18,0,407089,379532149,1287699314,13410,333
20220901T094057,2600,5,10,413(0x19d),-79,56,-8,0,-3,450f06,18640,1280,REGISTERED,CONNECTED,CS_PS_MODE1,18,0,409087,379532154,1287699320,13420,342
20220901T094059,2600,5,10,413(0x19d),-79,56,-8,0,-14,450f06,18640,1280,REGISTERED,CONNECTED,CS_PS_MODE1,18,0,411084,379532159,1287699323,13460,384
20220901T094101,2600,5,10,413(0x19d),-71,45,-8,0,-3,450f06,18640,1280,REGISTERED,CONNECTED,CS_PS_MODE1,18,0,413082,379532165,1287699327,13490,411
20220901T094104,2600,5,10,413(0x19d),-65,38,-8,0,0,450f06,18640,1280,REGISTERED,CONNECTED,CS_PS_MODE1,18,0,415415,379532175,1287699334,13480,400
20220901T094106,2600,5,10,413(0x19d),-65,38,-8,0,-8,450f06,18640,1280,REGISTERED,CONNECTED,CS_PS_MODE1,18,0,417412,379532181,1287699340,13460,389
20220901T094108,2600,5,10,413(0x19d),-72,49,-8,0,-9,450f06,18640,1280,REGISTERED,CONNECTED,CS_PS_MODE1,18,0,419409,379532187,1287699346,13480,403
20220901T094110,2600,5,10,413(0x19d),-67,49,-8,0,-21,450f06,18640,1280,REGISTERED,CONNECTED,CS_PS_MODE1,18,0,421407,379532188,1287699353,13500,423
20220901T094112,2600,5,10,413(0x19d),-67,49,-8,0,-10,450f06,18640,1280,REGISTERED,CONNECTED,CS_PS_MODE1,18,0,423405,379532187,1287699358,13500,427
20220901T094114,2600,5,10,413(0x19d),-67,49,-8,0,-6,450f06,18640,1280,REGISTERED,CONNECTED,CS_PS_MODE1,18,0,425405,379532182,1287699359,13500,421
20220901T094116,2600,5,10,413(0x19d),-67,49,-8,0,-21,450f06,18640,1280,REGISTERED,CONNECTED,CS_PS_MODE1,18,0,427402,379532173,1287699363,13540,465
20220901T094118,2600,5,10,413(0x19d),-67,49,-8,0,0,450f06,18640,1280,REGISTERED,CONNECTED,CS_PS_MODE1,18,0,429399,379532167,1287699365,13510,438
20220901T094121,2600,5,10,413(0x19d),-67,49,-8,0,-3,450f06,18640,1280,REGISTERED,CONNECTED,CS_PS_MODE1,18,0,432397,379532153,1287699367,13510,437
20220901T094123,2600,5,10,413(0x19d),-73,49,-8,0,-3,450f06,18640,1280,REGISTERED,CONNECTED,CS_PS_MODE1,18,0,434394,379532142,1287699369,13490,418
20220901T094125,2600,5,10,413(0x19d),-73,49,-8,0,6,450f06,18640,1280,REGISTERED,CONNECTED,CS_PS_MODE1,18,0,436392,379532129,1287699371,13520,445
20220901T094127,2600,5,10,413(0x19d),-73,39,-8,0,-17,450f06,18640,1280,REGISTERED,CONNECTED,CS_PS_MODE1,18,0,438392,379532116,1287699374,13540,467
20220901T094129,2600,5,10,413(0x19d),-73,39,-8,0,-4,450f06,18640,1280,REGISTERED,CONNECTED,CS_PS_MODE1,18,0,440389,379532103,1287699375,13580,507
20220901T094131,2600,5,10,413(0x19d),-73,48,-8,0,-22,450f06,18640,1280,REGISTERED,CONNECTED,CS_PS_MODE1,18,0,442387,379532091,1287699374,13600,526
20220901T094133,2600,5,10,413(0x19d),-67,48,-8,0,-15,450f06,18640,1280,REGISTERED,CONNECTED,CS_PS_MODE1,18,0,444384,379532081,1287699373,13550,473
20220901T094135,2600,5,10,413(0x19d),-67,48,-8,0,-23,450f06,18640,1280,REGISTERED,CONNECTED,CS_PS_MODE1,18,0,446382,379532074,1287699372,13550,470
20220901T094138,2600,5,10,413(0x19d),-67,48,-8,0,-12,450f06,18640,1280,REGISTERED,CONNECTED,CS_PS_MODE1,18,0,449379,379532060,1287699364,13530,451
20220901T094140,2600,5,10,413(0x19d),-67,48,-8,0,-8,450f06,18640,1280,REGISTERED,CONNECTED,CS_PS_MODE1,18,0,451377,379532053,1287699359,13530,457
20220901T094142,2600,5,10,413(0x19d),-67,48,-8,0,-19,450f06,18640,1280,REGISTERED,CONNECTED,CS_PS_MODE1,18,0,453377,379532045,1287699353,13530,453
20220901T094144,2600,5,10,413(0x19d),-67,48,-8,0,-13,450f06,18640,1280,REGISTERED,CONNECTED,CS_PS_MODE1,18,0,455374,379532038,1287699347,13550,470
20220901T094146,2600,5,10,413(0x19d),-67,48,-8,0,-13,450f06,18640,1280,REGISTERED,CONNECTED,CS_PS_MODE1,18,0,457372,379532035,1287699343,13560,483
20220901T094148,2600,5,10,413(0x19d),-67,48,-8,0,-22,450f06,18640,1280,REGISTERED,CONNECTED,CS_PS_MODE1,18,0,459702,379532034,1287699337,13560,485
20220901T094150,2600,5,10,413(0x19d),-67,48,-8,0,-12,450f06,18640,1280,REGISTERED,CONNECTED,CS_PS_MODE1,18,0,461702,379532033,1287699334,13550,477
20220901T094153,2600,5,10,413(0x19d),-67,48,-8,0,-22,450f06,18640,1280,REGISTERED,CONNECTED,CS_PS_MODE1,18,0,464364,379532033,1287699331,13530,458
20220901T094155,2600,5,10,413(0x19d),-67,48,-8,0,-21,450f06,18640,1280,REGISTERED,CONNECTED,CS_PS_MODE1,18,0,466362,379532034,1287699330,13560,487
20220901T094157,2600,5,10,413(0x19d),-67,48,-8,0,-23,450f06,18640,1280,REGISTERED,CONNECTED,CS_PS_MODE1,18,0,468362,379532034,1287699328,13560,488
20220901T094159,2600,5,10,413(0x19d),-67,41,-8,0,-12,450f06,18640,1280,REGISTERED,CONNECTED,CS_PS_MODE1,18,0,470359,379532034,1287699327,13560,481
20220901T094201,2600,5,10,413(0x19d),-67,41,-8,0,-8,450f06,18640,1280,REGISTERED,CONNECTED,CS_PS_MODE1,18,0,472357,379532034,1287699327,13550,471
20220901T094203,2600,5,10,413(0x19d),-67,41,-8,0,0,450f06,18640,1280,REGISTERED,CONNECTED,CS_PS_MODE1,18,0,474354,379532032,1287699326,13550,471
20220901T094205,2600,5,10,413(0x19d),-67,41,-8,0,-23,450f06,18640,1280,REGISTERED,CONNECTED,CS_PS_MODE1,18,0,476352,379532031,1287699326,13590,511
20220901T094207,2600,5,10,413(0x19d),-67,41,-8,0,-8,450f06,18640,1280,REGISTERED,CONNECTED,CS_PS_MODE1,18,0,478352,379532031,1287699326,13600,520
20220901T094210,2600,5,10,413(0x19d),-67,41,-8,0,-24,450f06,18640,1280,REGISTERED,CONNECTED,CS_PS_MODE1,18,0,481682,379532028,1287699328,13600,528
20220901T094212,2600,5,10,413(0x19d),-67,41,-8,0,-14,450f06,18640,1280,REGISTERED,CONNECTED,CS_PS_MODE1,18,0,483679,379532022,1287699329,13580,502
20220901T094214,2600,5,10,413(0x19d),-67,41,-8,0,-23,450f06,18640,1280,REGISTERED,CONNECTED,CS_PS_MODE1,18,0,485677,379532018,1287699330,13610,530
20220901T094216,2600,5,10,413(0x19d),-67,41,-8,0,-21,450f06,18640,1280,REGISTERED,CONNECTED,CS_PS_MODE1,18,0,487674,379532016,1287699331,13600,523
20220901T094218,2600,5,10,413(0x19d),-67,41,-8,0,-22,450f06,18640,1280,REGISTERED,CONNECTED,CS_PS_MODE1,18,0,489672,379532014,1287699330,13570,493
20220901T094220,2600,5,10,413(0x19d),-67,41,-8,0,-9,450f06,18640,1280,REGISTERED,CONNECTED,CS_PS_MODE1,18,0,491672,379532013,1287699328,13590,519
20220901T094222,2600,5,10,413(0x19d),-67,41,-8,0,-11,450f06,18640,1280,REGISTERED,CONNECTED,CS_PS_MODE1,18,0,493669,379532014,1287699327,13600,521
20220901T094224,2600,5,10,413(0x19d),-67,41,-8,0,-11,450f06,18640,1280,REGISTERED,CONNECTED,CS_PS_MODE1,18,0,496001,379532012,1287699324,13640,53
20220901T094227,2600,5,10,413(0x19d),-67,41,-8,0,-22,450f06,18640,1280,REGISTERED,CONNECTED,CS_PS_MODE1,18,0,498331,379532014,1287699322,13620,38
20220901T094229,2600,5,10,413(0x19d),-67,41,-8,0,-25,450f06,18640,1280,REGISTERED,CONNECTED,CS_PS_MODE1,18,0,500328,379532015,1287699322,13620,38
20220901T094231,2600,5,10,413(0x19d),-67,41,-8,0,-22,450f06,18640,1280,REGISTERED,CONNECTED,CS_PS_MODE1,18,0,502326,379532028,1287699318,15220,1638
20220901T094233,2600,5,10,413(0x19d),-67,48,-8,0,-15,450f06,18640,1280,REGISTERED,CONNECTED,CS_PS_MODE1,18,0,504326,379532013,1287699332,20090,6506
20220901T094235,2600,5,10,413(0x19d),-67,48,-8,0,-2,450f06,18640,1280,REGISTERED,CONNECTED,CS_PS_MODE1,18,0,506323,379532018,1287699319,25040,11455
20220901T094237,2600,5,10,413(0x19d),-67,41,-8,0,0,450f06,18640,1280,REGISTERED,CONNECTED,CS_PS_MODE1,18,0,508321,379532022,1287699324,29850,16268
20220901T094239,2600,5,10,413(0x19d),-62,59,-8,0,-8,450f06,18640,1280,REGISTERED,CONNECTED,CS_PS_MODE1,18,0,510318,379532017,1287699320,32850,19269
20220901T094242,2600,5,10,413(0x19d),-62,59,-8,0,-24,450f06,18640,1280,REGISTERED,CONNECTED,CS_PS_MODE1,18,0,513981,379532013,1287699328,33660,20071
20220901T094244,2600,5,10,413(0x19d),-62,41,-8,0,-26,450f06,18640,1280,REGISTERED,CONNECTED,CS_PS_MODE1,18,0,515981,379532014,1287699330,33680,20090
20220901T094246,2600,5,10,413(0x19d),-62,41,-8,0,-16,450f06,18640,1280,REGISTERED,CONNECTED,CS_PS_MODE1,18,0,517978,379532016,1287699325,33690,20103
20220901T094248,2600,5,10,413(0x19d),-62,41,-8,0,-26,450f06,18640,1280,REGISTERED,CONNECTED,CS_PS_MODE1,18,0,519976,379532020,1287699309,33650,20061
20220901T094250,2600,5,10,413(0x19d),-62,41,-8,0,-19,450f06,18640,1280,REGISTERED,CONNECTED,CS_PS_MODE1,18,0,521973,379532016,1287699317,33650,20069
20220901T094252,2600,5,10,413(0x19d),-62,41,-8,0,-27,450f06,18640,1280,REGISTERED,CONNECTED,CS_PS_MODE1,18,0,523971,379532017,1287699323,33650,20068
20220901T094254,2600,5,10,413(0x19d),-62,41,-8,0,-25,450f06,18640,1280,REGISTERED,CONNECTED,CS_PS_MODE1,18,0,525971,379532018,1287699327,33660,20071
20220901T094256,2600,5,10,413(0x19d),-62,41,-8,0,-9,450f06,18640,1280,REGISTERED,CONNECTED,CS_PS_MODE1,18,0,527968,379532017,1287699321,33640,20059
20220901T094259,2600,5,10,413(0x19d),-62,41,-8,0,-6,450f06,18640,1280,REGISTERED,CONNECTED,CS_PS_MODE1,18,0,530298,379532017,1287699323,33640,20057
20220901T094301,2600,5,10,413(0x19d),-62,41,-8,0,-9,450f06,18640,1280,REGISTERED,CONNECTED,CS_PS_MODE1,18,0,532296,379532015,1287699320,33690,20100
20220901T094303,2600,5,10,413(0x19d),-62,41,-8,0,-25,450f06,18640,1280,REGISTERED,CONNECTED,CS_PS_MODE1,18,0,534296,379532014,1287699321,33670,20083
20220901T094305,2600,5,10,413(0x19d),-70,41,-8,0,-6,450f06,18640,1280,REGISTERED,CONNECTED,CS_PS_MODE1,18,0,536293,379532015,1287699321,33660,20079
20220901T094307,2600,5,10,413(0x19d),-65,41,-8,0,-26,450f06,18640,1280,REGISTERED,CONNECTED,CS_PS_MODE1,18,0,538291,379532014,1287699322,33680,20097
20220901T094309,2600,5,10,413(0x19d),-65,41,-8,0,-16,450f06,18640,1280,REGISTERED,CONNECTED,CS_PS_MODE1,18,0,540288,379532017,1287699322,33690,20107
20220901T094311,2600,5,10,413(0x19d),-65,41,-8,0,0,450f06,18640,1280,REGISTERED,CONNECTED,CS_PS_MODE1,18,0,542286,379532015,1287699322,33690,20109
20220901T094313,2600,5,10,413(0x19d),-65,41,-8,0,0,450f06,18640,1280,REGISTERED,CONNECTED,CS_PS_MODE1,18,0,544286,379532014,1287699319,33690,20103
20220901T094316,2600,5,10,413(0x19d),-65,41,-8,0,-25,450f06,18640,1280,REGISTERED,CONNECTED,CS_PS_MODE1,18,0,547283,379532018,1287699325,33770,20189
20220901T094318,2600,5,10,413(0x19d),-71,41,-8,0,-16,450f06,18640,1280,REGISTERED,CONNECTED,CS_PS_MODE1,18,0,549283,379532011,1287699326,33760,20172
20220901T094320,2600,5,10,413(0x19d),-71,41,-8,0,0,450f06,18640,1280,REGISTERED,CONNECTED,CS_PS_MODE1,18,0,551281,379532014,1287699329,33700,20112
20220901T094322,2600,5,10,413(0x19d),-66,72,-8,0,-15,450f06,18640,1280,REGISTERED,CONNECTED,CS_PS_MODE1,18,0,553281,379532019,1287699324,33720,20136
20220901T094324,2600,5,10,413(0x19d),-66,41,-8,0,0,450f06,18640,1280,REGISTERED,CONNECTED,CS_PS_MODE1,18,0,555273,379532012,1287699329,32980,19393
20220901T094326,2600,5,10,413(0x19d),-66,41,-8,0,-6,450f06,18640,1280,REGISTERED,CONNECTED,CS_PS_MODE1,18,0,557271,379532021,1287699340,30120,16537
20220901T094328,2600,5,10,413(0x19d),-66,41,-8,0,-22,450f06,18640,1280,REGISTERED,CONNECTED,CS_PS_MODE1,18,0,559271,379532021,1287699323,27190,13606
20220901T094331,2600,5,10,413(0x19d),-66,41,-8,0,-25,450f06,18640,1280,REGISTERED,CONNECTED,CS_PS_MODE1,18,0,562601,379531995,1287699325,23840,10256
20220901T094333,2600,5,10,413(0x19d),-66,41,-8,0,-24,450f06,18640,1280,REGISTERED,CONNECTED,CS_PS_MODE1,18,0,564598,379532020,1287699337,23930,10343
20220901T094335,2600,5,10,413(0x19d),-66,41,-8,0,-15,450f06,18640,1280,REGISTERED,CONNECTED,CS_PS_MODE1,18,0,566596,379532025,1287699329,25510,11928
20220901T094337,2600,5,10,413(0x19d),-66,41,-8,0,-22,450f06,18640,1280,REGISTERED,CONNECTED,CS_PS_MODE1,18,0,568593,379532021,1287699325,27070,13484
20220901T094339,2600,5,10,413(0x19d),-66,41,-8,0,-13,450f06,18640,1280,REGISTERED,CONNECTED,CS_PS_MODE1,18,0,570591,379532023,1287699326,28880,15291
20220901T094341,2600,5,10,413(0x19d),-66,41,-8,0,0,450f06,18640,1280,REGISTERED,CONNECTED,CS_PS_MODE1,18,0,572591,379532032,1287699322,30680,17090
20220901T094343,2600,5,10,413(0x19d),-66,41,-8,0,-22,450f06,18640,1280,REGISTERED,CONNECTED,CS_PS_MODE1,18,0,574588,379532020,1287699324,32370,18787
20220901T094345,2600,5,10,413(0x19d),-66,41,-8,0,7,450f06,18640,1280,REGISTERED,CONNECTED,CS_PS_MODE1,18,0,576586,379532022,1287699325,33260,19679
20220901T094348,2600,5,10,413(0x19d),-66,41,-8,0,-14,450f06,18640,1280,REGISTERED,CONNECTED,CS_PS_MODE1,18,0,579257,379532016,1287699328,33400,19818
20220901T094350,2600,5,10,413(0x19d),-66,72,-8,0,-16,450f06,18640,1280,REGISTERED,CONNECTED,CS_PS_MODE1,18,0,581248,379532024,1287699326,33370,19789
20220901T094352,2600,5,10,413(0x19d),-66,41,-8,0,-17,450f06,18640,1280,REGISTERED,CONNECTED,CS_PS_MODE1,18,0,583246,379532022,1287699300,33380,19794
20220901T094354,2600,5,10,413(0x19d),-66,41,-8,0,-16,450f06,18640,1280,REGISTERED,CONNECTED,CS_PS_MODE1,18,0,585244,379532019,1287699292,33370,19786
20220901T094356,2600,5,10,413(0x19d),-66,41,-8,0,-16,450f06,18640,1280,REGISTERED,CONNECTED,CS_PS_MODE1,18,0,587241,379532018,1287699287,33380,19793
20220901T094358,2600,5,10,413(0x19d),-66,41,-8,0,-21,450f06,18640,1280,REGISTERED,CONNECTED,CS_PS_MODE1,18,0,589241,379532019,1287699292,33380,19791
20220901T094400,2600,5,10,413(0x19d),-66,41,-8,0,-15,450f06,18640,1280,REGISTERED,CONNECTED,CS_PS_MODE1,18,0,591238,379532021,1287699292,33360,19776
20220901T094403,2600,5,10,413(0x19d),-66,41,-8,0,-15,450f06,18640,1280,REGISTERED,CONNECTED,CS_PS_MODE1,18,0,594901,379532015,1287699285,33370,19786
20220901T094405,2600,5,10,413(0x19d),-66,41,-8,0,-20,450f06,18640,1280,REGISTERED,CONNECTED,CS_PS_MODE1,18,0,596898,379532017,1287699288,33390,19800
20220901T094407,2600,5,10,413(0x19d),-66,41,-8,0,-22,450f06,18640,1280,REGISTERED,CONNECTED,CS_PS_MODE1,18,0,598896,379532020,1287699287,33360,19774
20220901T094409,2600,5,10,413(0x19d),-66,41,-8,0,-22,450f06,18640,1280,REGISTERED,CONNECTED,CS_PS_MODE1,18,0,600896,379532020,1287699297,33370,19789
20220901T094411,2600,5,10,413(0x19d),-66,41,-8,0,0,450f06,18640,1280,REGISTERED,CONNECTED,CS_PS_MODE1,18,0,602893,379532019,1287699296,33340,19759
20220901T094413,2600,5,10,413(0x19d),-66,41,-8,0,-11,450f06,18640,1280,REGISTERED,CONNECTED,CS_PS_MODE1,18,0,604891,379532021,1287699292,33380,19794
20220901T094415,2600,5,10,413(0x19d),-66,41,-8,0,-10,450f06,18640,1280,REGISTERED,CONNECTED,CS_PS_MODE1,18,0,606888,379532021,1287699295,33380,19792
20220901T094417,2600,5,10,413(0x19d),-66,41,-8,0,0,450f06,18640,1280,REGISTERED,CONNECTED,CS_PS_MODE1,18,0,608886,379532020,1287699293,33390,19803
20220901T094420,2600,5,10,413(0x19d),-66,41,-8,0,-24,450f06,18640,1280,REGISTERED,CONNECTED,CS_PS_MODE1,18,0,611218,379532018,1287699293,33330,19749
20220901T094422,2600,5,10,413(0x19d),-66,41,-8,0,-21,450f06,18640,1280,REGISTERED,CONNECTED,CS_PS_MODE1,18,0,613216,379532022,1287699294,33370,19783
20220901T094424,2600,5,10,413(0x19d),-66,41,-8,0,-24,450f06,18640,1280,REGISTERED,CONNECTED,CS_PS_MODE1,18,0,615213,379532019,1287699290,33370,19787
20220901T094426,2600,5,10,413(0x19d),-66,72,-8,0,-26,450f06,18640,1280,REGISTERED,CONNECTED,CS_PS_MODE1,18,0,617211,379532016,1287699293,33380,19796
20220901T094428,2600,5,10,413(0x19d),-66,42,-8,0,-22,450f06,18640,1280,REGISTERED,CONNECTED,CS_PS_MODE1,18,0,619211,379532020,1287699294,33360,19774
20220901T094430,2600,5,10,413(0x19d),-66,42,-8,0,-13,450f06,18640,1280,REGISTERED,CONNECTED,CS_PS_MODE1,18,0,621208,379532020,1287699295,33360,19777
20220901T094432,2600,5,10,413(0x19d),-66,42,-8,0,-7,450f06,18640,1280,REGISTERED,CONNECTED,CS_PS_MODE1,18,0,623206,379532020,1287699293,33360,19770
20220901T094434,2600,5,10,413(0x19d),-66,42,-8,0,-16,450f06,18640,1280,REGISTERED,CONNECTED,CS_PS_MODE1,18,0,625203,379532018,1287699291,33390,19800
20220901T094437,2600,5,10,413(0x19d),-66,42,-8,0,-3,450f06,18640,1280,REGISTERED,CONNECTED,CS_PS_MODE1,18,0,628201,379532017,1287699295,33380,19794
20220901T094439,2600,5,10,413(0x19d),-66,42,-8,0,0,450f06,18640,1280,REGISTERED,CONNECTED,CS_PS_MODE1,18,0,630198,379532020,1287699296,33350,19760
20220901T094441,2600,5,10,413(0x19d),-66,42,-8,0,-4,450f06,18640,1280,REGISTERED,CONNECTED,CS_PS_MODE1,18,0,632196,379532019,1287699296,33360,19774
20220901T094443,2600,5,10,413(0x19d),-66,42,-8,0,-9,450f06,18640,1280,REGISTERED,CONNECTED,CS_PS_MODE1,18,0,634196,379532022,1287699296,33380,19798
20220901T094445,2600,5,10,413(0x19d),-66,42,-8,0,-6,450f06,18640,1280,REGISTERED,CONNECTED,CS_PS_MODE1,18,0,636193,379532020,1287699288,33370,19780
20220901T094447,2600,5,10,413(0x19d),-66,42,-8,0,-2,450f06,18640,1280,REGISTERED,CONNECTED,CS_PS_MODE1,18,0,638191,379532019,1287699294,33370,19788
20220901T094449,2600,5,10,413(0x19d),-72,42,-8,0,0,450f06,18640,1280,REGISTERED,CONNECTED,CS_PS_MODE1,18,0,640188,379532017,1287699294,33380,19792
20220901T094452,2600,5,10,413(0x19d),-78,54,-8,0,-13,450f06,18640,1280,REGISTERED,CONNECTED,CS_PS_MODE1,18,0,643186,379532017,1287699293,33360,19770
20220901T094454,2600,5,10,413(0x19d),-78,54,-8,0,-2,450f06,18640,1280,REGISTERED,CONNECTED,CS_PS_MODE1,18,0,645183,379532017,1287699292,33340,19758
20220901T094456,2600,5,10,413(0x19d),-78,54,-8,0,0,450f06,18640,1280,REGISTERED,CONNECTED,CS_PS_MODE1,18,0,647181,379532025,1287699297,33370,19786
20220901T094458,2600,5,10,413(0x19d),-84,54,-8,0,2,450f06,18640,1280,REGISTERED,CONNECTED,CS_PS_MODE1,18,0,649513,379532025,1287699300,33390,19803
20220901T094500,2600,5,10,413(0x19d),-84,54,-8,0,0,450f06,18640,1280,REGISTERED,CONNECTED,CS_PS_MODE1,18,0,651511,379532024,1287699300,33350,19763
20220901T094502,2600,5,10,413(0x19d),-84,54,-8,0,0,450f06,18640,1280,REGISTERED,CONNECTED,CS_PS_MODE1,18,0,653508,379532025,1287699302,33480,19891
20220901T094504,2600,5,10,204(0xcc),-84,54,-8,0,-4,450f06,18640,1280,REGISTERED,CONNECTED,CS_PS_MODE1,18,0,655506,379531943,1287699307,34650,21064
20220901T094506,2600,5,10,204(0xcc),-84,54,-8,0,11,450f06,18640,1280,REGISTERED,CONNECTED,CS_PS_MODE1,18,0,657506,379531654,1287699321,38900,25310
20220901T094509,2600,5,10,204(0xcc),-84,54,-8,0,-5,450f06,18640,1280,REGISTERED,CONNECTED,CS_PS_MODE1,18,0,660168,379531182,1287699373,45510,31928
20220901T094511,2600,5,10,204(0xcc),-84,54,-8,0,8,450f06,18640,1280,REGISTERED,CONNECTED,CS_PS_MODE1,18,0,662166,379530828,1287699398,50460,36876
20220901T094513,2600,5,10,401(0x191),-84,48,-8,0,-16,450f06,18640,1280,REGISTERED,CONNECTED,CS_PS_MODE1,18,0,664166,379530484,1287699414,55540,41954
20220901T094515,2600,5,10,401(0x191),-84,48,-8,0,-11,450f06,18640,1280,REGISTERED,CONNECTED,CS_PS_MODE1,18,0,666163,379530132,1287699445,60490,46905
20220901T094517,2600,5,10,401(0x191),-84,48,-8,0,10,450f06,18640,1280,REGISTERED,CONNECTED,CS_PS_MODE1,18,0,668161,379529784,1287699459,65490,51905
20220901T094519,2600,5,10,401(0x191),-84,54,-8,0,14,450f06,18640,1280,REGISTERED,CONNECTED,CS_PS_MODE1,18,0,670158,379529438,1287699493,70500,56917
20220901T094521,2600,5,10,401(0x191),-79,54,-8,0,7,450f06,18640,1280,REGISTERED,CONNECTED,CS_PS_MODE1,18,0,672157,379529089,1287699525,75520,61937
20220901T094523,2600,5,10,401(0x191),-79,54,-8,0,11,450f06,18640,1280,REGISTERED,CONNECTED,CS_PS_MODE1,18,0,674154,379528739,1287699545,80460,66876
20220901T094526,2600,5,10,401(0x191),-79,48,-8,0,-17,450f06,18640,1280,REGISTERED,CONNECTED,CS_PS_MODE1,18,0,677486,379528157,1287699590,88830,75246
20220901T094528,2600,5,10,401(0x191),-79,48,-8,0,5,450f06,18640,1280,REGISTERED,CONNECTED,CS_PS_MODE1,18,0,679816,379527753,1287699620,94660,81071
20220901T094530,2600,5,10,401(0x191),-79,48,-8,0,15,450f06,18640,1280,REGISTERED,CONNECTED,CS_PS_MODE1,18,0,681813,379527400,1287699643,99640,86051
20220901T094532,2600,5,10,401(0x191),-79,48,-8,0,-14,450f06,18640,1280,REGISTERED,CONNECTED,CS_PS_MODE1,18,0,683811,379527051,1287699673,104600,91014
20220901T094534,2600,5,10,401(0x191),-79,48,-8,0,-14,450f06,18640,1280,REGISTERED,CONNECTED,CS_PS_MODE1,18,0,685811,379526701,1287699698,109610,96022
20220901T094536,2600,5,10,401(0x191),-79,54,-8,0,-16,450f06,18640,1280,REGISTERED,CONNECTED,CS_PS_MODE1,18,0,687808,379526355,1287699726,114600,101010
20220901T094538,2600,5,10,401(0x191),-79,54,-8,0,0,450f06,18640,1280,REGISTERED,CONNECTED,CS_PS_MODE1,18,0,689806,379526005,1287699752,119600,106019
20220901T094541,2600,5,10,401(0x191),-79,45,-13,0,-17,450f06,18640,1280,REGISTERED,CONNECTED,CS_PS_MODE1,18,0,692136,379525597,1287699780,125410,111825
20220901T094543,2600,5,10,401(0x191),-79,52,-13,0,-16,450f06,18640,1280,REGISTERED,CONNECTED,CS_PS_MODE1,18,0,694136,379525247,1287699806,130430,116840
20220901T094545,2600,5,10,401(0x191),-79,52,-13,0,10,450f06,18640,1280,REGISTERED,CONNECTED,CS_PS_MODE1,18,0,696133,379524898,1287699830,135420,121838
20220901T094547,2600,5,10,401(0x191),-79,52,-13,0,-20,450f06,18640,1280,REGISTERED,CONNECTED,CS_PS_MODE1,18,0,698131,379524551,1287699859,140400,126815
20220901T094549,2600,5,10,401(0x191),-79,52,-13,0,-15,450f06,18640,1280,REGISTERED,CONNECTED,CS_PS_MODE1,18,0,700128,379524201,1287699883,145380,131797
20220901T094551,2600,5,10,401(0x191),-79,52,-13,0,-2,450f06,18640,1280,REGISTERED,CONNECTED,CS_PS_MODE1,18,0,702126,379523853,1287699912,150400,136815
20220901T094553,2600,5,10,401(0x191),-79,52,-13,0,7,450f06,18640,1280,REGISTERED,CONNECTED,CS_PS_MODE1,18,0,704126,379523505,1287699937,155390,141806
20220901T094555,2600,5,10,401(0x191),-79,52,-13,0,-19,450f06,18640,1280,REGISTERED,CONNECTED,CS_PS_MODE1,18,0,706123,379523153,1287699964,160370,146788
20220901T094558,2600,5,10,401(0x191),-79,52,-13,0,-19,450f06,18640,1280,REGISTERED,CONNECTED,CS_PS_MODE1,18,0,709121,379522631,1287700002,167870,154288
20220901T094600,2600,5,10,401(0x191),-79,52,-13,0,-3,450f06,18640,1280,REGISTERED,CONNECTED,CS_PS_MODE1,18,0,712116,379522108,1287700042,175360,161774
20220901T094602,2600,5,10,401(0x191),-79,52,-13,0,-18,450f06,18640,1280,REGISTERED,CONNECTED,CS_PS_MODE1,18,0,714116,379521759,1287700066,180330,166740
20220901T094604,2600,5,10,401(0x191),-79,52,-13,0,0,450f06,18640,1280,REGISTERED,CONNECTED,CS_PS_MODE1,18,0,716113,379521411,1287700094,185320,171732
20220901T094606,2600,5,10,401(0x191),-79,52,-13,0,8,450f06,18640,1280,REGISTERED,CONNECTED,CS_PS_MODE1,18,0,718111,379521063,1287700120,190320,176731
20220901T094608,2600,5,10,401(0x191),-79,52,-13,0,-2,450f06,18640,1280,REGISTERED,CONNECTED,CS_PS_MODE1,18,0,720108,379520710,1287700144,195310,181720
20220901T094610,2600,5,10,401(0x191),-79,52,-13,0,-18,450f06,18640,1280,REGISTERED,CONNECTED,CS_PS_MODE1,18,0,722106,379520364,1287700171,200310,186727
20220901T094613,2600,5,10,401(0x191),-79,52,-13,0,-16,450f06,18640,1280,REGISTERED,CONNECTED,CS_PS_MODE1,18,0,724438,379519957,1287700204,206170,192585
20220901T094615,2600,5,10,401(0x191),-79,52,-13,0,2,450f06,18640,1280,REGISTERED,CONNECTED,CS_PS_MODE1,18,0,726436,379519607,1287700227,211170,197588
20220901T094617,2600,5,10,401(0x191),-79,52,-13,0,6,450f06,18640,1280,REGISTERED,CONNECTED,CS_PS_MODE1,18,0,728433,379519256,1287700255,216160,202574
20220901T094619,2600,5,10,401(0x191),-79,52,-13,0,-15,450f06,18640,1280,REGISTERED,CONNECTED,CS_PS_MODE1,18,0,730431,379518911,1287700278,221090,207508
20220901T094621,2600,5,10,401(0x191),-79,52,-13,0,-18,450f06,18640,1280,REGISTERED,CONNECTED,CS_PS_MODE1,18,0,732431,379518741,1287700294,223510,209926
20220901T094623,2600,5,10,401(0x191),-79,52,-13,0,-16,450f06,18640,1280,REGISTERED,CONNECTED,CS_PS_MODE1,18,0,734428,379518734,1287700336,223560,209972
20220901T094625,2600,5,10,401(0x191),-86,52,-13,0,-16,450f06,18640,1280,REGISTERED,CONNECTED,CS_PS_MODE1,18,0,736426,379518748,1287700736,223580,209992
20220901T094627,2600,5,10,401(0x191),-86,52,-13,0,-16,450f06,18640,1280,REGISTERED,CONNECTED,CS_PS_MODE1,18,0,738424,379518759,1287701314,223710,210123
20220901T094630,2600,5,10,401(0x191),-86,52,-13,0,0,450f06,18640,1280,REGISTERED,CONNECTED,CS_PS_MODE1,18,0,741421,379518750,1287702305,223670,210081
20220901T094632,2600,5,10,401(0x191),-86,52,-13,0,-13,450f06,18640,1280,REGISTERED,CONNECTED,CS_PS_MODE1,18,0,743418,379518721,1287703016,223640,210053
20220901T094634,2600,5,10,401(0x191),-86,52,-13,0,-13,450f06,18640,1280,REGISTERED,CONNECTED,CS_PS_MODE1,18,0,745416,379518670,1287703746,223540,209954
20220901T094636,2600,5,10,401(0x191),-86,52,-13,0,-14,450f06,18640,1280,REGISTERED,CONNECTED,CS_PS_MODE1,18,0,747416,379518602,1287704492,223520,209933
20220901T094638,2600,5,10,401(0x191),-86,52,-13,0,-15,450f06,18640,1280,REGISTERED,CONNECTED,CS_PS_MODE1,18,0,749413,379518516,1287705239,223490,209900
20220901T094640,2600,5,10,401(0x191),-81,52,-13,0,3,450f06,18640,1280,REGISTERED,CONNECTED,CS_PS_MODE1,18,0,751411,379518412,1287705999,223520,209936
20220901T094642,2600,5,10,401(0x191),-81,52,-13,0,-12,450f06,18640,1280,REGISTERED,CONNECTED,CS_PS_MODE1,18,0,753408,379518282,1287706752,223540,209951
20220901T094644,2600,5,10,401(0x191),-81,52,-13,0,0,450f06,18640,1280,REGISTERED,CONNECTED,CS_PS_MODE1,18,0,755406,379518132,1287707514,223520,209938
20220901T094647,2600,5,10,401(0x191),-81,52,-13,0,-15,450f06,18640,1280,REGISTERED,CONNECTED,CS_PS_MODE1,18,0,758403,379517867,1287708643,223480,209893
20220901T094649,2600,5,10,401(0x191),-81,52,-13,0,18,450f06,18640,1280,REGISTERED,CONNECTED,CS_PS_MODE1,18,0,760401,379517666,1287709389,223660,210075
20220901T094651,2600,5,10,401(0x191),-81,52,-13,0,-14,450f06,18640,1280,REGISTERED,CONNECTED,CS_PS_MODE1,18,0,762401,379517441,1287710119,223520,209933
20220901T094653,2600,5,10,401(0x191),-81,52,-13,0,9,450f06,18640,1280,REGISTERED,CONNECTED,CS_PS_MODE1,18,0,764398,379517201,1287710849,223520,209935
20220901T094655,2600,5,10,401(0x191),-81,52,-13,0,-11,450f06,18640,1280,REGISTERED,CONNECTED,CS_PS_MODE1,18,0,766728,379516889,1287711684,223420,209838
20220901T094657,2600,5,10,401(0x191),-81,52,-13,0,-12,450f06,18640,1280,REGISTERED,CONNECTED,CS_PS_MODE1,18,0,768726,379516606,1287712387,223520,209933
20220901T094659,2600,5,10,401(0x191),-81,52,-13,0,12,450f06,18640,1280,REGISTERED,CONNECTED,CS_PS_MODE1,18,0,770726,379516302,1287713074,223530,209944
20220901T094702,2600,5,10,401(0x191),-81,52,-13,0,-8,450f06,18640,1280,REGISTERED,CONNECTED,CS_PS_MODE1,18,0,773388,379515867,1287713976,223510,209929
20220901T094704,2600,5,10,401(0x191),-81,52,-13,0,4,450f06,18640,1280,REGISTERED,CONNECTED,CS_PS_MODE1,18,0,775386,379515519,1287714635,223500,209916
20220901T094706,2600,5,10,401(0x191),-81,52,-13,0,12,450f06,18640,1280,REGISTERED,CONNECTED,CS_PS_MODE1,18,0,777386,379515150,1287715279,223650,210061
20220901T094708,2600,5,10,401(0x191),-81,52,-13,0,-1,450f06,18640,1280,REGISTERED,CONNECTED,CS_PS_MODE1,18,0,779383,379514764,1287715905,223630,210042
20220901T094710,2600,5,10,401(0x191),-81,52,-13,0,-4,450f06,18640,1280,REGISTERED,CONNECTED,CS_PS_MODE1,18,0,781381,379514367,1287716510,223570,209981
20220901T094712,2600,5,10,401(0x191),-86,52,-13,0,-6,450f06,18640,1280,REGISTERED,CONNECTED,CS_PS_MODE1,18,0,783378,379513951,1287717101,223570,209981
20220901T094714,2600,5,10,401(0x191),-86,52,-13,0,15,450f06,18640,1280,REGISTERED,CONNECTED,CS_PS_MODE1,18,0,785376,379513516,1287717674,223520,209934
20220901T094716,2600,5,10,401(0x191),-86,52,-13,0,-7,450f06,18640,1280,REGISTERED,CONNECTED,CS_PS_MODE1,18,0,787376,379513228,1287718056,223520,209934
20220901T094719,2600,5,10,401(0x191),-86,52,-13,0,-11,450f06,18640,1280,REGISTERED,CONNECTED,CS_PS_MODE1,18,0,790706,379513499,1287717784,223370,209787
20220901T094721,2600,5,10,53(0x35),-86,52,-13,0,6,450f06,61446,1280,REGISTERED,CONNECTED,CS_PS_MODE1,0,0,792703,379514021,1287717269,223580,209999
20220901T094723,2600,5,10,53(0x35),-86,52,-13,0,16,450f06,61446,1280,REGISTERED,CONNECTED,CS_PS_MODE1,0,0,794701,379514652,1287716671,223770,210186
20220901T094725,2600,5,10,53(0x35),-91,52,-13,0,15,450f06,61446,1280,REGISTERED,CONNECTED,CS_PS_MODE1,0,0,796698,379514819,1287716510,223600,210018
20220901T094727,2600,5,10,53(0x35),-91,52,-13,0,0,450f06,61446,1280,REGISTERED,CONNECTED,CS_PS_MODE1,0,0,798696,379514828,1287716501,223610,210028
20220901T094729,2600,5,10,53(0x35),-91,52,-13,0,21,450f06,61446,1280,REGISTERED,CONNECTED,CS_PS_MODE1,0,0,801029,379514822,1287716508,223630,210040
20220901T094731,2600,5,10,53(0x35),-91,52,-13,0,-1,450f06,61446,1280,REGISTERED,CONNECTED,CS_PS_MODE1,0,0,803026,379514821,1287716507,223640,210050
20220901T094734,2600,5,10,53(0x35),-91,52,-13,0,2,450f06,61446,1280,REGISTERED,CONNECTED,CS_PS_MODE1,0,0,805358,379514826,1287716503,223630,210044
20220901T094736,2600,5,10,53(0x35),-91,52,-13,0,11,450f06,61446,1280,REGISTERED,CONNECTED,CS_PS_MODE1,0,0,807358,379514828,1287716507,223620,210039
20220901T094738,2600,5,10,94(0x5e),-91,59,-13,0,-1,450f06,61446,1280,REGISTERED,CONNECTED,CS_PS_MODE1,0,0,809357,379514827,1287716506,223600,210015
20220901T094740,2600,5,10,94(0x5e),-91,59,-19,0,0,450f06,61446,1280,REGISTERED,CONNECTED,CS_PS_MODE1,0,0,811351,379514829,1287716504,223600,210019
20220901T094742,2600,5,10,41(0x29),-91,59,-19,0,4,450f06,61446,1280,REGISTERED,CONNECTED,CS_PS_MODE1,0,0,813351,379514827,1287716504,223590,210009
20220901T094744,2600,5,10,41(0x29),-91,59,-19,0,2,450f06,61446,1280,REGISTERED,CONNECTED,CS_PS_MODE1,0,0,815346,379514827,1287716504,223610,210023
20220901T094746,2600,5,10,401(0x191),-91,59,-19,0,16,450f06,18640,1280,REGISTERED,CONNECTED,CS_PS_MODE1,0,0,817346,379514827,1287716503,223630,210042
20220901T094748,2600,5,10,401(0x191),-91,59,-19,0,-8,450f06,18640,1280,REGISTERED,CONNECTED,CS_PS_MODE1,0,0,819343,379514827,1287716503,223620,210030
20220901T094751,2600,5,10,401(0x191),-91,59,-19,0,-4,450f06,18640,1280,REGISTERED,CONNECTED,CS_PS_MODE1,0,0,823006,379514828,1287716505,223580,209998
20220901T094753,2600,5,10,401(0x191),-91,59,-14,0,16,450f06,18640,1280,REGISTERED,CONNECTED,CS_PS_MODE1,0,0,825003,379514828,1287716503,223610,210022
20220901T094755,2600,5,10,401(0x191),-91,59,-14,0,-12,450f06,18640,1280,REGISTERED,CONNECTED,CS_PS_MODE1,0,0,827001,379514827,1287716504,223610,210024
20220901T094757,2600,5,10,401(0x191),-91,59,-14,0,-7,450f06,18640,1280,REGISTERED,CONNECTED,CS_PS_MODE1,0,0,829001,379514827,1287716501,223620,210037
20220901T094759,2600,5,10,401(0x191),-91,59,-14,0,-9,450f06,18640,1280,REGISTERED,CONNECTED,CS_PS_MODE1,0,0,830331,379514828,1287716504,223620,210032
20220901T094801,2600,5,10,401(0x191),-91,59,-14,0,-6,450f06,18640,1280,REGISTERED,CONNECTED,CS_PS_MODE1,0,0,832331,379514826,1287716500,223640,210058
20220901T094803,2600,5,10,401(0x191),-91,59,-14,0,-9,450f06,18640,1280,REGISTERED,CONNECTED,CS_PS_MODE1,0,0,834329,379514698,1287716374,223670,210083
20220901T094805,2600,5,10,204(0xcc),-91,59,-14,0,19,450f06,18640,1280,REGISTERED,CONNECTED,CS_PS_MODE1,0,0,836326,379514596,1287716263,223660,210072
20220901T094808,2600,5,10,413(0x19d),-91,59,-14,0,12,450f06,18640,1280,REGISTERED,CONNECTED,CS_PS_MODE1,0,0,839323,379514554,1287716278,223550,209969
20220901T094810,2600,5,10,413(0x19d),-91,59,-14,0,2,450f06,18640,1280,REGISTERED,CONNECTED,CS_PS_MODE1,0,0,841321,379514314,1287716626,223660,210072
20220901T094812,2600,5,10,413(0x19d),-91,59,-14,0,16,450f06,18640,1280,REGISTERED,CONNECTED,CS_PS_MODE1,0,0,843318,379513860,1287717240,223850,210265
20220901T094814,2600,5,10,413(0x19d),-91,59,-14,0,12,450f06,18640,1280,REGISTERED,CONNECTED,CS_PS_MODE1,0,0,845316,379513297,1287717927,223730,210140
20220901T094816,2600,5,10,413(0x19d),-91,59,-14,0,21,450f06,18640,1280,REGISTERED,CONNECTED,CS_PS_MODE1,0,0,847316,379512671,1287718626,223650,210066
20220901T094818,2600,5,10,413(0x19d),-91,59,-14,0,0,450f06,18640,1280,REGISTERED,CONNECTED,CS_PS_MODE1,0,0,849313,379511983,1287719331,223580,209991
20220901T094820,2600,5,10,413(0x19d),-91,59,-14,0,0,450f06,18640,1280,REGISTERED,CONNECTED,CS_PS_MODE1,0,0,851311,379511245,1287720013,223540,209958
20220901T094822,2600,5,10,208(0xd0),-91,59,-14,0,0,450f06,61446,1280,REGISTERED,CONNECTED,CS_PS_MODE1,0,0,853641,379510323,1287720772,223590,210000
20220901T094825,2600,5,10,208(0xd0),-91,59,-14,0,2,450f06,61446,1280,REGISTERED,CONNECTED,CS_PS_MODE1,0,0,856306,379509189,1287721572,223530,209940
20220901T094827,2600,5,10,208(0xd0),-91,59,-14,0,13,450f06,61446,1280,REGISTERED,CONNECTED,CS_PS_MODE1,0,0,858303,379508298,1287722117,223530,209940
20220901T094829,2600,5,10,208(0xd0),-91,59,-14,0,-1,450f06,61446,1280,REGISTERED,CONNECTED,CS_PS_MODE1,0,0,860301,379507369,1287722599,223510,209924
20220901T094831,2600,5,10,208(0xd0),-91,59,-14,0,21,450f06,61446,1280,REGISTERED,CONNECTED,CS_PS_MODE1,0,0,862301,379506414,1287723023,223540,209954
20220901T094833,2600,5,10,208(0xd0),-91,59,-14,0,15,450f06,61446,1280,REGISTERED,CONNECTED,CS_PS_MODE1,0,0,864298,379505430,1287723390,223530,209947
20220901T094835,2600,5,10,208(0xd0),-91,59,-14,0,-1,450f06,61446,1280,REGISTERED,CONNECTED,CS_PS_MODE1,0,0,866296,379504433,1287723683,223570,209986
20220901T094837,2600,5,10,208(0xd0),-91,59,-14,0,11,450f06,61446,1280,REGISTERED,CONNECTED,CS_PS_MODE1,0,0,868293,379503407,1287723904,223600,210016
20220901T094839,2600,5,10,208(0xd0),-91,59,-14,0,-2,450f06,61446,1280,REGISTERED,CONNECTED,CS_PS_MODE1,0,0,870291,379502375,1287724045,223550,209968
20220901T094842,2600,5,10,208(0xd0),-91,59,-14,0,-2,450f06,61446,1280,REGISTERED,CONNECTED,CS_PS_MODE1,0,0,873621,379500637,1287724129,223540,209956
20220901T094844,2600,5,10,208(0xd0),-91,59,-14,0,0,450f06,61446,1280,REGISTERED,CONNECTED,CS_PS_MODE1,0,0,875621,379499587,1287724067,223560,209978
20220901T094846,2600,5,10,208(0xd0),-91,59,-14,0,19,450f06,61446,1280,REGISTERED,CONNECTED,CS_PS_MODE1,0,0,877618,379498545,1287723934,223550,209968
20220901T094848,2600,5,10,208(0xd0),-91,59,-14,0,21,450f06,61446,1280,REGISTERED,CONNECTED,CS_PS_MODE1,0,0,879616,379497502,1287723721,223460,209878
20220901T094850,2600,5,10,208(0xd0),-91,59,-14,0,10,450f06,61446,1280,REGISTERED,CONNECTED,CS_PS_MODE1,0,0,881613,379496474,1287723427,223490,209908
20220901T094852,2600,5,10,208(0xd0),-91,59,-14,0,2,450f06,61446,1280,REGISTERED,CONNECTED,CS_PS_MODE1,0,0,883611,379495462,1287723063,223540,209957
20220901T094854,2600,5,10,208(0xd0),-91,59,-14,0,-2,450f06,61446,1280,REGISTERED,CONNECTED,CS_PS_MODE1,0,0,885611,379494467,1287722619,223560,209979
20220901T094857,2600,5,10,208(0xd0),-91,59,-14,0,8,450f06,61446,1280,REGISTERED,CONNECTED,CS_PS_MODE1,0,0,888273,379493172,1287721910,223550,209962
20220901T094859,2600,5,10,208(0xd0),-91,59,-14,0,0,450f06,61446,1280,REGISTERED,CONNECTED,CS_PS_MODE1,0,0,890271,379492225,1287721292,223550,209965
20220901T094901,2600,5,10,204(0xcc),-91,59,-14,0,0,450f06,18640,1280,REGISTERED,CONNECTED,CS_PS_MODE1,0,0,892269,379491320,1287720610,223510,209929
20220901T094903,2600,5,10,204(0xcc),-91,59,-14,0,20,450f06,18640,1280,REGISTERED,CONNECTED,CS_PS_MODE1,0,0,894268,379490440,1287719853,223520,209933
20220901T094905,2600,5,10,204(0xcc),-91,59,-14,0,0,450f06,18640,1280,REGISTERED,CONNECTED,CS_PS_MODE1,0,0,896266,379489596,1287719030,223520,209936
20220901T094907,2600,5,10,204(0xcc),-91,59,-14,0,7,450f06,18640,1280,REGISTERED,CONNECTED,CS_PS_MODE1,0,0,898263,379488798,1287718150,223560,209971
20220901T094909,2600,5,10,208(0xd0),-91,59,-14,0,23,450f06,61446,1280,REGISTERED,CONNECTED,CS_PS_MODE1,0,0,900261,379488041,1287717207,223550,209965
20220901T094911,2600,5,10,208(0xd0),-91,59,-14,0,12,450f06,61446,1280,REGISTERED,CONNECTED,CS_PS_MODE1,0,0,902261,379487327,1287716211,223560,209979
20220901T094914,2600,5,10,208(0xd0),-91,59,-14,0,21,450f06,61446,1280,REGISTERED,CONNECTED,CS_PS_MODE1,0,0,905923,379486146,1287714245,223580,209991
20220901T094916,2600,5,10,208(0xd0),-91,59,-14,0,1,450f06,61446,1280,REGISTERED,CONNECTED,CS_PS_MODE1,0,0,907921,379485578,1287713114,223560,209976
