ct,earfcn_dl,earfcn_ul,rf_state,band,bandwidth,plmn,tac,cell_id,esm_cause,drx,rsrp,rsrq,rssi,l2w,ri,cqi,status,sub_status,rrc,svc,sinr,tx_pwr,tmsi,ip,avg_rsrp,antbar,imsi,missdn,time_boot_ms,lat,lon,alt,vx,vy,vz,hdg,relative_alt
20220901T052753,2500,20500,RXTX,5,10,45005,1810,148926-07(272),0,640,-88,-9,-62,-,0,0,SRV/REGISTERED,NORMAL_SERVICE,CONNECTED,CS_PS,17.2,9,dfac4192,223.55.215.218,-88,4,4.50E+14,1227091531,42761,379870014,1287494122,3300,0,0,0,65535,-481
20220901T052755,2500,20500,RXTX,5,10,45005,1810,148926-07(272),0,640,-88,-9,-62,-,0,0,SRV/REGISTERED,NORMAL_SERVICE,CONNECTED,CS_PS,17.2,0,dfac4192,223.55.215.218,-88,4,4.50E+14,1227091531,43094,379870017,1287494124,3340,0,0,0,65535,-497
20220901T052757,2500,20500,RXTX,5,10,45005,1810,148926-07(272),0,640,-88,-9,-62,-,0,0,SRV/REGISTERED,NORMAL_SERVICE,CONNECTED,CS_PS,21.6,7,dfac4192,223.55.215.218,-88,4,4.50E+14,1227091531,45881,379870024,1287494133,3520,0,0,0,65535,-536
20220901T052759,2500,20500,RXTX,5,10,45005,1810,148926-07(272),0,640,-88,-9,-62,-,0,0,SRV/REGISTERED,NORMAL_SERVICE,CONNECTED,CS_PS,21.4,7,dfac4192,223.55.215.218,-88,4,4.50E+14,1227091531,48544,379870031,1287494138,3690,0,0,0,65535,-507
20220901T052801,2500,20500,RXTX,5,10,45005,1810,148926-07(272),0,640,-88,-9,-62,-,0,0,SRV/REGISTERED,NORMAL_SERVICE,CONNECTED,CS_PS,21.4,1,dfac4192,223.55.215.218,-88,4,4.50E+14,1227091531,51209,379870035,1287494140,1910,0,0,0,65535,-494
20220901T052803,2500,20500,RXTX,5,10,45005,1810,148926-07(272),0,640,-88,-9,-62,-,0,0,SRV/REGISTERED,NORMAL_SERVICE,CONNECTED,CS_PS,21.6,1,dfac4192,223.55.215.218,-88,4,4.50E+14,1227091531,52541,379870038,1287494142,1910,0,0,0,65535,-494
20220901T052805,2500,20500,RXTX,5,10,45005,1810,148926-07(272),0,640,-88,-9,-62,-,0,0,SRV/REGISTERED,NORMAL_SERVICE,CONNECTED,CS_PS,21.6,0,dfac4192,223.55.215.218,-88,4,4.50E+14,1227091531,55206,379870036,1287494142,1940,0,0,0,65535,-461
20220901T052808,2500,20500,RXTX,5,10,45005,1810,148926-07(272),0,640,-88,-9,-62,-,0,0,SRV/REGISTERED,NORMAL_SERVICE,CONNECTED,CS_PS,21.2,1,dfac4192,223.55.215.218,-88,4,4.50E+14,1227091531,56536,379870036,1287494142,1930,0,0,0,65535,-470
20220901T052810,2500,20500,RXTX,5,10,45005,1810,148926-07(272),0,640,-88,-9,-62,-,0,0,SRV/REGISTERED,NORMAL_SERVICE,CONNECTED,CS_PS,21.2,7,dfac4192,223.55.215.218,-88,4,4.50E+14,1227091531,59201,379870035,1287494144,1880,0,0,0,65535,-521
20220901T052812,2500,20500,RXTX,5,10,45005,1810,148926-07(272),0,640,-88,-9,-62,-,0,0,SRV/REGISTERED,NORMAL_SERVICE,CONNECTED,CS_PS,23.4,8,dfac4192,223.55.215.218,-88,4,4.50E+14,1227091531,61866,379870033,1287494143,1880,0,0,0,65535,-528
20220901T052814,2500,20500,RXTX,5,10,45005,1810,148926-07(272),0,640,-88,-9,-62,-,0,0,SRV/REGISTERED,NORMAL_SERVICE,CONNECTED,CS_PS,21,15,dfac4192,223.55.215.218,-88,4,4.50E+14,1227091531,63979,379870029,1287494143,1790,0,0,0,65535,-618
20220901T052816,2500,20500,RXTX,5,10,45005,1810,148926-07(272),0,640,-88,-9,-62,-,0,0,SRV/REGISTERED,NORMAL_SERVICE,CONNECTED,CS_PS,21,1,dfac4192,223.55.215.218,-88,4,4.50E+14,1227091531,66313,379870026,1287494142,1490,0,0,0,65535,-918
20220901T052818,2500,20500,RXTX,5,10,45005,1810,148926-07(272),0,640,-88,-9,-62,-,0,0,SRV/REGISTERED,NORMAL_SERVICE,CONNECTED,CS_PS,21.6,0,dfac4192,223.55.215.218,-88,4,4.50E+14,1227091531,68311,379870025,1287494143,1420,0,0,0,65535,-981
20220901T052820,2500,20500,RXTX,5,10,45005,1810,148926-07(272),0,640,-88,-9,-62,-,0,0,SRV/REGISTERED,NORMAL_SERVICE,CONNECTED,CS_PS,22.4,9,dfac4192,223.55.215.218,-88,4,4.50E+14,1227091531,70641,379870020,1287494147,1440,0,0,0,65535,-960
20220901T052823,2500,20500,RXTX,5,10,45005,1810,148926-07(272),0,640,-88,-9,-62,-,0,0,SRV/REGISTERED,NORMAL_SERVICE,CONNECTED,CS_PS,21,0,dfac4192,223.55.215.218,-88,4,4.50E+14,1227091531,72641,379870019,1287494149,1410,0,0,0,65535,-999
20220901T052825,2500,20500,RXTX,5,10,45005,1810,148926-07(272),0,640,-88,-9,-62,-,0,0,SRV/REGISTERED,NORMAL_SERVICE,CONNECTED,CS_PS,21,-1,dfac4192,223.55.215.218,-88,4,4.50E+14,1227091531,74638,379870016,1287494148,1400,0,0,0,65535,-1009
20220901T052827,2500,20500,RXTX,5,10,45005,1810,148926-07(272),0,640,-88,-9,-62,-,0,0,SRV/REGISTERED,NORMAL_SERVICE,CONNECTED,CS_PS,20.8,0,dfac4192,223.55.215.218,-88,4,4.50E+14,1227091531,76971,379870012,1287494149,1440,0,0,0,65535,-962
20220901T052829,2500,20500,RXTX,5,10,45005,1810,148926-07(272),0,640,-88,-9,-62,-,0,0,SRV/REGISTERED,NORMAL_SERVICE,CONNECTED,CS_PS,22,0,dfac4192,223.55.215.218,-88,4,4.50E+14,1227091531,78966,379870011,1287494148,1490,0,0,0,65535,-919
20220901T052831,2500,20500,RXTX,5,10,45005,1810,148926-07(272),0,640,-88,-9,-62,-,0,0,SRV/REGISTERED,NORMAL_SERVICE,CONNECTED,CS_PS,22,16,dfac4192,223.55.215.218,-88,4,4.50E+14,1227091531,81299,379870009,1287494148,1560,0,0,0,65535,-848
20220901T052833,2500,20500,RXTX,5,10,45005,1810,148926-07(272),0,640,-88,-9,-62,-,0,0,SRV/REGISTERED,NORMAL_SERVICE,CONNECTED,CS_PS,22.4,10,dfac4192,223.55.215.218,-88,4,4.50E+14,1227091531,83296,379870007,1287494147,1540,0,0,0,65535,-863
20220901T052836,2500,20500,RXTX,5,10,45005,1810,148926-07(272),0,640,-88,-9,-62,-,0,0,SRV/REGISTERED,NORMAL_SERVICE,CONNECTED,CS_PS,21.4,0,dfac4192,223.55.215.218,-88,4,4.50E+14,1227091531,85626,379870004,1287494142,1480,0,0,0,65535,-922
20220901T052838,2500,20500,RXTX,5,10,45005,1810,148926-07(272),0,640,-88,-9,-62,-,0,0,SRV/REGISTERED,NORMAL_SERVICE,CONNECTED,CS_PS,15.2,1,dfac4192,223.55.215.218,-88,4,4.50E+14,1227091531,87624,379869999,1287494139,1420,0,0,0,65535,-984
20220901T052840,2500,20500,RXTX,5,10,45005,1810,148926-07(272),0,640,-88,-9,-62,-,0,0,SRV/REGISTERED,NORMAL_SERVICE,CONNECTED,CS_PS,15.2,8,dfac4192,223.55.215.218,-88,4,4.50E+14,1227091531,89622,379869995,1287494135,1380,0,0,0,65535,-1024
20220901T052842,2500,20500,RXTX,5,10,45005,1810,148926-07(272),0,640,-88,-9,-62,-,0,0,SRV/REGISTERED,NORMAL_SERVICE,CONNECTED,CS_PS,23.2,-1,dfac4192,223.55.215.218,-88,4,4.50E+14,1227091531,91953,379869990,1287494128,1350,0,0,0,65535,-1052
20220901T052844,2500,20500,RXTX,5,10,45005,1810,148926-07(272),0,640,-88,-9,-62,-,0,0,SRV/REGISTERED,NORMAL_SERVICE,CONNECTED,CS_PS,21.2,0,dfac4192,223.55.215.218,-88,4,4.50E+14,1227091531,93951,379869985,1287494122,1360,0,0,0,65535,-1047
20220901T052846,2500,20500,RXTX,5,10,45005,1810,148926-07(272),0,640,-88,-9,-62,-,0,0,SRV/REGISTERED,NORMAL_SERVICE,CONNECTED,CS_PS,21.2,8,dfac4192,223.55.215.218,-88,4,4.50E+14,1227091531,96282,379869980,1287494114,1480,0,0,0,65535,-926
20220901T052848,2500,20500,RXTX,5,10,45005,1810,148926-07(272),0,640,-88,-9,-62,-,0,0,SRV/REGISTERED,NORMAL_SERVICE,CONNECTED,CS_PS,22,0,dfac4192,223.55.215.218,-88,4,4.50E+14,1227091531,98282,379869977,1287494109,1570,0,0,0,65535,-837
20220901T052850,2500,20500,RXTX,5,10,45005,1810,148926-07(272),0,640,-88,-9,-62,-,0,0,SRV/REGISTERED,NORMAL_SERVICE,CONNECTED,CS_PS,21,0,dfac4192,223.55.215.218,-88,4,4.50E+14,1227091531,100611,379869974,1287494105,1660,0,0,0,65535,-748
20220901T052853,2500,20500,RXTX,5,10,45005,1810,148926-07(272),0,640,-88,-9,-62,-,0,0,SRV/REGISTERED,NORMAL_SERVICE,CONNECTED,CS_PS,21.4,1,dfac4192,223.55.215.218,-88,4,4.50E+14,1227091531,102609,379869971,1287494101,1720,0,0,0,65535,-686
20220901T052855,2500,20500,RXTX,5,10,45005,1810,148926-07(272),0,640,-88,-9,-62,-,0,0,SRV/REGISTERED,NORMAL_SERVICE,CONNECTED,CS_PS,21.4,8,dfac4192,223.55.215.218,-88,4,4.50E+14,1227091531,104941,379869971,1287494097,1860,0,0,0,65535,-548
20220901T052857,2500,20500,RXTX,5,10,45005,1810,148926-07(272),0,640,-88,-9,-62,-,0,0,SRV/REGISTERED,NORMAL_SERVICE,CONNECTED,CS_PS,20.2,6,dfac4192,223.55.215.218,-88,4,4.50E+14,1227091531,106938,379869971,1287494094,1990,0,0,0,65535,-414
20220901T052859,2500,20500,RXTX,5,10,45005,1810,148926-07(272),0,640,-88,-9,-62,-,0,0,SRV/REGISTERED,NORMAL_SERVICE,CONNECTED,CS_PS,21.4,8,dfac4192,223.55.215.218,-88,4,4.50E+14,1227091531,108936,379869971,1287494091,2100,0,0,0,65535,-306
20220901T052901,2500,20500,RXTX,5,10,45005,1810,148926-07(272),0,640,-88,-9,-62,-,0,0,SRV/REGISTERED,NORMAL_SERVICE,CONNECTED,CS_PS,21.4,7,dfac4192,223.55.215.218,-88,4,4.50E+14,1227091531,111269,379869973,1287494089,2250,0,0,0,65535,-156
20220901T052903,2500,20500,RXTX,5,10,45005,1810,148926-07(272),0,640,-88,-9,-62,-,0,0,SRV/REGISTERED,NORMAL_SERVICE,CONNECTED,CS_PS,21.2,0,dfac4192,223.55.215.218,-88,4,4.50E+14,1227091531,113266,379869975,1287494087,2300,0,0,0,65535,-104
20220901T052905,2500,20500,RXTX,5,10,45005,1810,148926-07(272),0,640,-88,-9,-62,-,0,0,SRV/REGISTERED,NORMAL_SERVICE,CONNECTED,CS_PS,22.4,-1,dfac4192,223.55.215.218,-88,4,4.50E+14,1227091531,115596,379869957,1287494092,2710,0,0,0,65535,301
20220901T052908,2500,20500,RXTX,5,10,45005,1810,148926-07(272),0,640,-88,-9,-62,-,0,0,SRV/REGISTERED,NORMAL_SERVICE,CONNECTED,CS_PS,10.2,0,dfac4192,223.55.215.218,-88,4,4.50E+14,1227091531,117594,379869707,1287494099,3060,0,0,0,65535,656
20220901T052910,2500,20500,RXTX,5,10,45005,1810,148926-07(272),0,640,-88,-9,-62,-,0,0,SRV/REGISTERED,NORMAL_SERVICE,CONNECTED,CS_PS,10.2,0,dfac4192,223.55.215.218,-88,4,4.50E+14,1227091531,119926,379869572,1287494392,2960,0,0,0,65535,559
20220901T052912,2500,20500,RXTX,5,10,45005,1810,148926-07(272),0,640,-88,-9,-62,-,0,0,SRV/REGISTERED,NORMAL_SERVICE,CONNECTED,CS_PS,21.4,-3,dfac4192,223.55.215.218,-88,4,4.50E+14,1227091531,121924,379869550,1287494427,2600,0,0,0,65535,199
20220901T052914,2500,20500,RXTX,5,10,45005,1810,148926-07(272),0,640,-88,-9,-62,-,0,0,SRV/REGISTERED,NORMAL_SERVICE,CONNECTED,CS_PS,17.8,5,dfac4192,223.55.215.218,-88,4,4.50E+14,1227091531,124256,379869554,1287494431,2730,0,0,0,65535,323
20220901T052916,2500,20500,RXTX,5,10,45005,1810,148926-07(272),0,640,-88,-9,-62,-,0,0,SRV/REGISTERED,NORMAL_SERVICE,CONNECTED,CS_PS,17.8,2,dfac4192,223.55.215.218,-88,4,4.50E+14,1227091531,126253,379869560,1287494438,2810,0,0,0,65535,403
20220901T052918,2500,20500,RXTX,5,10,45005,1810,148926-07(272),0,640,-88,-9,-62,-,0,0,SRV/REGISTERED,NORMAL_SERVICE,CONNECTED,CS_PS,18.2,3,dfac4192,223.55.215.218,-88,4,4.50E+14,1227091531,128251,379869566,1287494441,2910,0,0,0,65535,502
20220901T052921,2500,20500,RXTX,5,10,45005,1810,148926-07(272),0,640,-88,-9,-62,-,0,0,SRV/REGISTERED,NORMAL_SERVICE,CONNECTED,CS_PS,23,17,dfac4192,223.55.215.218,-88,4,4.50E+14,1227091531,130581,379869571,1287494442,2970,0,0,0,65535,564
20220901T052923,2500,20500,RXTX,5,10,45005,1810,148926-07(272),0,640,-88,-9,-62,-,0,0,SRV/REGISTERED,NORMAL_SERVICE,CONNECTED,CS_PS,21.8,7,dfac4192,223.55.215.218,-88,4,4.50E+14,1227091531,132581,379869574,1287494443,3030,0,0,0,65535,623
20220901T052925,2500,20500,RXTX,5,10,45005,1810,148926-07(272),0,640,-88,-9,-62,-,0,0,SRV/REGISTERED,NORMAL_SERVICE,CONNECTED,CS_PS,21.8,10,dfac4192,223.55.215.218,-88,4,4.50E+14,1227091531,134911,379869585,1287494469,3090,0,0,0,65535,681
20220901T052927,2500,20500,RXTX,5,10,45005,1810,148926-07(272),0,640,-88,-9,-62,-,0,0,SRV/REGISTERED,NORMAL_SERVICE,CONNECTED,CS_PS,19.6,9,dfac4192,223.55.215.218,-88,4,4.50E+14,1227091531,136909,379869586,1287494466,3120,0,0,0,65535,717
20220901T052929,2500,20500,RXTX,5,10,45005,1810,148926-07(272),0,640,-88,-9,-62,-,0,0,SRV/REGISTERED,NORMAL_SERVICE,CONNECTED,CS_PS,20.2,5,dfac4192,223.55.215.218,-88,4,4.50E+14,1227091531,139241,379869584,1287494453,3150,0,0,0,65535,748
20220901T052931,2500,20500,RXTX,5,10,45005,1810,148926-07(272),0,640,-88,-9,-62,-,0,0,SRV/REGISTERED,NORMAL_SERVICE,CONNECTED,CS_PS,20.2,2,dfac4192,223.55.215.218,-88,4,4.50E+14,1227091531,141238,379869587,1287494456,3230,0,0,0,65535,826
20220901T052933,2500,20500,RXTX,5,10,45005,1810,148926-07(272),0,640,-88,-9,-62,-,0,0,SRV/REGISTERED,NORMAL_SERVICE,CONNECTED,CS_PS,22.6,3,dfac4192,223.55.215.218,-88,4,4.50E+14,1227091531,143236,379869589,1287494457,3300,0,0,0,65535,890
20220901T052935,2500,20500,RXTX,5,10,45005,1810,148926-07(272),0,640,-88,-9,-62,-,0,0,SRV/REGISTERED,NORMAL_SERVICE,CONNECTED,CS_PS,19.8,2,dfac4192,223.55.215.218,-88,4,4.50E+14,1227091531,145566,379869595,1287494458,3320,0,0,0,65535,916
20220901T052938,2500,20500,RXTX,5,10,45005,1810,148926-07(272),0,640,-88,-9,-62,-,0,0,SRV/REGISTERED,NORMAL_SERVICE,CONNECTED,CS_PS,19.8,9,dfac4192,223.55.215.218,-88,4,4.50E+14,1227091531,147566,379869596,1287494459,3330,0,0,0,65535,921
20220901T052940,2500,20500,RXTX,5,10,45005,1810,148926-07(272),0,640,-88,-9,-62,-,0,0,SRV/REGISTERED,NORMAL_SERVICE,CONNECTED,CS_PS,22,3,dfac4192,223.55.215.218,-88,4,4.50E+14,1227091531,149896,379869598,1287494459,3290,0,0,0,65535,882
20220901T052942,2500,20500,RXTX,5,10,45005,1810,148926-07(272),0,640,-88,-9,-62,-,0,0,SRV/REGISTERED,NORMAL_SERVICE,CONNECTED,CS_PS,20,2,dfac4192,223.55.215.218,-88,4,4.50E+14,1227091531,151894,379869600,1287494460,3260,0,0,0,65535,854
20220901T052944,2500,20500,RXTX,5,10,45005,1810,148926-07(272),0,640,-88,-9,-62,-,0,0,SRV/REGISTERED,NORMAL_SERVICE,CONNECTED,CS_PS,22.2,7,dfac4192,223.55.215.218,-88,4,4.50E+14,1227091531,153891,379869603,1287494461,3260,0,0,0,65535,850
20220901T052946,2500,20500,RXTX,5,10,45005,1810,148926-07(272),0,640,-88,-9,-62,-,0,0,SRV/REGISTERED,NORMAL_SERVICE,CONNECTED,CS_PS,22.2,10,dfac4192,223.55.215.218,-88,4,4.50E+14,1227091531,156224,379869606,1287494460,3240,0,0,0,65535,837
20220901T052948,2500,20500,RXTX,5,10,45005,1810,148926-07(272),0,640,-88,-9,-62,-,0,0,SRV/REGISTERED,NORMAL_SERVICE,CONNECTED,CS_PS,23.2,4,dfac4192,223.55.215.218,-88,4,4.50E+14,1227091531,158222,379869608,1287494461,3240,0,0,0,65535,832
20220901T052950,2500,20500,RXTX,5,10,45005,1810,148926-07(272),0,640,-88,-9,-62,-,0,0,SRV/REGISTERED,NORMAL_SERVICE,CONNECTED,CS_PS,24.8,2,dfac4192,223.55.215.218,-88,4,4.50E+14,1227091531,160219,379869610,1287494461,3230,0,0,0,65535,827
20220901T052953,2500,20500,RXTX,5,10,45005,1810,148926-07(272),0,640,-88,-9,-62,-,0,0,SRV/REGISTERED,NORMAL_SERVICE,CONNECTED,CS_PS,24.8,3,dfac4192,223.55.215.218,-88,4,4.50E+14,1227091531,162682,379869611,1287494460,3280,0,0,0,65535,874
20220901T052955,2500,20500,RXTX,5,10,45005,1810,148926-07(272),0,640,-88,-9,-62,-,0,0,SRV/REGISTERED,NORMAL_SERVICE,CONNECTED,CS_PS,24.6,8,dfac4192,223.55.215.218,-88,4,4.50E+14,1227091531,164678,379869610,1287494459,3290,0,0,0,65535,881
20220901T052957,2500,20500,RXTX,5,10,45005,1810,148926-07(272),0,640,-88,-9,-62,-,0,0,SRV/REGISTERED,NORMAL_SERVICE,CONNECTED,CS_PS,22.6,3,dfac4192,223.55.215.218,-88,4,4.50E+14,1227091531,167009,379869608,1287494460,3250,0,0,0,65535,846
20220901T052959,2500,20500,RXTX,5,10,45005,1810,148926-07(272),0,640,-88,-9,-62,-,0,0,SRV/REGISTERED,NORMAL_SERVICE,CONNECTED,CS_PS,22,2,dfac4192,223.55.215.218,-88,4,4.50E+14,1227091531,169006,379869608,1287494460,3210,0,0,0,65535,808
20220901T053001,2500,20500,RXTX,5,10,45005,1810,148926-07(272),0,640,-88,-9,-62,-,0,0,SRV/REGISTERED,NORMAL_SERVICE,CONNECTED,CS_PS,22,10,dfac4192,223.55.215.218,-88,4,4.50E+14,1227091531,171338,379869608,1287494460,3230,0,0,0,65535,822
20220901T053003,2500,20500,RXTX,5,10,45005,1810,148926-07(272),0,640,-88,-9,-62,-,0,0,SRV/REGISTERED,NORMAL_SERVICE,CONNECTED,CS_PS,22.4,5,dfac4192,223.55.215.218,-88,4,4.50E+14,1227091531,173336,379869607,1287494460,3290,0,0,0,65535,884
20220901T053005,2500,20500,RXTX,5,10,45005,1810,148926-07(272),0,640,-88,-9,-62,-,0,0,SRV/REGISTERED,NORMAL_SERVICE,CONNECTED,CS_PS,21.8,3,dfac4192,223.55.215.218,-88,4,4.50E+14,1227091531,175666,379869605,1287494460,3300,0,0,0,65535,898
20220901T053008,2500,20500,RXTX,5,10,45005,1810,148926-07(272),0,640,-88,-9,-62,-,0,0,SRV/REGISTERED,NORMAL_SERVICE,CONNECTED,CS_PS,21.8,7,dfac4192,223.55.215.218,-88,4,4.50E+14,1227091531,177666,379869603,1287494460,3290,0,0,0,65535,880
20220901T053010,2500,20500,RXTX,5,10,45005,1810,148926-07(272),0,640,-88,-9,-62,-,0,0,SRV/REGISTERED,NORMAL_SERVICE,CONNECTED,CS_PS,19.8,9,dfac4192,223.55.215.218,-88,4,4.50E+14,1227091531,179664,379869598,1287494460,3420,0,0,0,65535,1014
20220901T053012,2500,20500,RXTX,5,10,45005,1810,148926-07(272),0,640,-88,-9,-62,-,0,0,SRV/REGISTERED,NORMAL_SERVICE,CONNECTED,CS_PS,23,9,dfac4192,223.55.215.218,-88,4,4.50E+14,1227091531,181994,379869595,1287494461,3590,0,0,0,65535,1182
20220901T053014,2500,20500,RXTX,5,10,45005,1810,148926-07(272),0,640,-88,-9,-62,-,0,0,SRV/REGISTERED,NORMAL_SERVICE,CONNECTED,CS_PS,23.8,3,dfac4192,223.55.215.218,-88,4,4.50E+14,1227091531,183991,379869594,1287494461,3650,0,0,0,65535,1247
20220901T053016,2500,20500,RXTX,5,10,45005,1810,148926-07(272),0,640,-88,-9,-62,-,0,0,SRV/REGISTERED,NORMAL_SERVICE,CONNECTED,CS_PS,23.8,2,dfac4192,223.55.215.218,-88,4,4.50E+14,1227091531,186322,379869595,1287494461,3650,0,0,0,65535,1242
20220901T053018,2500,20500,RXTX,5,10,45005,1810,148926-07(272),0,640,-88,-9,-62,-,0,0,SRV/REGISTERED,NORMAL_SERVICE,CONNECTED,CS_PS,22.8,7,dfac4192,223.55.215.218,-88,4,4.50E+14,1227091531,188322,379869599,1287494462,3740,0,0,0,65535,1332
20220901T053021,2500,20500,RXTX,5,10,45005,1810,148926-07(272),0,640,-88,-9,-62,-,0,0,SRV/REGISTERED,NORMAL_SERVICE,CONNECTED,CS_PS,21.4,5,dfac4192,223.55.215.218,-88,4,4.50E+14,1227091531,190651,379869602,1287494462,3730,0,0,0,65535,1326
20220901T053023,2500,20500,RXTX,5,10,45005,1810,148926-07(272),0,640,-88,-9,-62,-,0,0,SRV/REGISTERED,NORMAL_SERVICE,CONNECTED,CS_PS,23.2,9,dfac4192,223.55.215.218,-88,4,4.50E+14,1227091531,192649,379869608,1287494462,3690,0,0,0,65535,1284
20220901T053025,2500,20500,RXTX,5,10,45005,1810,148926-07(272),0,640,-88,-9,-62,-,0,0,SRV/REGISTERED,NORMAL_SERVICE,CONNECTED,CS_PS,23.2,2,dfac4192,223.55.215.218,-88,4,4.50E+14,1227091531,194649,379869615,1287494464,3660,0,0,0,65535,1257
20220901T053027,2500,20500,RXTX,5,10,45005,1810,148926-07(272),0,640,-88,-9,-62,-,0,0,SRV/REGISTERED,NORMAL_SERVICE,CONNECTED,CS_PS,23.8,3,dfac4192,223.55.215.218,-88,4,4.50E+14,1227091531,196978,379869620,1287494466,3580,0,0,0,65535,1170
20220901T053029,2500,20500,RXTX,5,10,45005,1810,148926-07(272),0,640,-88,-9,-62,-,0,0,SRV/REGISTERED,NORMAL_SERVICE,CONNECTED,CS_PS,23.4,2,dfac4192,223.55.215.218,-88,4,4.50E+14,1227091531,198976,379869627,1287494469,3560,0,0,0,65535,1153
20220901T053031,2500,20500,RXTX,5,10,45005,1810,148926-07(272),0,640,-88,-9,-62,-,0,0,SRV/REGISTERED,NORMAL_SERVICE,CONNECTED,CS_PS,23.4,3,dfac4192,223.55.215.218,-88,4,4.50E+14,1227091531,201309,379869636,1287494474,3590,0,0,0,65535,1186
20220901T053033,2500,20500,RXTX,5,10,45005,1810,148926-07(272),0,640,-88,-9,-62,-,0,0,SRV/REGISTERED,NORMAL_SERVICE,CONNECTED,CS_PS,23.4,9,dfac4192,223.55.215.218,-88,4,4.50E+14,1227091531,203306,379869641,1287494478,3640,0,0,0,65535,1230
20220901T053036,2500,20500,RXTX,5,10,45005,1810,148926-07(272),0,640,-88,-9,-62,-,0,0,SRV/REGISTERED,NORMAL_SERVICE,CONNECTED,CS_PS,23,5,dfac4192,223.55.215.218,-88,4,4.50E+14,1227091531,205636,379869647,1287494484,3670,0,0,0,65535,1261
20220901T053038,2500,20500,RXTX,5,10,45005,1810,148926-07(272),0,640,-88,-9,-62,-,0,0,SRV/REGISTERED,NORMAL_SERVICE,CONNECTED,CS_PS,23,8,dfac4192,223.55.215.218,-88,4,4.50E+14,1227091531,207634,379869650,1287494487,3690,0,0,0,65535,1287
20220901T053040,2500,20500,RXTX,5,10,45005,1810,148926-07(272),0,640,-88,-9,-62,-,0,0,SRV/REGISTERED,NORMAL_SERVICE,CONNECTED,CS_PS,23,9,dfac4192,223.55.215.218,-88,4,4.50E+14,1227091531,209966,379869654,1287494494,3810,0,0,0,65535,1406
20220901T053042,2500,20500,RXTX,5,10,45005,1810,148926-07(272),0,640,-88,-9,-62,-,0,0,SRV/REGISTERED,NORMAL_SERVICE,CONNECTED,CS_PS,23.4,9,dfac4192,223.55.215.218,-88,4,4.50E+14,1227091531,211964,379869660,1287494499,3840,0,0,0,65535,1430
20220901T053044,2500,20500,RXTX,5,10,45005,1810,148926-07(272),0,640,-88,-9,-62,-,0,0,SRV/REGISTERED,NORMAL_SERVICE,CONNECTED,CS_PS,23,3,dfac4192,223.55.215.218,-88,4,4.50E+14,1227091531,214294,379869665,1287494503,3870,0,0,0,65535,1462
20220901T053046,2500,20500,RXTX,5,10,45005,1810,148926-07(272),0,640,-88,-9,-62,-,0,0,SRV/REGISTERED,NORMAL_SERVICE,CONNECTED,CS_PS,23,2,dfac4192,223.55.215.218,-88,4,4.50E+14,1227091531,216294,379869671,1287494506,3920,0,0,0,65535,1515
20220901T053048,2500,20500,RXTX,5,10,45005,1810,148926-07(272),0,640,-88,-9,-62,-,0,0,SRV/REGISTERED,NORMAL_SERVICE,CONNECTED,CS_PS,23,3,dfac4192,223.55.215.218,-88,4,4.50E+14,1227091531,218291,379869675,1287494511,3950,0,0,0,65535,1543
20220901T053051,2500,20500,RXTX,5,10,45005,1810,148926-07(272),0,640,-88,-9,-62,-,0,0,SRV/REGISTERED,NORMAL_SERVICE,CONNECTED,CS_PS,23,3,dfac4192,223.55.215.218,-88,4,4.50E+14,1227091531,220622,379869680,1287494515,3890,0,0,0,65535,1488
20220901T053053,2500,20500,RXTX,5,10,45005,1810,148926-07(272),0,640,-88,-9,-62,-,0,0,SRV/REGISTERED,NORMAL_SERVICE,CONNECTED,CS_PS,23.4,5,dfac4192,223.55.215.218,-88,4,4.50E+14,1227091531,222619,379869682,1287494519,3940,0,0,0,65535,1539
20220901T053055,2500,20500,RXTX,5,10,45005,1810,148926-07(272),0,640,-88,-9,-62,-,0,0,SRV/REGISTERED,NORMAL_SERVICE,CONNECTED,CS_PS,23.4,1,dfac4192,223.55.215.218,-88,4,4.50E+14,1227091531,224951,379869685,1287494523,3960,0,0,0,65535,1556
20220901T053057,2500,20500,RXTX,5,10,45005,1810,148926-07(272),0,640,-88,-9,-62,-,0,0,SRV/REGISTERED,NORMAL_SERVICE,CONNECTED,CS_PS,22,9,dfac4192,223.55.215.218,-88,4,4.50E+14,1227091531,226949,379869690,1287494525,4050,0,0,0,65535,1642
20220901T053059,2500,20500,RXTX,5,10,45005,1810,148926-07(272),0,640,-88,-9,-62,-,0,0,SRV/REGISTERED,NORMAL_SERVICE,CONNECTED,CS_PS,23.6,9,dfac4192,223.55.215.218,-88,4,4.50E+14,1227091531,229282,379869691,1287494526,3940,0,0,0,65535,1531
20220901T053101,2500,20500,RXTX,5,10,45005,1810,148926-07(272),0,640,-88,-9,-62,-,0,0,SRV/REGISTERED,NORMAL_SERVICE,CONNECTED,CS_PS,23.6,3,dfac4192,223.55.215.218,-88,4,4.50E+14,1227091531,231279,379869691,1287494527,3860,0,0,0,65535,1458
20220901T053103,2500,20500,RXTX,5,10,45005,1810,148926-07(272),0,640,-88,-9,-62,-,0,0,SRV/REGISTERED,NORMAL_SERVICE,CONNECTED,CS_PS,23.2,4,dfac4192,223.55.215.218,-88,4,4.50E+14,1227091531,233276,379869692,1287494527,3820,0,0,0,65535,1412
20220901T053106,2500,20500,RXTX,5,10,45005,1810,148926-07(272),0,640,-88,-9,-62,-,0,0,SRV/REGISTERED,NORMAL_SERVICE,CONNECTED,CS_PS,22.4,9,dfac4192,223.55.215.218,-88,4,4.50E+14,1227091531,235606,379869692,1287494529,3810,0,0,0,65535,1404
20220901T053108,2500,20500,RXTX,5,10,45005,1810,148926-07(272),0,640,-88,-9,-62,-,0,0,SRV/REGISTERED,NORMAL_SERVICE,CONNECTED,CS_PS,22.8,3,dfac4192,223.55.215.218,-88,4,4.50E+14,1227091531,237606,379869690,1287494530,3840,0,0,0,65535,1435
20220901T053110,2500,20500,RXTX,5,10,45005,1810,148926-07(272),0,640,-88,-9,-62,-,0,0,SRV/REGISTERED,NORMAL_SERVICE,CONNECTED,CS_PS,22.8,9,dfac4192,223.55.215.218,-88,4,4.50E+14,1227091531,239936,379869689,1287494530,3920,0,0,0,65535,1518
20220901T053112,2500,20500,RXTX,5,10,45005,1810,148926-07(272),0,640,-88,-9,-62,-,0,0,SRV/REGISTERED,NORMAL_SERVICE,CONNECTED,CS_PS,20.6,9,dfac4192,223.55.215.218,-88,4,4.50E+14,1227091531,241934,379869687,1287494530,3910,0,0,0,65535,1508
20220901T053114,2500,20500,RXTX,5,10,45005,1810,148926-07(272),0,640,-88,-9,-62,-,0,0,SRV/REGISTERED,NORMAL_SERVICE,CONNECTED,CS_PS,23.4,8,dfac4192,223.55.215.218,-88,4,4.50E+14,1227091531,243931,379869684,1287494531,3940,0,0,0,65535,1532
20220901T053116,2500,20500,RXTX,5,10,45005,1810,148926-07(272),0,640,-88,-9,-62,-,0,0,SRV/REGISTERED,NORMAL_SERVICE,CONNECTED,CS_PS,23.4,10,dfac4192,223.55.215.218,-88,4,4.50E+14,1227091531,246263,379869681,1287494531,4000,0,0,0,65535,1596
20220901T053118,2500,20500,RXTX,5,10,45005,1810,148926-07(272),0,640,-88,-9,-62,-,0,0,SRV/REGISTERED,NORMAL_SERVICE,CONNECTED,CS_PS,22.8,2,dfac4192,223.55.215.218,-88,4,4.50E+14,1227091531,248261,379869679,1287494531,4060,0,0,0,65535,1652
20220901T053121,2500,20500,RXTX,5,10,45005,1810,148926-07(272),0,640,-88,-9,-62,-,0,0,SRV/REGISTERED,NORMAL_SERVICE,CONNECTED,CS_PS,22.2,18,dfac4192,223.55.215.218,-88,4,4.50E+14,1227091531,250591,379869678,1287494531,4090,0,0,0,65535,1689
20220901T053123,2500,20500,RXTX,5,10,45005,1810,148926-07(272),0,640,-88,-9,-62,-,0,0,SRV/REGISTERED,NORMAL_SERVICE,CONNECTED,CS_PS,22,4,dfac4192,223.55.215.218,-88,4,4.50E+14,1227091531,252591,379869678,1287494530,4110,0,0,0,65535,1705
20220901T053125,2500,20500,RXTX,5,10,45005,1810,148926-07(272),0,640,-88,-9,-62,-,0,0,SRV/REGISTERED,NORMAL_SERVICE,CONNECTED,CS_PS,22,9,dfac4192,223.55.215.218,-88,4,4.50E+14,1227091531,254922,379869675,1287494527,4200,0,0,0,65535,1799
20220901T053127,2500,20500,RXTX,5,10,45005,1810,148926-07(272),0,640,-88,-9,-62,-,0,0,SRV/REGISTERED,NORMAL_SERVICE,CONNECTED,CS_PS,20,10,dfac4192,223.55.215.218,-88,4,4.50E+14,1227091531,256919,379869673,1287494528,4190,0,0,0,65535,1781
20220901T053129,2500,20500,RXTX,5,10,45005,1810,148926-07(272),0,640,-88,-9,-62,-,0,0,SRV/REGISTERED,NORMAL_SERVICE,CONNECTED,CS_PS,22.8,5,dfac4192,223.55.215.218,-88,4,4.50E+14,1227091531,259249,379869673,1287494528,4120,0,0,0,65535,1712
20220901T053131,2500,20500,RXTX,5,10,45005,1810,148926-07(272),0,640,-88,-9,-62,-,0,0,SRV/REGISTERED,NORMAL_SERVICE,CONNECTED,CS_PS,22.8,4,dfac4192,223.55.215.218,-88,4,4.50E+14,1227091531,261249,379869673,1287494528,4100,0,0,0,65535,1692
20220901T053133,2500,20500,RXTX,5,10,45005,1810,148926-07(272),0,640,-88,-9,-62,-,0,0,SRV/REGISTERED,NORMAL_SERVICE,CONNECTED,CS_PS,22.4,9,dfac4192,223.55.215.218,-88,4,4.50E+14,1227091531,263578,379869674,1287494529,4100,0,0,0,65535,1694
20220901T053136,2500,20500,RXTX,5,10,45005,1810,148926-07(272),0,640,-88,-9,-62,-,0,0,SRV/REGISTERED,NORMAL_SERVICE,CONNECTED,CS_PS,22.8,19,dfac4192,223.55.215.218,-88,4,4.50E+14,1227091531,265576,379869676,1287494528,4140,0,0,0,65535,1730
20220901T053138,2500,20500,RXTX,5,10,45005,1810,148926-07(272),0,640,-88,-9,-62,-,0,0,SRV/REGISTERED,NORMAL_SERVICE,CONNECTED,CS_PS,22.2,0,dfac4192,223.55.215.218,-88,4,4.50E+14,1227091531,267574,379869678,1287494525,4170,0,0,0,65535,1767
20220901T053140,2500,20500,RXTX,5,10,45005,1810,148926-07(272),0,640,-88,-9,-62,-,0,0,SRV/REGISTERED,NORMAL_SERVICE,CONNECTED,CS_PS,22.2,5,dfac4192,223.55.215.218,-88,4,4.50E+14,1227091531,269907,379869680,1287494521,4200,0,0,0,65535,1791
20220901T053142,2500,20500,RXTX,5,10,45005,1810,148926-07(272),0,640,-88,-9,-62,-,0,0,SRV/REGISTERED,NORMAL_SERVICE,CONNECTED,CS_PS,23.2,5,dfac4192,223.55.215.218,-88,4,4.50E+14,1227091531,271903,379869682,1287494518,4120,0,0,0,65535,1717
20220901T053144,2500,20500,RXTX,5,10,45005,1810,148926-07(272),0,640,-88,-9,-62,-,0,0,SRV/REGISTERED,NORMAL_SERVICE,CONNECTED,CS_PS,23,9,dfac4192,223.55.215.218,-88,4,4.50E+14,1227091531,274234,379869685,1287494514,4130,0,0,0,65535,1720
20220901T053146,2500,20500,RXTX,5,10,45005,1810,148926-07(272),0,640,-88,-9,-62,-,0,0,SRV/REGISTERED,NORMAL_SERVICE,CONNECTED,CS_PS,23,2,dfac4192,223.55.215.218,-88,4,4.50E+14,1227091531,276234,379869688,1287494510,4180,0,0,0,65535,1773
20220901T053148,2500,20500,RXTX,5,10,45005,1810,148926-07(272),0,640,-88,-9,-62,-,0,0,SRV/REGISTERED,NORMAL_SERVICE,CONNECTED,CS_PS,24,9,dfac4192,223.55.215.218,-88,4,4.50E+14,1227091531,278231,379869691,1287494507,4180,0,0,0,65535,1775
20220901T053150,2500,20500,RXTX,5,10,45005,1810,148926-07(272),0,640,-88,-9,-62,-,0,0,SRV/REGISTERED,NORMAL_SERVICE,CONNECTED,CS_PS,23,9,dfac4192,223.55.215.218,-88,4,4.50E+14,1227091531,280561,379869695,1287494501,4220,0,0,0,65535,1819
20220901T053153,2500,20500,RXTX,5,10,45005,1810,148926-07(272),0,640,-88,-9,-62,-,0,0,SRV/REGISTERED,NORMAL_SERVICE,CONNECTED,CS_PS,23,3,dfac4192,223.55.215.218,-88,4,4.50E+14,1227091531,282559,379869699,1287494496,4230,0,0,0,65535,1820
20220901T053155,2500,20500,RXTX,5,10,45005,1810,148926-07(272),0,640,-88,-9,-62,-,0,0,SRV/REGISTERED,NORMAL_SERVICE,CONNECTED,CS_PS,23.2,9,dfac4192,223.55.215.218,-88,4,4.50E+14,1227091531,284891,379869704,1287494491,4180,0,0,0,65535,1770
20220901T053157,2500,20500,RXTX,5,10,45005,1810,148926-07(272),0,640,-88,-9,-62,-,0,0,SRV/REGISTERED,NORMAL_SERVICE,CONNECTED,CS_PS,23.8,16,dfac4192,223.55.215.218,-88,4,4.50E+14,1227091531,286889,379869706,1287494487,4030,0,0,0,65535,1626
20220901T053159,2500,20500,RXTX,5,10,45005,1810,148926-07(272),0,640,-88,-9,-62,-,0,0,SRV/REGISTERED,NORMAL_SERVICE,CONNECTED,CS_PS,19,0,dfac4192,223.55.215.218,-88,4,4.50E+14,1227091531,288887,379869711,1287494486,3970,0,0,0,65535,1564
20220901T053201,2500,20500,RXTX,5,10,45005,1810,148926-07(272),0,640,-88,-9,-62,-,0,0,SRV/REGISTERED,NORMAL_SERVICE,CONNECTED,CS_PS,19,10,dfac4192,223.55.215.218,-88,4,4.50E+14,1227091531,291219,379869715,1287494484,4130,0,0,0,65535,1720
20220901T053203,2500,20500,RXTX,5,10,45005,1810,148926-07(272),0,640,-88,-9,-62,-,0,0,SRV/REGISTERED,NORMAL_SERVICE,CONNECTED,CS_PS,23,14,dfac4192,223.55.215.218,-88,4,4.50E+14,1227091531,293216,379869717,1287494484,4240,0,0,0,65535,1835
20220901T053205,2500,20500,RXTX,5,10,45005,1810,148926-07(272),0,640,-88,-9,-62,-,0,0,SRV/REGISTERED,NORMAL_SERVICE,CONNECTED,CS_PS,22.2,4,dfac4192,223.55.215.218,-88,4,4.50E+14,1227091531,295546,379869719,1287494484,4290,0,0,0,65535,1883
20220901T053208,2500,20500,RXTX,5,10,45005,1810,148926-07(272),0,640,-88,-9,-62,-,0,0,SRV/REGISTERED,NORMAL_SERVICE,CONNECTED,CS_PS,22.2,9,dfac4192,223.55.215.218,-88,4,4.50E+14,1227091531,297544,379869721,1287494482,4290,0,0,0,65535,1883
20220901T053210,2500,20500,RXTX,5,10,45005,1810,148926-07(272),0,640,-88,-9,-62,-,0,0,SRV/REGISTERED,NORMAL_SERVICE,CONNECTED,CS_PS,21.8,3,dfac4192,223.55.215.218,-88,4,4.50E+14,1227091531,299876,379869722,1287494479,4330,0,0,0,65535,1924
20220901T053212,2500,20500,RXTX,5,10,45005,1810,148926-07(272),0,640,-88,-9,-62,-,0,0,SRV/REGISTERED,NORMAL_SERVICE,CONNECTED,CS_PS,23,3,dfac4192,223.55.215.218,-88,4,4.50E+14,1227091531,301874,379869723,1287494476,4330,0,0,0,65535,1925
20220901T053214,2500,20500,RXTX,5,10,45005,1810,148926-07(272),0,640,-88,-9,-62,-,0,0,SRV/REGISTERED,NORMAL_SERVICE,CONNECTED,CS_PS,20,2,dfac4192,223.55.215.218,-88,4,4.50E+14,1227091531,303871,379869723,1287494474,4340,0,0,0,65535,1933
20220901T053216,2500,20500,RXTX,5,10,45005,1810,148926-07(272),0,640,-88,-9,-62,-,0,0,SRV/REGISTERED,NORMAL_SERVICE,CONNECTED,CS_PS,20,9,dfac4192,223.55.215.218,-88,4,4.50E+14,1227091531,306204,379869723,1287494472,4370,0,0,0,65535,1968
20220901T053218,2500,20500,RXTX,5,10,45005,1810,148926-07(272),0,640,-88,-9,-62,-,0,0,SRV/REGISTERED,NORMAL_SERVICE,CONNECTED,CS_PS,22.6,3,dfac4192,223.55.215.218,-88,4,4.50E+14,1227091531,308201,379869721,1287494472,4430,0,0,0,65535,2023
20220901T053220,2500,20500,RXTX,5,10,45005,1810,148926-07(272),0,640,-88,-9,-62,-,0,0,SRV/REGISTERED,NORMAL_SERVICE,CONNECTED,CS_PS,18.2,5,dfac4192,223.55.215.218,-88,4,4.50E+14,1227091531,310531,379869718,1287494471,4310,0,0,0,65535,1904
20220901T053223,2500,20500,RXTX,5,10,45005,1810,148926-07(272),0,640,-88,-9,-62,-,0,0,SRV/REGISTERED,NORMAL_SERVICE,CONNECTED,CS_PS,18.2,4,dfac4192,223.55.215.218,-88,4,4.50E+14,1227091531,312531,379869716,1287494469,4290,0,0,0,65535,1884
20220901T053225,2500,20500,RXTX,5,10,45005,1810,148926-07(272),0,640,-88,-9,-62,-,0,0,SRV/REGISTERED,NORMAL_SERVICE,CONNECTED,CS_PS,22.6,1,dfac4192,223.55.215.218,-88,4,4.50E+14,1227091531,314861,379869710,1287494466,4370,0,0,0,65535,1961
20220901T053227,2500,20500,RXTX,5,10,45005,1810,148926-07(272),0,640,-88,-9,-62,-,0,0,SRV/REGISTERED,NORMAL_SERVICE,CONNECTED,CS_PS,23.4,3,dfac4192,223.55.215.218,-88,4,4.50E+14,1227091531,316859,379869707,1287494462,4430,0,0,0,65535,2024
20220901T053229,2500,20500,RXTX,5,10,45005,1810,148926-07(272),0,640,-88,-9,-62,-,0,0,SRV/REGISTERED,NORMAL_SERVICE,CONNECTED,CS_PS,22.6,1,dfac4192,223.55.215.218,-88,4,4.50E+14,1227091531,319191,379869700,1287494457,4470,0,0,0,65535,2068
20220901T053231,2500,20500,RXTX,5,10,45005,1810,148926-07(272),0,640,-88,-9,-62,-,0,0,SRV/REGISTERED,NORMAL_SERVICE,CONNECTED,CS_PS,22.6,7,dfac4192,223.55.215.218,-88,4,4.50E+14,1227091531,321188,379869696,1287494455,4510,0,0,0,65535,2101
20220901T053233,2500,20500,RXTX,5,10,45005,1810,148926-07(272),0,640,-88,-9,-62,-,0,0,SRV/REGISTERED,NORMAL_SERVICE,CONNECTED,CS_PS,22.4,3,dfac4192,223.55.215.218,-88,4,4.50E+14,1227091531,323186,379869692,1287494453,4510,0,0,0,65535,2107
20220901T053235,2500,20500,RXTX,5,10,45005,1810,148926-07(272),0,640,-88,-9,-62,-,0,0,SRV/REGISTERED,NORMAL_SERVICE,CONNECTED,CS_PS,22.4,4,dfac4192,223.55.215.218,-88,4,4.50E+14,1227091531,325516,379869685,1287494453,4550,0,0,0,65535,2148
20220901T053238,2500,20500,RXTX,5,10,45005,1810,148926-07(272),0,640,-88,-9,-62,-,0,0,SRV/REGISTERED,NORMAL_SERVICE,CONNECTED,CS_PS,22.4,4,dfac4192,223.55.215.218,-88,4,4.50E+14,1227091531,327516,379869683,1287494452,4540,0,0,0,65535,2136
20220901T053240,2500,20500,RXTX,5,10,45005,1810,148926-07(272),0,640,-88,-9,-62,-,0,0,SRV/REGISTERED,NORMAL_SERVICE,CONNECTED,CS_PS,23.8,1,dfac4192,223.55.215.218,-88,4,4.50E+14,1227091531,329846,379869683,1287494452,4460,0,0,0,65535,2054
20220901T053242,2500,20500,RXTX,5,10,45005,1810,148926-07(272),0,640,-88,-9,-62,-,0,0,SRV/REGISTERED,NORMAL_SERVICE,CONNECTED,CS_PS,20,0,dfac4192,223.55.215.218,-88,4,4.50E+14,1227091531,331844,379869683,1287494452,4490,0,0,0,65535,2087
20220901T053244,2500,20500,RXTX,5,10,45005,1810,148926-07(272),0,640,-88,-9,-62,-,0,0,SRV/REGISTERED,NORMAL_SERVICE,CONNECTED,CS_PS,24,3,dfac4192,223.55.215.218,-88,4,4.50E+14,1227091531,334174,379869682,1287494452,4520,0,0,0,65535,2116
20220901T053246,2500,20500,RXTX,5,10,45005,1810,148926-07(272),0,640,-88,-9,-62,-,0,0,SRV/REGISTERED,NORMAL_SERVICE,CONNECTED,CS_PS,24,2,dfac4192,223.55.215.218,-88,4,4.50E+14,1227091531,336174,379869682,1287494454,4490,0,0,0,65535,2087
20220901T053248,2500,20500,RXTX,5,10,45005,1810,148926-07(272),0,640,-88,-9,-62,-,0,0,SRV/REGISTERED,NORMAL_SERVICE,CONNECTED,CS_PS,22.8,4,dfac4192,223.55.215.218,-88,4,4.50E+14,1227091531,338171,379869683,1287494455,4470,0,0,0,65535,2065
20220901T053250,2500,20500,RXTX,5,10,45005,1810,148926-07(272),0,640,-88,-9,-62,-,0,0,SRV/REGISTERED,NORMAL_SERVICE,CONNECTED,CS_PS,24,12,dfac4192,223.55.215.218,-88,4,4.50E+14,1227091531,340501,379869683,1287494455,4500,0,0,0,65535,2096
20220901T053253,2500,20500,RXTX,5,10,45005,1810,148926-07(272),0,640,-88,-9,-62,-,0,0,SRV/REGISTERED,NORMAL_SERVICE,CONNECTED,CS_PS,24,1,dfac4192,223.55.215.218,-88,4,4.50E+14,1227091531,342499,379869682,1287494456,4510,0,0,0,65535,2104
20220901T053255,2500,20500,RXTX,5,10,45005,1810,148926-07(272),0,640,-88,-9,-62,-,0,0,SRV/REGISTERED,NORMAL_SERVICE,CONNECTED,CS_PS,22.8,9,dfac4192,223.55.215.218,-88,4,4.50E+14,1227091531,344831,379869681,1287494458,4560,0,0,0,65535,2154
20220901T053257,2500,20500,RXTX,5,10,45005,1810,148926-07(272),0,640,-88,-9,-62,-,0,0,SRV/REGISTERED,NORMAL_SERVICE,CONNECTED,CS_PS,22.8,3,dfac4192,223.55.215.218,-88,4,4.50E+14,1227091531,346828,379869680,1287494461,4610,0,0,0,65535,2207
20220901T053259,2500,20500,RXTX,5,10,45005,1810,148926-07(272),0,640,-88,-9,-62,-,0,0,SRV/REGISTERED,NORMAL_SERVICE,CONNECTED,CS_PS,21,10,dfac4192,223.55.215.218,-88,4,4.50E+14,1227091531,349159,379869680,1287494463,4550,0,0,0,65535,2142
20220901T053301,2500,20500,RXTX,5,10,45005,1810,148926-07(272),0,640,-88,-9,-62,-,0,0,SRV/REGISTERED,NORMAL_SERVICE,CONNECTED,CS_PS,21,4,dfac4192,223.55.215.218,-88,4,4.50E+14,1227091531,351159,379869680,1287494465,4480,0,0,0,65535,2071
20220901T053303,2500,20500,RXTX,5,10,45005,1810,148926-07(272),0,640,-88,-9,-62,-,0,0,SRV/REGISTERED,NORMAL_SERVICE,CONNECTED,CS_PS,22,3,dfac4192,223.55.215.218,-88,4,4.50E+14,1227091531,353156,379869679,1287494466,4500,0,0,0,65535,2099
20220901T053305,2500,20500,RXTX,5,10,45005,1810,148926-07(272),0,640,-88,-9,-62,-,0,0,SRV/REGISTERED,NORMAL_SERVICE,CONNECTED,CS_PS,21,3,dfac4192,223.55.215.218,-88,4,4.50E+14,1227091531,355487,379869679,1287494465,4500,0,0,0,65535,2097
20220901T053308,2500,20500,RXTX,5,10,45005,1810,148926-07(272),0,640,-88,-9,-62,-,0,0,SRV/REGISTERED,NORMAL_SERVICE,CONNECTED,CS_PS,21,5,dfac4192,223.55.215.218,-88,4,4.50E+14,1227091531,357484,379869679,1287494466,4420,0,0,0,65535,2017
20220901T053310,2500,20500,RXTX,5,10,45005,1810,148926-07(272),0,640,-88,-9,-62,-,0,0,SRV/REGISTERED,NORMAL_SERVICE,CONNECTED,CS_PS,22.8,1,dfac4192,223.55.215.218,-88,4,4.50E+14,1227091531,359816,379869681,1287494466,4490,0,0,0,65535,2083
20220901T053312,2500,20500,RXTX,5,10,45005,1810,148926-07(272),0,640,-88,-9,-62,-,0,0,SRV/REGISTERED,NORMAL_SERVICE,CONNECTED,CS_PS,22.8,2,dfac4192,223.55.215.218,-88,4,4.50E+14,1227091531,361814,379869681,1287494466,4570,0,0,0,65535,2160
20220901T053314,2500,20500,RXTX,5,10,45005,1810,148926-07(272),0,640,-88,-9,-62,-,0,0,SRV/REGISTERED,NORMAL_SERVICE,CONNECTED,CS_PS,23.6,10,dfac4192,223.55.215.218,-88,4,4.50E+14,1227091531,363811,379869678,1287494466,4600,0,0,0,65535,2195
20220901T053316,2500,20500,RXTX,5,10,45005,1810,148926-07(272),0,640,-88,-9,-62,-,0,0,SRV/REGISTERED,NORMAL_SERVICE,CONNECTED,CS_PS,23.6,9,dfac4192,223.55.215.218,-88,4,4.50E+14,1227091531,366144,379869676,1287494464,4620,0,0,0,65535,2217
20220901T053318,2500,20500,RXTX,5,10,45005,1810,148926-07(272),0,640,-88,-9,-62,-,0,0,SRV/REGISTERED,NORMAL_SERVICE,CONNECTED,CS_PS,15.2,14,dfac4192,223.55.215.218,-88,4,4.50E+14,1227091531,368141,379869675,1287494462,4690,0,0,0,65535,2280
20220901T053320,2500,20500,RXTX,5,10,45005,1810,148926-07(272),0,640,-88,-9,-62,-,0,0,SRV/REGISTERED,NORMAL_SERVICE,CONNECTED,CS_PS,21.6,3,dfac4192,223.55.215.218,-88,4,4.50E+14,1227091531,370471,379869673,1287494460,4740,0,0,0,65535,2337
20220901T053323,2500,20500,RXTX,5,10,45005,1810,148926-07(272),0,640,-88,-9,-62,-,0,0,SRV/REGISTERED,NORMAL_SERVICE,CONNECTED,CS_PS,21.6,4,dfac4192,223.55.215.218,-88,4,4.50E+14,1227091531,372469,379869671,1287494459,4720,0,0,0,65535,2316
20220901T053325,2500,20500,RXTX,5,10,45005,1810,148926-07(272),0,640,-88,-9,-62,-,0,0,SRV/REGISTERED,NORMAL_SERVICE,CONNECTED,CS_PS,18,0,dfac4192,223.55.215.218,-88,4,4.50E+14,1227091531,374801,379869671,1287494458,4720,0,0,0,65535,2317
20220901T053327,2500,20500,RXTX,5,10,45005,1810,148926-07(272),0,640,-88,-9,-62,-,0,0,SRV/REGISTERED,NORMAL_SERVICE,CONNECTED,CS_PS,20.4,18,dfac4192,223.55.215.218,-88,4,4.50E+14,1227091531,376799,379869671,1287494457,4750,0,0,0,65535,2343
20220901T053329,2500,20500,RXTX,5,10,45005,1810,148926-07(272),0,640,-88,-9,-62,-,0,0,SRV/REGISTERED,NORMAL_SERVICE,CONNECTED,CS_PS,23,10,dfac4192,223.55.215.218,-88,4,4.50E+14,1227091531,379131,379869672,1287494457,4710,0,0,0,65535,2309
20220901T053331,2500,20500,RXTX,5,10,45005,1810,148926-07(272),0,640,-88,-9,-62,-,0,0,SRV/REGISTERED,NORMAL_SERVICE,CONNECTED,CS_PS,23,3,dfac4192,223.55.215.218,-88,4,4.50E+14,1227091531,381129,379869672,1287494458,4690,0,0,0,65535,2283
20220901T053333,2500,20500,RXTX,5,10,45005,1810,148926-07(272),0,640,-88,-9,-62,-,0,0,SRV/REGISTERED,NORMAL_SERVICE,CONNECTED,CS_PS,24.4,3,dfac4192,223.55.215.218,-88,4,4.50E+14,1227091531,383126,379869672,1287494458,4730,0,0,0,65535,2328
20220901T053335,2500,20500,RXTX,5,10,45005,1810,148926-07(272),0,640,-88,-9,-62,-,0,0,SRV/REGISTERED,NORMAL_SERVICE,CONNECTED,CS_PS,22.2,2,dfac4192,223.55.215.218,-88,4,4.50E+14,1227091531,385456,379869672,1287494461,4690,0,0,0,65535,2288
20220901T053338,2500,20500,RXTX,5,10,45005,1810,148926-07(272),0,640,-88,-9,-62,-,0,0,SRV/REGISTERED,NORMAL_SERVICE,CONNECTED,CS_PS,22.2,3,dfac4192,223.55.215.218,-88,4,4.50E+14,1227091531,387456,379869671,1287494462,4730,0,0,0,65535,2325
20220901T053340,2500,20500,RXTX,5,10,45005,1810,148926-07(272),0,640,-88,-9,-62,-,0,0,SRV/REGISTERED,NORMAL_SERVICE,CONNECTED,CS_PS,19.8,10,dfac4192,223.55.215.218,-88,4,4.50E+14,1227091531,389716,379869670,1287494465,4750,0,0,0,65535,2341
20220901T053342,2500,20500,RXTX,5,10,45005,1810,148926-07(272),0,640,-88,-9,-62,-,0,0,SRV/REGISTERED,NORMAL_SERVICE,CONNECTED,CS_PS,21.8,4,dfac4192,223.55.215.218,-88,4,4.50E+14,1227091531,391796,379869668,1287494470,4770,0,0,0,65535,2368
20220901T053344,2500,20500,RXTX,5,10,45005,1810,148926-07(272),0,640,-88,-9,-62,-,0,0,SRV/REGISTERED,NORMAL_SERVICE,CONNECTED,CS_PS,23.2,4,dfac4192,223.55.215.218,-88,4,4.50E+14,1227091531,393128,379869667,1287494472,4790,0,0,0,65535,2380
20220901T053346,2500,20500,RXTX,5,10,45005,1810,148926-07(272),0,640,-88,-9,-62,-,0,0,SRV/REGISTERED,NORMAL_SERVICE,CONNECTED,CS_PS,23.2,4,dfac4192,223.55.215.218,-88,4,4.50E+14,1227091531,395791,379869665,1287494476,4870,0,0,0,65535,2463
20220901T053348,2500,20500,RXTX,5,10,45005,1810,148926-07(272),0,640,-88,-9,-62,-,0,0,SRV/REGISTERED,NORMAL_SERVICE,CONNECTED,CS_PS,22,10,dfac4192,223.55.215.218,-88,4,4.50E+14,1227091531,397124,379869663,1287494480,4950,0,0,0,65535,2540
20220901T053350,2500,20500,RXTX,5,10,45005,1810,148926-07(272),0,640,-88,-9,-62,-,0,0,SRV/REGISTERED,NORMAL_SERVICE,CONNECTED,CS_PS,23.8,3,dfac4192,223.55.215.218,-88,4,4.50E+14,1227091531,399789,379869661,1287494484,4910,0,0,0,65535,2509
20220901T053353,2500,20500,RXTX,5,10,45005,1810,148926-07(272),0,640,-88,-9,-62,-,0,0,SRV/REGISTERED,NORMAL_SERVICE,CONNECTED,CS_PS,23.8,1,dfac4192,223.55.215.218,-88,4,4.50E+14,1227091531,402451,379869655,1287494489,4960,0,0,0,65535,2555
20220901T053355,2500,20500,RXTX,5,10,45005,1810,148926-07(272),0,640,-88,-9,-62,-,0,0,SRV/REGISTERED,NORMAL_SERVICE,CONNECTED,CS_PS,24,0,dfac4192,223.55.215.218,-88,4,4.50E+14,1227091531,403784,379869653,1287494491,4950,0,0,0,65535,2546
20220901T053357,2500,20500,RXTX,5,10,45005,1810,148926-07(272),0,640,-88,-9,-62,-,0,0,SRV/REGISTERED,NORMAL_SERVICE,CONNECTED,CS_PS,24,9,dfac4192,223.55.215.218,-88,4,4.50E+14,1227091531,406449,379869649,1287494496,4920,0,0,0,65535,2511
20220901T053359,2500,20500,RXTX,5,10,45005,1810,148926-07(272),0,640,-88,-9,-62,-,0,0,SRV/REGISTERED,NORMAL_SERVICE,CONNECTED,CS_PS,22.2,3,dfac4192,223.55.215.218,-88,4,4.50E+14,1227091531,408961,379869645,1287494500,4880,0,0,0,65535,2479
20220901T053401,2500,20500,RXTX,5,10,45005,1810,148926-07(272),0,640,-88,-9,-62,-,0,0,SRV/REGISTERED,NORMAL_SERVICE,CONNECTED,CS_PS,22.2,9,dfac4192,223.55.215.218,-88,4,4.50E+14,1227091531,411294,379869640,1287494503,4890,0,0,0,65535,2481
20220901T053403,2500,20500,RXTX,5,10,45005,1810,148926-07(272),0,640,-88,-9,-62,-,0,0,SRV/REGISTERED,NORMAL_SERVICE,CONNECTED,CS_PS,22.6,1,dfac4192,223.55.215.218,-88,4,4.50E+14,1227091531,413291,379869639,1287494504,4920,0,0,0,65535,2519
20220901T053405,2500,20500,RXTX,5,10,45005,1810,148926-07(272),0,640,-88,-9,-62,-,0,0,SRV/REGISTERED,NORMAL_SERVICE,CONNECTED,CS_PS,23.8,2,dfac4192,223.55.215.218,-88,4,4.50E+14,1227091531,415288,379869637,1287494504,4940,0,0,0,65535,2531
20220901T053408,2500,20500,RXTX,5,10,45005,1810,148926-07(272),0,640,-88,-9,-62,-,0,0,SRV/REGISTERED,NORMAL_SERVICE,CONNECTED,CS_PS,23.8,7,dfac4192,223.55.215.218,-88,4,4.50E+14,1227091531,417619,379869636,1287494504,4930,0,0,0,65535,2527
20220901T053410,2500,20500,RXTX,5,10,45005,1810,148926-07(272),0,640,-88,-9,-62,-,0,0,SRV/REGISTERED,NORMAL_SERVICE,CONNECTED,CS_PS,23.2,2,dfac4192,223.55.215.218,-88,4,4.50E+14,1227091531,419619,379869635,1287494503,4910,0,0,0,65535,2504
20220901T053412,2500,20500,RXTX,5,10,45005,1810,148926-07(272),0,640,-88,-9,-62,-,0,0,SRV/REGISTERED,NORMAL_SERVICE,CONNECTED,CS_PS,22.6,1,dfac4192,223.55.215.218,-88,4,4.50E+14,1227091531,421949,379869634,1287494503,4930,0,0,0,65535,2520
20220901T053414,2500,20500,RXTX,5,10,45005,1810,148926-07(272),0,640,-88,-9,-62,-,0,0,SRV/REGISTERED,NORMAL_SERVICE,CONNECTED,CS_PS,22.6,2,dfac4192,223.55.215.218,-88,4,4.50E+14,1227091531,423947,379869634,1287494502,4950,0,0,0,65535,2541
20220901T053416,2500,20500,RXTX,5,10,45005,1810,148926-07(272),0,640,-88,-9,-62,-,0,0,SRV/REGISTERED,NORMAL_SERVICE,CONNECTED,CS_PS,22.6,9,dfac4192,223.55.215.218,-88,4,4.50E+14,1227091531,426278,379869633,1287494499,5000,0,0,0,65535,2591
20220901T053418,2500,20500,RXTX,5,10,45005,1810,148926-07(272),0,640,-88,-9,-62,-,0,0,SRV/REGISTERED,NORMAL_SERVICE,CONNECTED,CS_PS,19.2,1,dfac4192,223.55.215.218,-88,4,4.50E+14,1227091531,428276,379869634,1287494498,5030,0,0,0,65535,2625
20220901T053420,2500,20500,RXTX,5,10,45005,1810,148926-07(272),0,640,-88,-9,-62,-,0,0,SRV/REGISTERED,NORMAL_SERVICE,CONNECTED,CS_PS,22.2,4,dfac4192,223.55.215.218,-88,4,4.50E+14,1227091531,430274,379869634,1287494497,5060,0,0,0,65535,2657
20220901T053423,2500,20500,RXTX,5,10,45005,1810,148926-07(272),0,640,-88,-9,-62,-,0,0,SRV/REGISTERED,NORMAL_SERVICE,CONNECTED,CS_PS,22.2,2,dfac4192,223.55.215.218,-88,4,4.50E+14,1227091531,432606,379869637,1287494497,5030,0,0,0,65535,2621
20220901T053425,2500,20500,RXTX,5,10,45005,1810,148926-07(272),0,640,-88,-9,-62,-,0,0,SRV/REGISTERED,NORMAL_SERVICE,CONNECTED,CS_PS,21.4,4,dfac4192,223.55.215.218,-88,4,4.50E+14,1227091531,434603,379869638,1287494497,5010,0,0,0,65535,2601
20220901T053427,2500,20500,RXTX,5,10,45005,1810,148926-07(272),0,640,-88,-9,-62,-,0,0,SRV/REGISTERED,NORMAL_SERVICE,CONNECTED,CS_PS,21.4,10,dfac4192,223.55.215.218,-88,4,4.50E+14,1227091531,436934,379869641,1287494496,4960,0,0,0,65535,2554
20220901T053429,2500,20500,RXTX,5,10,45005,1810,148926-07(272),0,640,-88,-9,-62,-,0,0,SRV/REGISTERED,NORMAL_SERVICE,CONNECTED,CS_PS,22,10,dfac4192,223.55.215.218,-88,4,4.50E+14,1227091531,438931,379869642,1287494496,4930,0,0,0,65535,2526
20220901T053431,2500,20500,RXTX,5,10,45005,1810,148926-07(272),0,640,-88,-9,-62,-,0,0,SRV/REGISTERED,NORMAL_SERVICE,CONNECTED,CS_PS,22,9,dfac4192,223.55.215.218,-88,4,4.50E+14,1227091531,441264,379869645,1287494496,5000,0,0,0,65535,2591
20220901T053433,2500,20500,RXTX,5,10,45005,1810,148926-07(272),0,640,-88,-9,-62,-,0,0,SRV/REGISTERED,NORMAL_SERVICE,CONNECTED,CS_PS,23.8,3,dfac4192,223.55.215.218,-88,4,4.50E+14,1227091531,443261,379869646,1287494497,5050,0,0,0,65535,2645
20220901T053435,2500,20500,RXTX,5,10,45005,1810,148926-07(272),0,640,-88,-9,-62,-,0,0,SRV/REGISTERED,NORMAL_SERVICE,CONNECTED,CS_PS,22.6,3,dfac4192,223.55.215.218,-88,4,4.50E+14,1227091531,445259,379869647,1287494498,5100,0,0,0,65535,2697
20220901T053438,2500,20500,RXTX,5,10,45005,1810,148926-07(272),0,640,-88,-9,-62,-,0,0,SRV/REGISTERED,NORMAL_SERVICE,CONNECTED,CS_PS,22.6,10,dfac4192,223.55.215.218,-88,4,4.50E+14,1227091531,447591,379869649,1287494499,5110,0,0,0,65535,2705
20220901T053440,2500,20500,RXTX,5,10,45005,1810,148926-07(272),0,640,-88,-9,-62,-,0,0,SRV/REGISTERED,NORMAL_SERVICE,CONNECTED,CS_PS,21.2,10,dfac4192,223.55.215.218,-88,4,4.50E+14,1227091531,449588,379869652,1287494499,5080,0,0,0,65535,2673
20220901T053442,2500,20500,RXTX,5,10,45005,1810,148926-07(272),0,640,-88,-9,-62,-,0,0,SRV/REGISTERED,NORMAL_SERVICE,CONNECTED,CS_PS,21.4,10,dfac4192,223.55.215.218,-88,4,4.50E+14,1227091531,451919,379869654,1287494499,5140,0,0,0,65535,2731
20220901T053444,2500,20500,RXTX,5,10,45005,1810,148926-07(272),0,640,-88,-9,-62,-,0,0,SRV/REGISTERED,NORMAL_SERVICE,CONNECTED,CS_PS,20,3,dfac4192,223.55.215.218,-88,4,4.50E+14,1227091531,453916,379869655,1287494500,5200,0,0,0,65535,2794
20220901T053446,2500,20500,RXTX,5,10,45005,1810,148926-07(272),0,640,-88,-9,-62,-,0,0,SRV/REGISTERED,NORMAL_SERVICE,CONNECTED,CS_PS,20,3,dfac4192,223.55.215.218,-88,4,4.50E+14,1227091531,456249,379869657,1287494503,5250,0,0,0,65535,2840
20220901T053448,2500,20500,RXTX,5,10,45005,1810,148926-07(272),0,640,-88,-9,-62,-,0,0,SRV/REGISTERED,NORMAL_SERVICE,CONNECTED,CS_PS,22.2,9,dfac4192,223.55.215.218,-88,4,4.50E+14,1227091531,458246,379869657,1287494503,5230,0,0,0,65535,2827
20220901T053450,2500,20500,RXTX,5,10,45005,1810,148926-07(272),0,640,-88,-9,-62,-,0,0,SRV/REGISTERED,NORMAL_SERVICE,CONNECTED,CS_PS,22,3,dfac4192,223.55.215.218,-88,4,4.50E+14,1227091531,460578,379869658,1287494504,5240,0,0,0,65535,30
20220901T053453,2500,20500,RXTX,5,10,45005,1810,148926-07(272),0,640,-88,-9,-62,-,0,0,SRV/REGISTERED,NORMAL_SERVICE,CONNECTED,CS_PS,22,3,dfac4192,223.55.215.218,-88,4,4.50E+14,1227091531,462575,379869660,1287494504,5250,0,0,0,65535,40
20220901T053455,2500,20500,RXTX,5,10,45005,1810,148926-07(272),0,640,-88,-9,-62,-,0,0,SRV/REGISTERED,NORMAL_SERVICE,CONNECTED,CS_PS,22,10,dfac4192,223.55.215.218,-88,4,4.50E+14,1227091531,464572,379869659,1287494506,5270,0,0,0,65535,64
20220901T053457,2500,20500,RXTX,5,10,45005,1810,148926-07(272),0,640,-88,-9,-62,-,0,0,SRV/REGISTERED,NORMAL_SERVICE,CONNECTED,CS_PS,22,8,dfac4192,223.55.215.218,-88,4,4.50E+14,1227091531,466905,379869657,1287494507,5180,0,0,0,65535,-22
20220901T053459,2500,20500,RXTX,5,10,45005,1810,148926-07(272),0,640,-88,-9,-62,-,0,0,SRV/REGISTERED,NORMAL_SERVICE,CONNECTED,CS_PS,20.4,10,dfac4192,223.55.215.218,-88,4,4.50E+14,1227091531,468903,379869673,1287494447,5860,0,0,0,65535,650
20220901T053501,2500,20500,RXTX,5,10,45005,1810,148926-07(272),0,640,-88,-9,-62,-,0,0,SRV/REGISTERED,NORMAL_SERVICE,CONNECTED,CS_PS,20.4,-1,dfac4192,223.55.215.218,-88,4,4.50E+14,1227091531,471232,379869676,1287494334,7770,0,0,0,65535,2568
20220901T053503,2500,20500,RXTX,5,10,45005,1810,148926-07(272),0,640,-82,-9,-62,-,0,0,SRV/REGISTERED,NORMAL_SERVICE,CONNECTED,CS_PS,21.6,3,dfac4192,223.55.215.218,-88,4,4.50E+14,1227091531,473230,379869671,1287494462,9120,0,0,0,65535,3917
20220901T053505,2500,20500,RXTX,5,10,45005,1810,148926-07(272),0,640,-82,-9,-62,-,0,0,SRV/REGISTERED,NORMAL_SERVICE,CONNECTED,CS_PS,24.2,6,dfac4192,223.55.215.218,-88,4,4.50E+14,1227091531,475562,379869695,1287494547,9400,0,0,0,65535,4194
20220901T053508,2500,20500,RXTX,5,10,45005,1810,148926-07(272),0,640,-82,-9,-62,-,0,0,SRV/REGISTERED,NORMAL_SERVICE,CONNECTED,CS_PS,24.2,3,dfac4192,223.55.215.218,-88,4,4.50E+14,1227091531,477560,379869664,1287494494,9290,0,0,0,65535,4080
20220901T053510,2500,20500,RXTX,5,10,45005,1810,148926-07(272),0,640,-82,-9,-62,-,0,0,SRV/REGISTERED,NORMAL_SERVICE,CONNECTED,CS_PS,22.8,0,dfac4192,223.55.215.218,-88,4,4.50E+14,1227091531,479557,379869649,1287494487,9250,0,0,0,65535,4047
20220901T053512,2500,20500,RXTX,5,10,45005,1810,148926-07(272),0,640,-82,-9,-62,-,0,0,SRV/REGISTERED,NORMAL_SERVICE,CONNECTED,CS_PS,18.6,4,dfac4192,223.55.215.218,-88,4,4.50E+14,1227091531,481890,379869636,1287494502,9270,0,0,0,65535,4067
20220901T053514,2500,20500,RXTX,5,10,45005,1810,148926-07(272),0,640,-82,-9,-62,-,0,0,SRV/REGISTERED,NORMAL_SERVICE,CONNECTED,CS_PS,18.4,2,dfac4192,223.55.215.218,-88,4,4.50E+14,1227091531,483887,379869596,1287494494,8620,0,0,0,65535,3413
20220901T053516,2500,20500,RXTX,5,10,45005,1810,148926-07(272),0,640,-82,-9,-62,-,0,0,SRV/REGISTERED,NORMAL_SERVICE,CONNECTED,CS_PS,18.4,0,dfac4192,223.55.215.218,-88,4,4.50E+14,1227091531,486218,379869583,1287494430,7980,0,0,0,65535,2770
20220901T053518,2500,20500,RXTX,5,10,45005,1810,148926-07(272),0,640,-82,-9,-62,-,0,0,SRV/REGISTERED,NORMAL_SERVICE,CONNECTED,CS_PS,14.8,-1,dfac4192,223.55.215.218,-88,4,4.50E+14,1227091531,488215,379869582,1287494412,7020,0,0,0,65535,1818
20220901T053520,2500,20500,RXTX,5,10,45005,1810,148926-07(272),0,640,-88,-9,-62,-,0,0,SRV/REGISTERED,NORMAL_SERVICE,CONNECTED,CS_PS,17.6,11,dfac4192,223.55.215.218,-83,4,4.50E+14,1227091531,490547,379869582,1287494403,6120,0,0,0,65535,914
20220901T053523,2500,20500,RXTX,5,10,45005,1810,148926-07(272),0,640,-88,-9,-62,-,0,0,SRV/REGISTERED,NORMAL_SERVICE,CONNECTED,CS_PS,17.6,7,dfac4192,223.55.215.218,-88,4,4.50E+14,1227091531,492545,379869593,1287494405,5730,0,0,0,65535,523
20220901T053525,2500,20500,RXTX,5,10,45005,1810,148926-07(272),0,640,-88,-9,-56,-,0,0,SRV/REGISTERED,NORMAL_SERVICE,CONNECTED,CS_PS,21.2,7,dfac4192,223.55.215.218,-88,4,4.50E+14,1227091531,494875,379869590,1287494405,5510,0,0,0,65535,300
20220901T053527,2500,20500,RXTX,5,10,45005,1810,148926-07(272),0,640,-88,-9,-64,-,0,0,SRV/REGISTERED,NORMAL_SERVICE,CONNECTED,CS_PS,16.4,6,dfac4192,223.55.215.218,-88,4,4.50E+14,1227091531,496875,379869587,1287494409,5400,0,0,0,65535,194
20220901T053529,2500,20500,RXTX,5,10,45005,1810,148926-07(272),0,640,-88,-9,-64,-,0,0,SRV/REGISTERED,NORMAL_SERVICE,CONNECTED,CS_PS,22.6,7,dfac4192,223.55.215.218,-88,4,4.50E+14,1227091531,498872,379869588,1287494410,5220,0,0,0,65535,18
20220901T053531,2500,20500,RXTX,5,10,45005,1810,148926-07(272),0,640,-88,-9,-64,-,0,0,SRV/REGISTERED,NORMAL_SERVICE,CONNECTED,CS_PS,22.6,14,dfac4192,223.55.215.218,-88,4,4.50E+14,1227091531,501202,379869589,1287494414,5110,0,0,0,65535,-95
20220901T053533,2500,20500,RXTX,5,10,45005,1810,148926-07(272),0,640,-88,-9,-64,-,0,0,SRV/REGISTERED,NORMAL_SERVICE,CONNECTED,CS_PS,22.2,7,dfac4192,223.55.215.218,-88,4,4.50E+14,1227091531,503200,379869589,1287494415,5100,0,0,0,65535,-109
20220901T053535,2500,20500,RXTX,5,10,45005,1810,148926-07(272),0,640,-88,-9,-64,-,0,0,SRV/REGISTERED,NORMAL_SERVICE,CONNECTED,CS_PS,21.6,14,dfac4192,223.55.215.218,-88,4,4.50E+14,1227091531,505532,379869588,1287494418,5070,0,0,0,65535,-130
20220901T053538,2500,20500,RXTX,5,10,45005,1810,148926-07(272),0,640,-88,-9,-64,-,0,0,SRV/REGISTERED,NORMAL_SERVICE,CONNECTED,CS_PS,21.6,14,dfac4192,223.55.215.218,-88,4,4.50E+14,1227091531,507530,379869587,1287494419,5110,0,0,0,65535,-92
20220901T053540,2500,20500,RXTX,5,10,45005,1810,148926-07(272),0,640,-88,-9,-64,-,0,0,SRV/REGISTERED,NORMAL_SERVICE,CONNECTED,CS_PS,22.2,14,dfac4192,223.55.215.218,-88,4,4.50E+14,1227091531,509860,379869588,1287494420,5150,0,0,0,65535,-53
20220901T053542,2500,20500,RXTX,5,10,45005,1810,148926-07(272),0,640,-88,-9,-64,-,0,0,SRV/REGISTERED,NORMAL_SERVICE,CONNECTED,CS_PS,22.2,19,dfac4192,223.55.215.218,-88,4,4.50E+14,1227091531,511860,379869590,1287494422,5150,0,0,0,65535,-52
20220901T053544,2500,20500,RXTX,5,10,45005,1810,148926-07(272),0,640,-88,-9,-64,-,0,0,SRV/REGISTERED,NORMAL_SERVICE,CONNECTED,CS_PS,19.8,7,dfac4192,223.55.215.218,-88,4,4.50E+14,1227091531,513857,379869593,1287494427,5160,0,0,0,65535,-42
20220901T053546,2500,20500,RXTX,5,10,45005,1810,148926-07(272),0,640,-88,-9,-64,-,0,0,SRV/REGISTERED,NORMAL_SERVICE,CONNECTED,CS_PS,19.8,23,dfac4192,223.55.215.218,-88,4,4.50E+14,1227091531,516187,379869597,1287494428,5210,0,0,0,65535,1
20220901T053548,2500,20500,RXTX,5,10,45005,1810,148926-07(272),0,640,-88,-9,-64,-,0,0,SRV/REGISTERED,NORMAL_SERVICE,CONNECTED,CS_PS,21.2,14,dfac4192,223.55.215.218,-88,4,4.50E+14,1227091531,518185,379869601,1287494428,5260,0,0,0,65535,51
20220901T053550,2500,20500,RXTX,5,10,45005,1810,148926-07(272),0,640,-88,-9,-64,-,0,0,SRV/REGISTERED,NORMAL_SERVICE,CONNECTED,CS_PS,21,7,dfac4192,223.55.215.218,-88,4,4.50E+14,1227091531,520518,379869605,1287494429,5290,0,0,0,65535,88
20220901T053553,2500,20500,RXTX,5,10,45005,1810,148926-07(272),0,640,-88,-9,-64,-,0,0,SRV/REGISTERED,NORMAL_SERVICE,CONNECTED,CS_PS,21,8,dfac4192,223.55.215.218,-88,4,4.50E+14,1227091531,522515,379869607,1287494430,5330,0,0,0,65535,120
20220901T053555,2500,20500,RXTX,5,10,45005,1810,148926-07(272),0,640,-88,-9,-64,-,0,0,SRV/REGISTERED,NORMAL_SERVICE,CONNECTED,CS_PS,21.8,8,dfac4192,223.55.215.218,-88,4,4.50E+14,1227091531,524845,379869610,1287494431,5340,0,0,0,65535,139
20220901T053557,2500,20500,RXTX,5,10,45005,1810,148926-07(272),0,640,-88,-9,-64,-,0,0,SRV/REGISTERED,NORMAL_SERVICE,CONNECTED,CS_PS,20.8,7,dfac4192,223.55.215.218,-88,4,4.50E+14,1227091531,526845,379869612,1287494431,5320,0,0,0,65535,110
20220901T053559,2500,20500,RXTX,5,10,45005,1810,148926-07(272),0,640,-88,-9,-64,-,0,0,SRV/REGISTERED,NORMAL_SERVICE,CONNECTED,CS_PS,22.2,13,dfac4192,223.55.215.218,-88,4,4.50E+14,1227091531,529175,379869616,1287494432,5320,0,0,0,65535,114
20220901T053601,2500,20500,RXTX,5,10,45005,1810,148926-07(272),0,640,-88,-9,-64,-,0,0,SRV/REGISTERED,NORMAL_SERVICE,CONNECTED,CS_PS,22.2,7,dfac4192,223.55.215.218,-88,4,4.50E+14,1227091531,531172,379869619,1287494432,5310,0,0,0,65535,107
20220901T053603,2500,20500,RXTX,5,10,45005,1810,148926-07(272),0,640,-88,-9,-64,-,0,0,SRV/REGISTERED,NORMAL_SERVICE,CONNECTED,CS_PS,22,8,dfac4192,223.55.215.218,-88,4,4.50E+14,1227091531,533505,379869623,1287494432,5320,0,0,0,65535,113
20220901T053605,2500,20500,RXTX,5,10,45005,1810,148926-07(272),0,640,-88,-9,-64,-,0,0,SRV/REGISTERED,NORMAL_SERVICE,CONNECTED,CS_PS,11.8,8,dfac4192,223.55.215.218,-88,4,4.50E+14,1227091531,535503,379869627,1287494432,5370,0,0,0,65535,164
20220901T053608,2500,20500,RXTX,5,10,45005,1810,148926-07(272),0,640,-88,-9,-64,-,0,0,SRV/REGISTERED,NORMAL_SERVICE,CONNECTED,CS_PS,11.8,17,dfac4192,223.55.215.218,-88,4,4.50E+14,1227091531,537500,379869630,1287494431,5380,0,0,0,65535,179
20220901T053610,2500,20500,RXTX,5,10,45005,1810,148926-07(272),0,640,-88,-9,-64,-,0,0,SRV/REGISTERED,NORMAL_SERVICE,CONNECTED,CS_PS,21.2,14,dfac4192,223.55.215.218,-88,4,4.50E+14,1227091531,539830,379869636,1287494428,5380,0,0,0,65535,175
20220901T053612,2500,20500,RXTX,5,10,45005,1810,148926-07(272),0,640,-88,-9,-58,-,0,0,SRV/REGISTERED,NORMAL_SERVICE,CONNECTED,CS_PS,21.2,9,dfac4192,223.55.215.218,-88,4,4.50E+14,1227091531,541828,379869642,1287494423,5320,0,0,0,65535,119
20220901T053614,2500,20500,RXTX,5,10,45005,1810,148926-07(272),0,640,-88,-9,-58,-,0,0,SRV/REGISTERED,NORMAL_SERVICE,CONNECTED,CS_PS,22.2,7,dfac4192,223.55.215.218,-88,4,4.50E+14,1227091531,544160,379869648,1287494419,5300,0,0,0,65535,94
20220901T053616,2500,20500,RXTX,5,10,45005,1810,148926-07(272),0,640,-88,-9,-58,-,0,0,SRV/REGISTERED,NORMAL_SERVICE,CONNECTED,CS_PS,22.2,23,dfac4192,223.55.215.218,-88,4,4.50E+14,1227091531,546157,379869653,1287494413,5330,0,0,0,65535,128
20220901T053618,2500,20500,RXTX,5,10,45005,1810,148926-07(272),0,640,-88,-9,-58,-,0,0,SRV/REGISTERED,NORMAL_SERVICE,CONNECTED,CS_PS,19.2,9,dfac4192,223.55.215.218,-88,4,4.50E+14,1227091531,548155,379869660,1287494408,5370,0,0,0,65535,166
20220901T053620,2500,20500,RXTX,5,10,45005,1810,148926-07(272),0,640,-88,-9,-58,-,0,0,SRV/REGISTERED,NORMAL_SERVICE,CONNECTED,CS_PS,21,7,dfac4192,223.55.215.218,-88,4,4.50E+14,1227091531,549487,379869665,1287494404,5410,0,0,0,65535,203
20220901T053623,2500,20500,RXTX,5,10,45005,1810,148926-07(272),0,640,-88,-9,-58,-,0,0,SRV/REGISTERED,NORMAL_SERVICE,CONNECTED,CS_PS,21,8,dfac4192,223.55.215.218,-88,4,4.50E+14,1227091531,552415,379869675,1287494396,5410,0,0,0,65535,200
20220901T053625,2500,20500,RXTX,5,10,45005,1810,148926-07(272),0,640,-88,-9,-58,-,0,0,SRV/REGISTERED,NORMAL_SERVICE,CONNECTED,CS_PS,21.2,13,dfac4192,223.55.215.218,-88,4,4.50E+14,1227091531,553747,379869678,1287494395,5420,0,0,0,65535,213
20220901T053627,2500,20500,RXTX,5,10,45005,1810,148926-07(272),0,640,-88,-9,-58,-,0,0,SRV/REGISTERED,NORMAL_SERVICE,CONNECTED,CS_PS,22.2,8,dfac4192,223.55.215.218,-88,4,4.50E+14,1227091531,556410,379869684,1287494395,5420,0,0,0,65535,219
20220901T053629,2500,20500,RXTX,5,10,45005,1810,148926-07(272),0,640,-88,-9,-58,-,0,0,SRV/REGISTERED,NORMAL_SERVICE,CONNECTED,CS_PS,19,4,dfac4192,223.55.215.218,-88,4,4.50E+14,1227091531,559075,379869685,1287494398,5310,0,0,0,65535,100
20220901T053631,2500,20500,RXTX,5,10,45005,1810,148926-07(272),0,640,-88,-9,-58,-,0,0,SRV/REGISTERED,NORMAL_SERVICE,CONNECTED,CS_PS,19,14,dfac4192,223.55.215.218,-88,4,4.50E+14,1227091531,560408,379869688,1287494394,5280,0,0,0,65535,70
20220901T053633,2500,20500,RXTX,5,10,45005,1810,148926-07(272),0,640,-88,-9,-58,-,0,0,SRV/REGISTERED,NORMAL_SERVICE,CONNECTED,CS_PS,19.8,5,dfac4192,223.55.215.218,-88,4,4.50E+14,1227091531,563168,379869686,1287494392,5280,0,0,0,65535,76
20220901T053635,2500,20500,RXTX,5,10,45005,1810,148926-07(272),0,640,-88,-9,-58,-,0,0,SRV/REGISTERED,NORMAL_SERVICE,CONNECTED,CS_PS,20.2,16,dfac4192,223.55.215.218,-88,4,4.50E+14,1227091531,564500,379869681,1287494390,5300,0,0,0,65535,90
20220901T053638,2500,20500,RXTX,5,10,45005,1810,148926-07(272),0,640,-88,-9,-58,-,0,0,SRV/REGISTERED,NORMAL_SERVICE,CONNECTED,CS_PS,20.2,5,dfac4192,223.55.215.218,-88,4,4.50E+14,1227091531,567165,379869670,1287494390,5340,0,0,0,65535,131
20220901T053640,2500,20500,RXTX,5,10,45005,1810,148926-07(272),0,640,-88,-9,-58,-,0,0,SRV/REGISTERED,NORMAL_SERVICE,CONNECTED,CS_PS,20.6,7,dfac4192,223.55.215.218,-88,4,4.50E+14,1227091531,569828,379869660,1287494391,5400,0,0,0,65535,190
20220901T053642,2500,20500,RXTX,5,10,45005,1810,148926-07(272),0,640,-88,-9,-58,-,0,0,SRV/REGISTERED,NORMAL_SERVICE,CONNECTED,CS_PS,19.8,10,dfac4192,223.55.215.218,-88,4,4.50E+14,1227091531,571160,379869656,1287494391,5390,0,0,0,65535,187
20220901T053644,2500,20500,RXTX,5,10,45005,1810,148926-07(272),0,640,-88,-9,-58,-,0,0,SRV/REGISTERED,NORMAL_SERVICE,CONNECTED,CS_PS,20,15,dfac4192,223.55.215.218,-88,4,4.50E+14,1227091531,573825,379869646,1287494394,5320,0,0,0,65535,113
20220901T053646,2500,20500,RXTX,5,10,45005,1810,148926-07(272),0,640,-88,-9,-58,-,0,0,SRV/REGISTERED,NORMAL_SERVICE,CONNECTED,CS_PS,20,15,dfac4192,223.55.215.218,-88,4,4.50E+14,1227091531,575155,379869642,1287494397,5310,0,0,0,65535,106
