ct,frequency,band,bandwidth,cell_id,rsrp,rssi,rsrq,bler,tx_power,plmn,tac,drx,emm_state,rrc_state,net_op_mode,emm_cause,esm_cause,time_boot_ms,lat,lon,alt,relative_alt
20220831T050002,2600,5,10,149(0x95),-108,80,-10,0,0,450f06,24741,1280,REGISTERED,CONNECTED,CS_PS_MODE1,18,0,771789,377451757,1273503588,255800,-398
20220831T050004,2600,5,10,149(0x95),-108,80,-10,0,22,450f06,24741,1280,REGISTERED,CONNECTED,CS_PS_MODE1,18,0,773787,377451754,1273503587,255760,-438
20220831T050006,2600,5,10,149(0x95),-108,80,-10,0,23,450f06,24741,1280,REGISTERED,CONNECTED,CS_PS_MODE1,18,0,775784,377451754,1273503587,255760,-437
20220831T050008,2600,5,10,149(0x95),-108,80,-10,0,20,450f06,24741,1280,REGISTERED,CONNECTED,CS_PS_MODE1,18,0,777784,377451754,1273503586,255740,-451
20220831T050011,2600,5,10,149(0x95),-108,80,-10,0,23,450f06,24741,1280,REGISTERED,CONNECTED,CS_PS_MODE1,18,0,780779,377451753,1273503586,255720,-479
20220831T050013,2600,5,10,149(0x95),-108,80,-10,0,23,450f06,24741,1280,REGISTERED,CONNECTED,CS_PS_MODE1,18,0,782779,377451750,1273503591,255710,-481
20220831T050015,2600,5,10,149(0x95),-108,80,-10,0,23,450f06,24741,1280,REGISTERED,CONNECTED,CS_PS_MODE1,18,0,784776,377451750,1273503592,255740,-450
20220831T050017,2600,5,10,149(0x95),-108,80,-10,0,23,450f06,24741,1280,REGISTERED,CONNECTED,CS_PS_MODE1,18,0,786774,377451751,1273503593,255750,-441
20220831T050019,2600,5,10,149(0x95),-108,80,-10,0,23,450f06,24741,1280,REGISTERED,CONNECTED,CS_PS_MODE1,18,0,788772,377451751,1273503593,255690,-506
20220831T050021,2600,5,10,149(0x95),-108,80,-10,0,23,450f06,24741,1280,REGISTERED,CONNECTED,CS_PS_MODE1,18,0,790769,377451751,1273503592,255700,-490
20220831T050024,2600,5,10,149(0x95),-108,80,-10,0,23,450f06,24741,1280,REGISTERED,CONNECTED,CS_PS_MODE1,18,0,794099,377451759,1273503587,255700,-492
20220831T050026,2600,5,10,149(0x95),-108,87,-10,0,23,450f06,24741,1280,REGISTERED,CONNECTED,CS_PS_MODE1,18,0,796097,377451765,1273503582,255700,-493
20220831T050028,2600,5,10,149(0x95),-108,87,-10,0,23,450f06,24741,1280,REGISTERED,CONNECTED,CS_PS_MODE1,18,0,798097,377451767,1273503580,255710,-483
20220831T050030,2600,5,10,149(0x95),-108,87,-10,0,23,450f06,24741,1280,REGISTERED,CONNECTED,CS_PS_MODE1,18,0,800094,377451769,1273503578,255690,-509
20220831T050032,2600,5,10,149(0x95),-108,87,-10,0,23,450f06,24741,1280,REGISTERED,CONNECTED,CS_PS_MODE1,18,0,802092,377451772,1273503576,255680,-514
20220831T050207,2600,5,10,149(0x95),-112,82,-11,0,0,450f06,24741,1280,REGISTERED,CONNECTED,CS_PS_MODE1,18,0,896997,377452003,1273503380,255560,-638
20220831T050209,2600,5,10,149(0x95),-112,88,-11,0,23,450f06,24741,1280,REGISTERED,CONNECTED,CS_PS_MODE1,18,0,898994,377452003,1273503380,255560,-637
20220831T050211,2600,5,10,149(0x95),-112,88,-11,0,23,450f06,24741,1280,REGISTERED,CONNECTED,CS_PS_MODE1,18,0,900992,377452004,1273503381,255580,-610
20220831T050213,2600,5,10,149(0x95),-112,88,-11,0,23,450f06,24741,1280,REGISTERED,CONNECTED,CS_PS_MODE1,18,0,902992,377452002,1273503386,255580,-615
20220831T050215,2600,5,10,149(0x95),-112,88,-11,0,23,450f06,24741,1280,REGISTERED,CONNECTED,CS_PS_MODE1,18,0,904989,377451999,1273503393,255610,-587
20220831T050217,2600,5,10,149(0x95),-112,88,-11,0,22,450f06,24741,1280,REGISTERED,CONNECTED,CS_PS_MODE1,18,0,906987,377451994,1273503401,255620,-579
20220831T050219,2600,5,10,149(0x95),-112,88,-11,0,23,450f06,24741,1280,REGISTERED,CONNECTED,CS_PS_MODE1,18,0,908984,377451988,1273503406,255600,-592
20220831T050221,2600,5,10,149(0x95),-112,88,-11,0,23,450f06,24741,1280,REGISTERED,CONNECTED,CS_PS_MODE1,18,0,910984,377451977,1273503413,255610,-586
20220831T050225,2600,5,10,149(0x95),-112,88,-11,0,23,450f06,24741,1280,REGISTERED,CONNECTED,CS_PS_MODE1,18,0,915312,377451958,1273503426,255600,-596
20220831T050229,2600,5,10,149(0x95),-112,88,-11,0,23,450f06,24741,1280,REGISTERED,CONNECTED,CS_PS_MODE1,18,0,919309,377451937,1273503440,255590,-603
20220831T050229,2600,5,10,149(0x95),-112,88,-11,0,23,450f06,24741,1280,REGISTERED,CONNECTED,CS_PS_MODE1,18,0,919309,377451937,1273503440,255590,-603
20220831T050230,2600,5,10,149(0x95),-112,88,-11,0,23,450f06,24741,1280,REGISTERED,CONNECTED,CS_PS_MODE1,18,0,919642,377451935,1273503440,255590,-603
20220831T050232,2600,5,10,149(0x95),-112,88,-11,0,22,450f06,24741,1280,REGISTERED,CONNECTED,CS_PS_MODE1,18,0,921639,377451927,1273503445,255600,-597
20220831T050234,2600,5,10,149(0x95),-112,88,-11,0,23,450f06,24741,1280,REGISTERED,CONNECTED,CS_PS_MODE1,18,0,923637,377451916,1273503450,255600,-595
20220831T050236,2600,5,10,149(0x95),-112,88,-11,0,23,450f06,24741,1280,REGISTERED,CONNECTED,CS_PS_MODE1,18,0,925634,377451908,1273503454,255620,-577
20220831T050238,2600,5,10,149(0x95),-112,88,-11,0,0,450f06,24741,1280,REGISTERED,CONNECTED,CS_PS_MODE1,18,0,927634,377451900,1273503459,255640,-559
20220831T050240,2600,5,10,149(0x95),-112,88,-11,0,23,450f06,24741,1280,REGISTERED,CONNECTED,CS_PS_MODE1,18,0,929631,377451892,1273503466,255650,-540
20220831T050243,2600,5,10,149(0x95),-112,88,-11,0,23,450f06,24741,1280,REGISTERED,CONNECTED,CS_PS_MODE1,18,0,933294,377451885,1273503480,255680,-513
20220831T050245,2600,5,10,149(0x95),-112,88,-11,0,23,450f06,24741,1280,REGISTERED,CONNECTED,CS_PS_MODE1,18,0,935292,377451881,1273503486,255660,-530
20220831T050247,2600,5,10,149(0x95),-112,88,-11,0,23,450f06,24741,1280,REGISTERED,CONNECTED,CS_PS_MODE1,18,0,937289,377451878,1273503490,255710,-485
20220831T050249,2600,5,10,149(0x95),-112,88,-11,0,23,450f06,24741,1280,REGISTERED,CONNECTED,CS_PS_MODE1,18,0,939287,377451875,1273503496,255700,-491
20220831T050251,2600,5,10,149(0x95),-112,88,-11,0,23,450f06,24741,1280,REGISTERED,CONNECTED,CS_PS_MODE1,18,0,941287,377451872,1273503502,255730,-469
20220831T050253,2600,5,10,149(0x95),-112,88,-11,0,23,450f06,24741,1280,REGISTERED,CONNECTED,CS_PS_MODE1,18,0,943284,377451869,1273503505,255730,-460
20220831T050255,2600,5,10,149(0x95),-112,88,-11,0,22,450f06,24741,1280,REGISTERED,CONNECTED,CS_PS_MODE1,18,0,945281,377451865,1273503510,255730,-465
20220831T050258,2600,5,10,149(0x95),-112,88,-11,0,23,450f06,24741,1280,REGISTERED,CONNECTED,CS_PS_MODE1,18,0,947612,377451861,1273503511,255730,-467
20220831T050300,2600,5,10,149(0x95),-112,88,-11,0,23,450f06,24741,1280,REGISTERED,CONNECTED,CS_PS_MODE1,18,0,949612,377451856,1273503513,255740,-457
20220831T050302,2600,5,10,149(0x95),-112,88,-11,0,23,450f06,24741,1280,REGISTERED,CONNECTED,CS_PS_MODE1,18,0,951609,377451850,1273503515,255710,-486
20220831T050304,2600,5,10,149(0x95),-112,88,-11,0,23,450f06,24741,1280,REGISTERED,CONNECTED,CS_PS_MODE1,18,0,953606,377451846,1273503520,255760,-436
20220831T050306,2600,5,10,149(0x95),-112,88,-11,0,23,450f06,24741,1280,REGISTERED,CONNECTED,CS_PS_MODE1,18,0,955604,377451845,1273503523,255750,-443
20220831T050308,2600,5,10,149(0x95),-112,88,-11,0,23,450f06,24741,1280,REGISTERED,CONNECTED,CS_PS_MODE1,18,0,957604,377451845,1273503528,255740,-457
20220831T050310,2600,5,10,149(0x95),-112,88,-11,0,23,450f06,24741,1280,REGISTERED,CONNECTED,CS_PS_MODE1,18,0,959601,377451845,1273503533,255760,-432
20220831T050313,2600,5,10,149(0x95),-112,88,-11,0,23,450f06,24741,1280,REGISTERED,CONNECTED,CS_PS_MODE1,18,0,962597,377451845,1273503537,255850,-348
20220831T050315,2600,5,10,149(0x95),-112,88,-11,0,23,450f06,24741,1280,REGISTERED,CONNECTED,CS_PS_MODE1,18,0,964597,377451845,1273503539,255820,-375
20220831T050317,2600,5,10,149(0x95),-112,88,-11,0,23,450f06,24741,1280,REGISTERED,CONNECTED,CS_PS_MODE1,18,0,966594,377451844,1273503542,255780,-416
20220831T050319,2600,5,10,149(0x95),-112,88,-11,0,23,450f06,24741,1280,REGISTERED,CONNECTED,CS_PS_MODE1,18,0,968592,377451841,1273503545,255800,-398
20220831T050321,2600,5,10,149(0x95),-112,88,-11,0,23,450f06,24741,1280,REGISTERED,CONNECTED,CS_PS_MODE1,18,0,970589,377451838,1273503552,255760,-433
20220831T050323,2600,5,10,149(0x95),-112,82,-11,0,23,450f06,24741,1280,REGISTERED,CONNECTED,CS_PS_MODE1,18,0,972587,377451837,1273503556,255790,-408
20220831T050325,2600,5,10,149(0x95),-106,82,-11,0,23,450f06,24741,1280,REGISTERED,CONNECTED,CS_PS_MODE1,18,0,974587,377451834,1273503562,255780,-419
20220831T050327,2600,5,10,149(0x95),-106,82,-11,0,23,450f06,24741,1280,REGISTERED,CONNECTED,CS_PS_MODE1,18,0,976584,377451830,1273503565,255790,-403
20220831T050330,2600,5,10,149(0x95),-106,82,-11,0,23,450f06,24741,1280,REGISTERED,CONNECTED,CS_PS_MODE1,18,0,979581,377451825,1273503569,255830,-364
20220831T050332,2600,5,10,149(0x95),-106,82,-11,0,23,450f06,24741,1280,REGISTERED,CONNECTED,CS_PS_MODE1,18,0,981579,377451822,1273503570,255830,-368
20220831T050334,2600,5,10,149(0x95),-106,82,-11,0,23,450f06,24741,1280,REGISTERED,CONNECTED,CS_PS_MODE1,18,0,983576,377451819,1273503571,255840,-353
20220831T050336,2600,5,10,149(0x95),-106,82,-11,0,23,450f06,24741,1280,REGISTERED,CONNECTED,CS_PS_MODE1,18,0,985909,377451815,1273503570,255840,-351
20220831T050338,2600,5,10,149(0x95),-106,76,-11,0,23,450f06,24741,1280,REGISTERED,CONNECTED,CS_PS_MODE1,18,0,987906,377451813,1273503570,255820,-370
20220831T050340,2600,5,10,149(0x95),-106,76,-11,0,23,450f06,24741,1280,REGISTERED,CONNECTED,CS_PS_MODE1,18,0,989904,377451814,1273503568,255830,-365
20220831T050342,2600,5,10,149(0x95),-106,76,-11,0,23,450f06,24741,1280,REGISTERED,CONNECTED,CS_PS_MODE1,18,0,991901,377451815,1273503564,255840,-354
20220831T050344,2600,5,10,149(0x95),-106,76,-11,0,23,450f06,24741,1280,REGISTERED,CONNECTED,CS_PS_MODE1,18,0,993899,377451818,1273503558,255820,-371
20220831T050347,2600,5,10,149(0x95),-106,84,-11,0,22,450f06,24741,1280,REGISTERED,CONNECTED,CS_PS_MODE1,18,0,996564,377451822,1273503550,255800,-393
20220831T050349,2600,5,10,149(0x95),-106,84,-11,0,23,450f06,24741,1280,REGISTERED,CONNECTED,CS_PS_MODE1,18,0,998562,377451827,1273503542,255770,-429
20220831T050351,2600,5,10,149(0x95),-101,77,-11,0,23,450f06,24741,1280,REGISTERED,CONNECTED,CS_PS_MODE1,18,0,1000559,377451833,1273503536,255790,-406
20220831T050353,2600,5,10,149(0x95),-101,77,-11,0,23,450f06,24741,1280,REGISTERED,CONNECTED,CS_PS_MODE1,18,0,1002559,377451837,1273503531,255760,-431
20220831T050355,2600,5,10,149(0x95),-107,77,-11,0,23,450f06,24741,1280,REGISTERED,CONNECTED,CS_PS_MODE1,18,0,1004556,377451843,1273503523,255760,-438
20220831T050357,2600,5,10,149(0x95),-107,77,-11,0,23,450f06,24741,1280,REGISTERED,CONNECTED,CS_PS_MODE1,18,0,1006554,377451842,1273503520,255830,-369
20220831T050359,2600,5,10,149(0x95),-107,83,-11,0,23,450f06,24741,1280,REGISTERED,CONNECTED,CS_PS_MODE1,18,0,1008551,377451839,1273503519,255800,-395
20220831T050401,2600,5,10,149(0x95),-107,83,-11,0,23,450f06,24741,1280,REGISTERED,CONNECTED,CS_PS_MODE1,18,0,1010549,377451832,1273503519,255840,-350
20220831T050404,2600,5,10,149(0x95),-107,83,-11,0,23,450f06,24741,1280,REGISTERED,CONNECTED,CS_PS_MODE1,18,0,1013879,377451826,1273503520,255860,-335
20220831T050406,2600,5,10,149(0x95),-107,83,-11,0,23,450f06,24741,1280,REGISTERED,CONNECTED,CS_PS_MODE1,18,0,1015879,377451822,1273503521,255840,-355
20220831T050408,2600,5,10,149(0x95),-107,83,-11,0,23,450f06,24741,1280,REGISTERED,CONNECTED,CS_PS_MODE1,18,0,1018209,377451818,1273503526,255820,-378
20220831T050410,2600,5,10,149(0x95),-107,83,-11,0,23,450f06,24741,1280,REGISTERED,CONNECTED,CS_PS_MODE1,18,0,1020206,377451814,1273503528,255850,-341
20220831T050412,2600,5,10,149(0x95),-107,83,-11,0,23,450f06,24741,1280,REGISTERED,CONNECTED,CS_PS_MODE1,18,0,1022204,377451811,1273503532,255810,-381
20220831T050414,2600,5,10,149(0x95),-107,83,-11,0,23,450f06,24741,1280,REGISTERED,CONNECTED,CS_PS_MODE1,18,0,1024202,377451813,1273503535,255810,-388
20220831T050416,2600,5,10,149(0x95),-107,83,-11,0,22,450f06,24741,1280,REGISTERED,CONNECTED,CS_PS_MODE1,18,0,1026202,377451811,1273503542,255830,-363
20220831T050419,2600,5,10,149(0x95),-107,83,-11,0,23,450f06,24741,1280,REGISTERED,CONNECTED,CS_PS_MODE1,18,0,1028864,377451804,1273503549,255830,-363
20220831T050421,2600,5,10,149(0x95),-107,83,-11,0,23,450f06,24741,1280,REGISTERED,CONNECTED,CS_PS_MODE1,18,0,1030862,377451801,1273503552,255820,-370
20220831T050423,2600,5,10,149(0x95),-107,83,-11,0,23,450f06,24741,1280,REGISTERED,CONNECTED,CS_PS_MODE1,18,0,1032862,377451796,1273503559,255810,-382
20220831T050425,2600,5,10,149(0x95),-107,83,-11,0,23,450f06,24741,1280,REGISTERED,CONNECTED,CS_PS_MODE1,18,0,1034859,377451790,1273503565,255830,-366
20220831T050427,2600,5,10,149(0x95),-107,83,-11,0,23,450f06,24741,1280,REGISTERED,CONNECTED,CS_PS_MODE1,18,0,1036856,377451785,1273503572,255810,-388
20220831T050429,2600,5,10,149(0x95),-107,83,-11,0,23,450f06,24741,1280,REGISTERED,CONNECTED,CS_PS_MODE1,18,0,1038854,377451774,1273503581,255800,-392
20220831T050431,2600,5,10,149(0x95),-107,83,-11,0,23,450f06,24741,1280,REGISTERED,CONNECTED,CS_PS_MODE1,18,0,1040852,377451764,1273503590,255810,-383
20220831T050433,2600,5,10,149(0x95),-107,83,-11,0,23,450f06,24741,1280,REGISTERED,CONNECTED,CS_PS_MODE1,18,0,1042852,377451753,1273503600,255810,-389
20220831T050436,2600,5,10,149(0x95),-107,83,-11,0,23,450f06,24741,1280,REGISTERED,CONNECTED,CS_PS_MODE1,18,0,1046181,377451732,1273503616,255810,-381
20220831T050438,2600,5,10,149(0x95),-107,83,-11,0,23,450f06,24741,1280,REGISTERED,CONNECTED,CS_PS_MODE1,18,0,1048179,377451722,1273503623,255760,-432
20220831T050440,2600,5,10,149(0x95),-107,83,-11,0,23,450f06,24741,1280,REGISTERED,CONNECTED,CS_PS_MODE1,18,0,1050509,377451713,1273503632,255780,-419
20220831T050442,2600,5,10,149(0x95),-107,83,-11,0,23,450f06,24741,1280,REGISTERED,CONNECTED,CS_PS_MODE1,18,0,1052509,377451704,1273503638,255830,-364
20220831T050444,2600,5,10,149(0x95),-107,83,-11,0,23,450f06,24741,1280,REGISTERED,CONNECTED,CS_PS_MODE1,18,0,1054506,377451698,1273503641,255850,-347
20220831T050446,2600,5,10,149(0x95),-107,77,-11,0,23,450f06,24741,1280,REGISTERED,CONNECTED,CS_PS_MODE1,18,0,1056504,377451696,1273503643,255860,-332
20220831T050448,2600,5,10,149(0x95),-107,77,-11,0,23,450f06,24741,1280,REGISTERED,CONNECTED,CS_PS_MODE1,18,0,1058502,377451688,1273503648,255790,-402
20220831T050451,2600,5,10,149(0x95),-112,87,-11,0,23,450f06,24741,1280,REGISTERED,CONNECTED,CS_PS_MODE1,18,0,1060834,377451683,1273503652,255800,-394
20220831T050453,2600,5,10,149(0x95),-112,87,-11,0,23,450f06,24741,1280,REGISTERED,CONNECTED,CS_PS_MODE1,18,0,1062831,377451680,1273503655,255800,-398
20220831T050455,2600,5,10,149(0x95),-112,87,-11,0,23,450f06,24741,1280,REGISTERED,CONNECTED,CS_PS_MODE1,18,0,1064829,377451679,1273503657,255810,-386
20220831T050459,2600,5,10,149(0x95),-106,87,-11,0,23,450f06,24741,1280,REGISTERED,CONNECTED,CS_PS_MODE1,18,0,1068744,377451681,1273503659,255770,-426
20220831T050501,2600,5,10,149(0x95),-106,87,-11,0,23,450f06,24741,1280,REGISTERED,CONNECTED,CS_PS_MODE1,18,0,1071409,377451683,1273503663,255790,-408
20220831T050503,2600,5,10,149(0x95),-106,87,-11,0,23,450f06,24741,1280,REGISTERED,CONNECTED,CS_PS_MODE1,18,0,1072739,377451682,1273503664,255840,-356
20220831T050505,2600,5,10,149(0x95),-106,87,-11,0,23,450f06,24741,1280,REGISTERED,CONNECTED,CS_PS_MODE1,18,0,1075404,377451681,1273503663,255850,-345
20220831T050508,2600,5,10,149(0x95),-106,77,-11,0,23,450f06,24741,1280,REGISTERED,CONNECTED,CS_PS_MODE1,18,0,1078069,377451678,1273503664,255820,-377
20220831T050512,2600,5,10,149(0x95),-106,83,-11,0,23,450f06,24741,1280,REGISTERED,CONNECTED,CS_PS_MODE1,18,0,1082064,377451666,1273503663,255800,-395
20220831T050516,2600,5,10,149(0x95),-106,83,-11,0,23,450f06,24741,1280,REGISTERED,CONNECTED,CS_PS_MODE1,18,0,1086459,377451654,1273503659,255790,-400
20220831T050518,2600,5,10,149(0x95),-106,83,-11,0,22,450f06,24741,1280,REGISTERED,CONNECTED,CS_PS_MODE1,18,0,1088391,377451650,1273503658,255760,-437
20220831T050520,2600,5,10,149(0x95),-111,83,-11,0,23,450f06,24741,1280,REGISTERED,CONNECTED,CS_PS_MODE1,18,0,1089722,377451649,1273503657,255790,-402
20220831T050523,2600,5,10,149(0x95),-111,83,-11,0,23,450f06,24741,1280,REGISTERED,CONNECTED,CS_PS_MODE1,18,0,1092719,377451651,1273503652,255800,-397
20220831T050525,2600,5,10,149(0x95),-111,83,-11,0,22,450f06,24741,1280,REGISTERED,CONNECTED,CS_PS_MODE1,18,0,1094719,377451656,1273503650,255810,-380
20220831T050527,2600,5,10,149(0x95),-111,83,-11,0,23,450f06,24741,1280,REGISTERED,CONNECTED,CS_PS_MODE1,18,0,1096716,377451661,1273503646,255860,-336
20220831T050529,2600,5,10,149(0x95),-111,83,-11,0,23,450f06,24741,1280,REGISTERED,CONNECTED,CS_PS_MODE1,18,0,1098714,377451664,1273503644,255800,-392
20220831T050531,2600,5,10,149(0x95),-111,83,-11,0,23,450f06,24741,1280,REGISTERED,CONNECTED,CS_PS_MODE1,18,0,1100712,377451666,1273503644,255830,-365
20220831T050533,2600,5,10,149(0x95),-111,83,-11,0,22,450f06,24741,1280,REGISTERED,CONNECTED,CS_PS_MODE1,18,0,1102709,377451670,1273503644,255850,-347
20220831T050535,2600,5,10,149(0x95),-111,83,-11,0,22,450f06,24741,1280,REGISTERED,CONNECTED,CS_PS_MODE1,18,0,1104709,377451674,1273503646,255840,-358
20220831T050537,2600,5,10,149(0x95),-111,83,-11,0,23,450f06,24741,1280,REGISTERED,CONNECTED,CS_PS_MODE1,18,0,1106706,377451679,1273503646,255820,-371
20220831T050540,2600,5,10,149(0x95),-111,83,-11,0,23,450f06,24741,1280,REGISTERED,CONNECTED,CS_PS_MODE1,18,0,1109702,377451691,1273503645,255800,-394
20220831T050542,2600,5,10,149(0x95),-111,83,-11,0,18,450f06,24741,1280,REGISTERED,CONNECTED,CS_PS_MODE1,18,0,1111702,377451698,1273503643,255740,-455
20220831T050544,2600,5,10,149(0x95),-111,83,-11,0,23,450f06,24741,1280,REGISTERED,CONNECTED,CS_PS_MODE1,18,0,1113702,377451708,1273503640,255720,-478
20220831T050546,2600,5,10,149(0x95),-111,83,-11,0,23,450f06,24741,1280,REGISTERED,CONNECTED,CS_PS_MODE1,18,0,1115702,377451718,1273503635,255770,-424
20220831T050548,2600,5,10,149(0x95),-111,83,-11,0,23,450f06,24741,1280,REGISTERED,CONNECTED,CS_PS_MODE1,18,0,1117694,377451726,1273503630,255790,-402
20220831T050550,2600,5,10,149(0x95),-111,83,-11,0,23,450f06,24741,1280,REGISTERED,CONNECTED,CS_PS_MODE1,18,0,1119694,377451735,1273503627,255840,-355
20220831T050552,2600,5,10,149(0x95),-111,83,-11,0,23,450f06,24741,1280,REGISTERED,CONNECTED,CS_PS_MODE1,18,0,1121690,377451743,1273503623,255820,-372
20220831T050554,2600,5,10,149(0x95),-111,83,-11,0,23,450f06,24741,1280,REGISTERED,CONNECTED,CS_PS_MODE1,18,0,1123690,377451746,1273503622,255780,-410
20220831T050557,2600,5,10,149(0x95),-111,83,-11,0,23,450f06,24741,1280,REGISTERED,CONNECTED,CS_PS_MODE1,18,0,1126687,377451752,1273503620,255770,-421
20220831T050559,2600,5,10,149(0x95),-111,83,-11,0,23,450f06,24741,1280,REGISTERED,CONNECTED,CS_PS_MODE1,18,0,1128684,377451753,1273503619,255790,-402
20220831T050601,2600,5,10,149(0x95),-111,83,-11,0,23,450f06,24741,1280,REGISTERED,CONNECTED,CS_PS_MODE1,18,0,1130681,377451754,1273503618,255810,-389
20220831T050603,2600,5,10,149(0x95),-111,83,-11,0,23,450f06,24741,1280,REGISTERED,CONNECTED,CS_PS_MODE1,18,0,1132679,377451752,1273503617,255800,-398
20220831T050605,2600,5,10,149(0x95),-111,83,-11,0,23,450f06,24741,1280,REGISTERED,CONNECTED,CS_PS_MODE1,18,0,1134677,377451751,1273503617,255790,-407
20220831T050607,2600,5,10,149(0x95),-111,83,-11,0,23,450f06,24741,1280,REGISTERED,CONNECTED,CS_PS_MODE1,18,0,1136675,377451751,1273503617,255820,-375
20220831T050609,2600,5,10,149(0x95),-111,83,-11,0,23,450f06,24741,1280,REGISTERED,CONNECTED,CS_PS_MODE1,18,0,1138675,377451750,1273503619,255850,-342
20220831T050612,2600,5,10,149(0x95),-111,83,-11,0,23,450f06,24741,1280,REGISTERED,CONNECTED,CS_PS_MODE1,18,0,1141672,377451748,1273503620,255890,-300
20220831T050614,2600,5,10,149(0x95),-111,83,-11,0,23,450f06,24741,1280,REGISTERED,CONNECTED,CS_PS_MODE1,18,0,1143669,377451746,1273503623,255900,-294
20220831T050616,2600,5,10,149(0x95),-111,83,-11,0,23,450f06,24741,1280,REGISTERED,CONNECTED,CS_PS_MODE1,18,0,1145666,377451745,1273503624,255860,-332
20220831T050618,2600,5,10,149(0x95),-111,83,-11,0,23,450f06,24741,1280,REGISTERED,CONNECTED,CS_PS_MODE1,18,0,1147664,377451745,1273503626,255780,-410
20220831T050620,2600,5,10,149(0x95),-111,83,-11,0,23,450f06,24741,1280,REGISTERED,CONNECTED,CS_PS_MODE1,18,0,1149662,377451746,1273503626,255800,-393
20220831T050622,2600,5,10,149(0x95),-111,83,-11,0,23,450f06,24741,1280,REGISTERED,CONNECTED,CS_PS_MODE1,18,0,1151662,377451748,1273503625,255820,-370
20220831T050624,2600,5,10,149(0x95),-111,83,-11,0,0,450f06,24741,1280,REGISTERED,CONNECTED,CS_PS_MODE1,18,0,1153659,377451748,1273503625,255780,-413
20220831T050626,2600,5,10,149(0x95),-111,83,-11,0,23,450f06,24741,1280,REGISTERED,CONNECTED,CS_PS_MODE1,18,0,1155656,377451753,1273503624,255750,-446
20220831T050629,2600,5,10,149(0x95),-111,83,-11,0,23,450f06,24741,1280,REGISTERED,CONNECTED,CS_PS_MODE1,18,0,1158987,377451757,1273503619,255780,-413
20220831T050631,2600,5,10,149(0x95),-111,83,-11,0,23,450f06,24741,1280,REGISTERED,CONNECTED,CS_PS_MODE1,18,0,1160984,377451759,1273503616,255850,-346
20220831T050633,2600,5,10,149(0x95),-111,83,-11,0,23,450f06,24741,1280,REGISTERED,CONNECTED,CS_PS_MODE1,18,0,1162984,377451759,1273503614,255860,-334
20220831T050635,2600,5,10,149(0x95),-111,83,-11,0,21,450f06,24741,1280,REGISTERED,CONNECTED,CS_PS_MODE1,18,0,1164981,377451759,1273503611,255870,-324
20220831T050637,2600,5,10,149(0x95),-111,89,-11,0,22,450f06,24741,1280,REGISTERED,CONNECTED,CS_PS_MODE1,18,0,1166979,377451758,1273503611,255870,-322
20220831T050639,2600,5,10,149(0x95),-111,89,-11,0,23,450f06,24741,1280,REGISTERED,CONNECTED,CS_PS_MODE1,18,0,1168977,377451757,1273503610,255870,-328
20220831T050641,2600,5,10,149(0x95),-111,89,-11,0,23,450f06,24741,1280,REGISTERED,CONNECTED,CS_PS_MODE1,18,0,1170974,377451756,1273503610,255880,-316
20220831T050643,2600,5,10,149(0x95),-111,89,-11,0,23,450f06,24741,1280,REGISTERED,CONNECTED,CS_PS_MODE1,18,0,1172972,377451754,1273503611,255810,-389
20220831T050646,2600,5,10,149(0x95),-111,89,-11,0,23,450f06,24741,1280,REGISTERED,CONNECTED,CS_PS_MODE1,18,0,1175637,377451749,1273503613,255880,-318
20220831T050648,2600,5,10,149(0x95),-111,82,-11,0,22,450f06,24741,1280,REGISTERED,CONNECTED,CS_PS_MODE1,18,0,1177969,377451747,1273503613,255860,-330
20220831T050650,2600,5,10,149(0x95),-111,82,-11,0,22,450f06,24741,1280,REGISTERED,CONNECTED,CS_PS_MODE1,18,0,1179634,377451748,1273503614,255860,-337
20220831T050652,2600,5,10,149(0x95),-111,82,-11,0,23,450f06,24741,1280,REGISTERED,CONNECTED,CS_PS_MODE1,18,0,1181631,377451751,1273503614,255840,-359
20220831T050654,2600,5,10,149(0x95),-111,82,-11,0,23,450f06,24741,1280,REGISTERED,CONNECTED,CS_PS_MODE1,18,0,1183629,377451752,1273503612,255820,-377
20220831T050656,2600,5,10,149(0x95),-111,82,-11,0,22,450f06,24741,1280,REGISTERED,CONNECTED,CS_PS_MODE1,18,0,1185627,377451755,1273503609,255820,-373
20220831T050658,2600,5,10,149(0x95),-111,82,-11,0,23,450f06,24741,1280,REGISTERED,CONNECTED,CS_PS_MODE1,18,0,1187624,377451760,1273503605,255810,-381
20220831T050701,2600,5,10,149(0x95),-111,82,-11,0,23,450f06,24741,1280,REGISTERED,CONNECTED,CS_PS_MODE1,18,0,1191287,377451763,1273503601,255800,-392
20220831T050703,2600,5,10,149(0x95),-111,82,-11,0,23,450f06,24741,1280,REGISTERED,CONNECTED,CS_PS_MODE1,18,0,1193287,377451764,1273503600,255820,-373
20220831T050705,2600,5,10,149(0x95),-111,82,-11,0,23,450f06,24741,1280,REGISTERED,CONNECTED,CS_PS_MODE1,18,0,1195284,377451766,1273503600,255790,-407
20220831T050707,2600,5,10,149(0x95),-111,82,-11,0,23,450f06,24741,1280,REGISTERED,CONNECTED,CS_PS_MODE1,18,0,1197281,377451766,1273503604,255760,-433
20220831T050709,2600,5,10,149(0x95),-111,82,-11,0,23,450f06,24741,1280,REGISTERED,CONNECTED,CS_PS_MODE1,18,0,1198614,377451766,1273503605,255790,-403
20220831T050711,2600,5,10,149(0x95),-111,82,-11,0,22,450f06,24741,1280,REGISTERED,CONNECTED,CS_PS_MODE1,18,0,1201277,377451774,1273503610,255850,-348
20220831T050713,2600,5,10,149(0x95),-111,82,-11,0,23,450f06,24741,1280,REGISTERED,CONNECTED,CS_PS_MODE1,18,0,1203277,377451776,1273503612,255850,-341
20220831T050715,2600,5,10,149(0x95),-111,82,-11,0,22,450f06,24741,1280,REGISTERED,CONNECTED,CS_PS_MODE1,18,0,1205275,377451784,1273503612,255850,-345
20220831T050718,2600,5,10,149(0x95),-111,82,-11,0,23,450f06,24741,1280,REGISTERED,CONNECTED,CS_PS_MODE1,18,0,1207604,377451789,1273503612,255800,-393
20220831T050720,2600,5,10,149(0x95),-111,88,-11,0,22,450f06,24741,1280,REGISTERED,CONNECTED,CS_PS_MODE1,18,0,1209602,377451798,1273503610,255820,-379
20220831T050722,2600,5,10,149(0x95),-111,82,-11,0,22,450f06,24741,1280,REGISTERED,CONNECTED,CS_PS_MODE1,18,0,1211602,377451805,1273503605,255830,-369
20220831T050724,2600,5,10,149(0x95),-111,82,-11,0,23,450f06,24741,1280,REGISTERED,CONNECTED,CS_PS_MODE1,18,0,1213599,377451813,1273503601,255790,-405
20220831T050726,2600,5,10,149(0x95),-111,89,-11,0,23,450f06,24741,1280,REGISTERED,CONNECTED,CS_PS_MODE1,18,0,1215597,377451820,1273503599,255830,-361
20220831T050728,2600,5,10,149(0x95),-111,89,-11,0,23,450f06,24741,1280,REGISTERED,CONNECTED,CS_PS_MODE1,18,0,1217594,377451825,1273503597,255800,-397
20220831T050730,2600,5,10,149(0x95),-111,89,-11,0,23,450f06,24741,1280,REGISTERED,CONNECTED,CS_PS_MODE1,18,0,1219594,377451831,1273503593,255850,-343
20220831T050732,2600,5,10,149(0x95),-111,89,-11,0,23,450f06,24741,1280,REGISTERED,CONNECTED,CS_PS_MODE1,18,0,1221591,377451835,1273503593,255870,-328
20220831T050735,2600,5,10,149(0x95),-111,89,-11,0,23,450f06,24741,1280,REGISTERED,CONNECTED,CS_PS_MODE1,18,0,1225254,377451838,1273503591,255830,-363
20220831T050737,2600,5,10,149(0x95),-111,89,-11,0,23,450f06,24741,1280,REGISTERED,CONNECTED,CS_PS_MODE1,18,0,1227252,377451841,1273503591,255870,-322
20220831T050739,2600,5,10,149(0x95),-111,89,-11,0,23,450f06,24741,1280,REGISTERED,CONNECTED,CS_PS_MODE1,18,0,1229249,377451841,1273503593,255860,-339
20220831T050741,2600,5,10,149(0x95),-111,89,-11,0,23,450f06,24741,1280,REGISTERED,CONNECTED,CS_PS_MODE1,18,0,1231247,377451847,1273503592,255900,-294
20220831T050743,2600,5,10,149(0x95),-111,89,-11,0,23,450f06,24741,1280,REGISTERED,CONNECTED,CS_PS_MODE1,18,0,1233247,377451851,1273503592,255920,-279
20220831T050745,2600,5,10,149(0x95),-111,89,-11,0,23,450f06,24741,1280,REGISTERED,CONNECTED,CS_PS_MODE1,18,0,1234579,377451853,1273503592,255910,-282
20220831T050747,2600,5,10,149(0x95),-111,89,-11,0,23,450f06,24741,1280,REGISTERED,CONNECTED,CS_PS_MODE1,18,0,1236579,377451855,1273503591,255880,-317
20220831T050750,2600,5,10,149(0x95),-111,89,-11,0,23,450f06,24741,1280,REGISTERED,CONNECTED,CS_PS_MODE1,18,0,1239572,377451855,1273503591,255890,-304
20220831T050752,2600,5,10,149(0x95),-111,89,-11,0,23,450f06,24741,1280,REGISTERED,CONNECTED,CS_PS_MODE1,18,0,1241572,377451855,1273503591,255910,-280
20220831T050754,2600,5,10,149(0x95),-111,89,-11,0,22,450f06,24741,1280,REGISTERED,CONNECTED,CS_PS_MODE1,18,0,1243569,377451854,1273503588,255940,-252
20220831T050756,2600,5,10,149(0x95),-111,89,-11,0,23,450f06,24741,1280,REGISTERED,CONNECTED,CS_PS_MODE1,18,0,1245566,377451853,1273503586,255990,-200
20220831T050758,2600,5,10,149(0x95),-111,89,-11,0,22,450f06,24741,1280,REGISTERED,CONNECTED,CS_PS_MODE1,18,0,1247564,377451854,1273503581,256020,-172
20220831T050800,2600,5,10,149(0x95),-111,89,-11,0,23,450f06,24741,1280,REGISTERED,CONNECTED,CS_PS_MODE1,18,0,1249562,377451851,1273503580,255980,-210
20220831T050802,2600,5,10,149(0x95),-111,89,-11,0,23,450f06,24741,1280,REGISTERED,CONNECTED,CS_PS_MODE1,18,0,1251562,377451850,1273503577,255910,-281
20220831T050804,2600,5,10,149(0x95),-111,89,-11,0,23,450f06,24741,1280,REGISTERED,CONNECTED,CS_PS_MODE1,18,0,1253559,377451852,1273503571,255930,-264
20220831T050807,2600,5,10,149(0x95),-111,89,-11,0,23,450f06,24741,1280,REGISTERED,CONNECTED,CS_PS_MODE1,18,0,1256556,377451852,1273503564,255940,-252
20220831T050809,2600,5,10,149(0x95),-111,89,-11,0,23,450f06,24741,1280,REGISTERED,CONNECTED,CS_PS_MODE1,18,0,1258554,377451852,1273503560,255970,-221
20220831T050811,2600,5,10,149(0x95),-111,89,-11,0,23,450f06,24741,1280,REGISTERED,CONNECTED,CS_PS_MODE1,18,0,1260552,377451852,1273503556,255970,-222
20220831T050813,2600,5,10,149(0x95),-111,89,-11,0,23,450f06,24741,1280,REGISTERED,CONNECTED,CS_PS_MODE1,18,0,1262549,377451855,1273503552,255980,-215
20220831T050815,2600,5,10,149(0x95),-111,89,-11,0,22,450f06,24741,1280,REGISTERED,CONNECTED,CS_PS_MODE1,18,0,1264547,377451860,1273503548,255980,-212
20220831T050817,2600,5,10,149(0x95),-111,89,-11,0,23,450f06,24741,1280,REGISTERED,CONNECTED,CS_PS_MODE1,18,0,1266547,377451864,1273503547,256010,-187
20220831T050819,2600,5,10,149(0x95),-111,89,-11,0,23,450f06,24741,1280,REGISTERED,CONNECTED,CS_PS_MODE1,18,0,1268544,377451866,1273503547,256040,-154
20220831T050822,2600,5,10,149(0x95),-111,89,-11,0,23,450f06,24741,1280,REGISTERED,CONNECTED,CS_PS_MODE1,18,0,1271875,377451868,1273503543,256070,-127
20220831T050824,2600,5,10,149(0x95),-111,83,-11,0,22,450f06,24741,1280,REGISTERED,CONNECTED,CS_PS_MODE1,18,0,1273872,377451866,1273503543,256030,-168
20220831T050826,2600,5,10,149(0x95),-111,83,-11,0,23,450f06,24741,1280,REGISTERED,CONNECTED,CS_PS_MODE1,18,0,1275869,377451864,1273503543,256010,-182
20220831T050828,2600,5,10,149(0x95),-111,83,-11,0,23,450f06,24741,1280,REGISTERED,CONNECTED,CS_PS_MODE1,18,0,1277869,377451861,1273503543,256030,-162
20220831T050830,2600,5,10,149(0x95),-111,83,-11,0,22,450f06,24741,1280,REGISTERED,CONNECTED,CS_PS_MODE1,18,0,1279866,377451857,1273503544,255970,-226
20220831T050832,2600,5,10,149(0x95),-111,83,-11,0,23,450f06,24741,1280,REGISTERED,CONNECTED,CS_PS_MODE1,18,0,1281864,377451850,1273503545,255980,-211
20220831T050834,2600,5,10,149(0x95),-111,83,-11,0,23,450f06,24741,1280,REGISTERED,CONNECTED,CS_PS_MODE1,18,0,1283862,377451846,1273503545,255980,-218
20220831T050836,2600,5,10,149(0x95),-111,83,-11,0,23,450f06,24741,1280,REGISTERED,CONNECTED,CS_PS_MODE1,18,0,1285859,377451841,1273503547,255990,-203
20220831T050839,2600,5,10,149(0x95),-111,83,-11,0,23,450f06,24741,1280,REGISTERED,CONNECTED,CS_PS_MODE1,18,0,1288856,377451834,1273503552,256000,-192
20220831T050841,2600,5,10,149(0x95),-111,83,-11,0,23,450f06,24741,1280,REGISTERED,CONNECTED,CS_PS_MODE1,18,0,1290854,377451826,1273503555,256010,-189
20220831T050843,2600,5,10,149(0x95),-111,83,-11,0,23,450f06,24741,1280,REGISTERED,CONNECTED,CS_PS_MODE1,18,0,1292852,377451820,1273503559,256030,-165
20220831T050845,2600,5,10,149(0x95),-111,83,-11,0,23,450f06,24741,1280,REGISTERED,CONNECTED,CS_PS_MODE1,18,0,1294852,377451813,1273503565,256040,-155
20220831T050847,2600,5,10,149(0x95),-111,83,-11,0,23,450f06,24741,1280,REGISTERED,CONNECTED,CS_PS_MODE1,18,0,1296849,377451807,1273503569,256000,-196
20220831T050849,2600,5,10,149(0x95),-111,83,-11,0,23,450f06,24741,1280,REGISTERED,CONNECTED,CS_PS_MODE1,18,0,1298847,377451799,1273503575,255970,-221
20220831T050851,2600,5,10,149(0x95),-111,83,-11,0,23,450f06,24741,1280,REGISTERED,CONNECTED,CS_PS_MODE1,18,0,1300844,377451792,1273503580,255970,-226
20220831T050854,2600,5,10,149(0x95),-106,83,-11,0,22,450f06,24741,1280,REGISTERED,CONNECTED,CS_PS_MODE1,18,0,1303841,377451783,1273503588,255970,-226
20220831T050856,2600,5,10,149(0x95),-106,83,-11,0,23,450f06,24741,1280,REGISTERED,CONNECTED,CS_PS_MODE1,18,0,1305839,377451774,1273503592,255950,-245
20220831T050858,2600,5,10,149(0x95),-106,83,-11,0,23,450f06,24741,1280,REGISTERED,CONNECTED,CS_PS_MODE1,18,0,1307837,377451767,1273503595,255960,-239
20220831T050900,2600,5,10,149(0x95),-106,83,-11,0,23,450f06,24741,1280,REGISTERED,CONNECTED,CS_PS_MODE1,18,0,1309837,377451759,1273503598,256030,-165
20220831T050902,2600,5,10,149(0x95),-112,83,-11,0,23,450f06,24741,1280,REGISTERED,CONNECTED,CS_PS_MODE1,18,0,1311834,377451755,1273503598,256030,-167
20220831T050904,2600,5,10,149(0x95),-112,83,-11,0,22,450f06,24741,1280,REGISTERED,CONNECTED,CS_PS_MODE1,18,0,1313831,377451751,1273503596,255980,-213
20220831T050906,2600,5,10,149(0x95),-112,83,-11,0,23,450f06,24741,1280,REGISTERED,CONNECTED,CS_PS_MODE1,18,0,1315829,377451751,1273503589,255980,-215
20220831T050908,2600,5,10,149(0x95),-107,83,-11,0,22,450f06,24741,1280,REGISTERED,CONNECTED,CS_PS_MODE1,18,0,1318162,377451751,1273503583,256010,-189
20220831T050911,2600,5,10,149(0x95),-107,83,-11,0,23,450f06,24741,1280,REGISTERED,CONNECTED,CS_PS_MODE1,18,0,1320824,377451754,1273503576,256020,-171
20220831T050913,2600,5,10,149(0x95),-107,83,-11,0,23,450f06,24741,1280,REGISTERED,CONNECTED,CS_PS_MODE1,18,0,1322822,377451764,1273503568,255980,-211
20220831T050915,2600,5,10,149(0x95),-107,83,-11,0,23,450f06,24741,1280,REGISTERED,CONNECTED,CS_PS_MODE1,18,0,1324822,377451766,1273503560,255950,-241
20220831T050917,2600,5,10,149(0x95),-107,83,-11,0,22,450f06,24741,1280,REGISTERED,CONNECTED,CS_PS_MODE1,18,0,1326819,377451833,1273503672,256630,434
20220831T050919,2600,5,10,149(0x95),-107,83,-11,0,23,450f06,24741,1280,REGISTERED,CONNECTED,CS_PS_MODE1,18,0,1328816,377451989,1273503927,256620,425
20220831T050921,2600,5,10,149(0x95),-107,83,-11,0,23,450f06,24741,1280,REGISTERED,CONNECTED,CS_PS_MODE1,18,0,1330814,377452228,1273504162,256520,322
20220831T050923,2600,5,10,149(0x95),-107,83,-11,0,23,450f06,24741,1280,REGISTERED,CONNECTED,CS_PS_MODE1,18,0,1332812,377452458,1273504345,256310,119
20220831T050925,2600,5,10,149(0x95),-107,83,-11,0,23,450f06,24741,1280,REGISTERED,CONNECTED,CS_PS_MODE1,18,0,1334812,377452514,1273504370,255690,-508
20220831T050928,2600,5,10,149(0x95),-107,83,-11,0,22,450f06,24741,1280,REGISTERED,CONNECTED,CS_PS_MODE1,18,0,1338141,377452502,1273504365,255630,-567
20220831T050930,2600,5,10,149(0x95),-107,83,-11,0,23,450f06,24741,1280,REGISTERED,CONNECTED,CS_PS_MODE1,18,0,1340139,377452508,1273504358,255550,-642
20220831T050932,2600,5,10,149(0x95),-107,83,-11,0,17,450f06,24741,1280,REGISTERED,CONNECTED,CS_PS_MODE1,18,0,1342469,377452514,1273504354,255600,-599
20220831T050934,2600,5,10,149(0x95),-107,83,-11,0,15,450f06,24741,1280,REGISTERED,CONNECTED,CS_PS_MODE1,18,0,1344134,377452514,1273504353,255600,-595
20220831T050936,2600,5,10,149(0x95),-107,83,-11,0,19,450f06,24741,1280,REGISTERED,CONNECTED,CS_PS_MODE1,18,0,1346134,377452514,1273504351,255630,-561
20220831T050938,2600,5,10,149(0x95),-107,83,-11,0,0,450f06,24741,1280,REGISTERED,CONNECTED,CS_PS_MODE1,18,0,1348131,377452515,1273504357,255670,-527
20220831T050940,2600,5,10,149(0x95),-107,83,-6,0,23,450f06,24741,1280,REGISTERED,CONNECTED,CS_PS_MODE1,18,0,1350129,377452518,1273504360,255670,-527
20220831T050943,2600,5,10,149(0x95),-107,83,-6,0,23,450f06,24741,1280,REGISTERED,CONNECTED,CS_PS_MODE1,18,0,1352794,377452519,1273504368,255670,-529
20220831T050945,2600,5,10,149(0x95),-107,83,-6,0,18,450f06,24741,1280,REGISTERED,CONNECTED,CS_PS_MODE1,18,0,1354791,377452519,1273504374,255630,-560
20220831T050947,2600,5,10,149(0x95),-107,83,-6,0,22,450f06,24741,1280,REGISTERED,CONNECTED,CS_PS_MODE1,18,0,1356789,377452521,1273504379,255640,-557
20220831T050949,2600,5,10,149(0x95),-107,83,-6,0,19,450f06,24741,1280,REGISTERED,CONNECTED,CS_PS_MODE1,18,0,1358787,377452521,1273504385,255610,-588
20220831T050951,2600,5,10,149(0x95),-107,83,-6,0,23,450f06,24741,1280,REGISTERED,CONNECTED,CS_PS_MODE1,18,0,1360784,377452519,1273504392,255640,-553
20220831T050953,2600,5,10,149(0x95),-107,83,-6,0,23,450f06,24741,1280,REGISTERED,CONNECTED,CS_PS_MODE1,18,0,1362784,377452518,1273504394,255660,-533
20220831T050955,2600,5,10,149(0x95),-107,83,-6,0,21,450f06,24741,1280,REGISTERED,CONNECTED,CS_PS_MODE1,18,0,1364781,377452518,1273504396,255650,-549
20220831T050957,2600,5,10,149(0x95),-107,83,-6,0,20,450f06,24741,1280,REGISTERED,CONNECTED,CS_PS_MODE1,18,0,1366779,377452517,1273504398,255700,-493
20220831T051000,2600,5,10,149(0x95),-107,83,-6,0,22,450f06,24741,1280,REGISTERED,CONNECTED,CS_PS_MODE1,18,0,1370441,377452519,1273504404,255680,-514
20220831T051002,2600,5,10,149(0x95),-107,76,-6,0,23,450f06,24741,1280,REGISTERED,CONNECTED,CS_PS_MODE1,18,0,1372439,377452522,1273504406,255650,-549
20220831T051004,2600,5,10,149(0x95),-107,76,-6,0,23,450f06,24741,1280,REGISTERED,CONNECTED,CS_PS_MODE1,18,0,1374437,377452530,1273504407,255680,-515
20220831T051006,2600,5,10,149(0x95),-107,76,-6,0,23,450f06,24741,1280,REGISTERED,CONNECTED,CS_PS_MODE1,18,0,1376437,377452537,1273504406,255660,-532
20220831T051008,2600,5,10,149(0x95),-107,82,-6,0,23,450f06,24741,1280,REGISTERED,CONNECTED,CS_PS_MODE1,18,0,1378434,377452541,1273504406,255670,-520
20220831T051010,2600,5,10,149(0x95),-107,82,-6,0,22,450f06,24741,1280,REGISTERED,CONNECTED,CS_PS_MODE1,18,0,1380431,377452544,1273504406,255660,-533
20220831T051012,2600,5,10,149(0x95),-107,82,-6,0,23,450f06,24741,1280,REGISTERED,CONNECTED,CS_PS_MODE1,18,0,1382429,377452548,1273504405,255670,-522
20220831T051015,2600,5,10,149(0x95),-107,82,-6,0,23,450f06,24741,1280,REGISTERED,CONNECTED,CS_PS_MODE1,18,0,1384762,377452552,1273504404,255630,-569
20220831T051017,2600,5,10,149(0x95),-107,75,-6,0,23,450f06,24741,1280,REGISTERED,CONNECTED,CS_PS_MODE1,18,0,1386759,377452557,1273504402,255610,-587
20220831T051019,2600,5,10,149(0x95),-107,75,-6,0,23,450f06,24741,1280,REGISTERED,CONNECTED,CS_PS_MODE1,18,0,1388756,377452560,1273504402,255650,-549
20220831T051021,2600,5,10,149(0x95),-107,75,-6,0,23,450f06,24741,1280,REGISTERED,CONNECTED,CS_PS_MODE1,18,0,1390754,377452564,1273504402,255630,-567
20220831T051023,2600,5,10,149(0x95),-107,75,-6,0,23,450f06,24741,1280,REGISTERED,CONNECTED,CS_PS_MODE1,18,0,1392752,377452610,1273504273,256340,146
20220831T051025,2600,5,10,149(0x95),-107,81,-6,0,23,450f06,24741,1280,REGISTERED,CONNECTED,CS_PS_MODE1,18,0,1394752,377452695,1273503777,256530,334
20220831T051027,2600,5,10,149(0x95),-107,81,-6,0,23,450f06,24741,1280,REGISTERED,CONNECTED,CS_PS_MODE1,18,0,1396749,377452830,1273503730,255920,-278
20220831T051029,2600,5,10,149(0x95),-107,81,-6,0,23,450f06,24741,1280,REGISTERED,CONNECTED,CS_PS_MODE1,18,0,1398747,377452828,1273503735,255900,-294
20220831T051032,2600,5,10,149(0x95),-107,81,-6,0,21,450f06,24741,1280,REGISTERED,CONNECTED,CS_PS_MODE1,18,0,1401744,377452828,1273503737,255850,-343
20220831T051034,2600,5,10,149(0x95),-107,81,-6,0,23,450f06,24741,1280,REGISTERED,CONNECTED,CS_PS_MODE1,18,0,1403741,377452828,1273503739,255860,-338
20220831T051036,2600,5,10,149(0x95),-107,81,-6,0,23,450f06,24741,1280,REGISTERED,CONNECTED,CS_PS_MODE1,18,0,1405739,377452827,1273503742,255840,-351
20220831T051038,2600,5,10,149(0x95),-107,81,-6,0,18,450f06,24741,1280,REGISTERED,CONNECTED,CS_PS_MODE1,18,0,1407737,377452826,1273503745,255810,-380
20220831T051040,2600,5,10,149(0x95),-107,81,-6,0,17,450f06,24741,1280,REGISTERED,CONNECTED,CS_PS_MODE1,18,0,1409737,377452825,1273503743,255790,-402
20220831T051042,2600,5,10,149(0x95),-107,81,-6,0,23,450f06,24741,1280,REGISTERED,CONNECTED,CS_PS_MODE1,18,0,1411734,377452824,1273503741,255850,-347
20220831T051044,2600,5,10,149(0x95),-107,81,-6,0,23,450f06,24741,1280,REGISTERED,CONNECTED,CS_PS_MODE1,18,0,1413731,377452824,1273503741,255820,-377
20220831T051046,2600,5,10,149(0x95),-107,81,-6,0,22,450f06,24741,1280,REGISTERED,CONNECTED,CS_PS_MODE1,18,0,1415729,377452827,1273503740,255840,-351
20220831T051049,2600,5,10,149(0x95),-107,81,-6,0,23,450f06,24741,1280,REGISTERED,CONNECTED,CS_PS_MODE1,18,0,1418727,377452827,1273503739,255860,-334
20220831T051051,2600,5,10,149(0x95),-107,81,-6,0,23,450f06,24741,1280,REGISTERED,CONNECTED,CS_PS_MODE1,18,0,1420724,377452827,1273503736,255850,-347
20220831T051053,2600,5,10,149(0x95),-107,81,-6,0,23,450f06,24741,1280,REGISTERED,CONNECTED,CS_PS_MODE1,18,0,1422722,377452826,1273503735,255830,-362
20220831T051055,2600,5,10,149(0x95),-107,81,-6,0,23,450f06,24741,1280,REGISTERED,CONNECTED,CS_PS_MODE1,18,0,1424722,377452825,1273503738,255850,-344
20220831T051057,2600,5,10,149(0x95),-107,81,-6,0,23,450f06,24741,1280,REGISTERED,CONNECTED,CS_PS_MODE1,18,0,1427052,377452820,1273503739,255850,-341
20220831T051059,2600,5,10,149(0x95),-107,81,-6,0,23,450f06,24741,1280,REGISTERED,CONNECTED,CS_PS_MODE1,18,0,1429049,377452820,1273503737,255860,-333
20220831T051101,2600,5,10,149(0x95),-107,81,-6,0,23,450f06,24741,1280,REGISTERED,CONNECTED,CS_PS_MODE1,18,0,1431047,377452820,1273503735,255890,-308
20220831T051104,2600,5,10,149(0x95),-107,81,-6,0,22,450f06,24741,1280,REGISTERED,CONNECTED,CS_PS_MODE1,18,0,1433712,377452823,1273503735,255920,-271
20220831T051106,2600,5,10,149(0x95),-107,81,-6,0,23,450f06,24741,1280,REGISTERED,CONNECTED,CS_PS_MODE1,18,0,1435709,377452826,1273503735,255870,-326
20220831T051108,2600,5,10,149(0x95),-107,81,-6,0,22,450f06,24741,1280,REGISTERED,CONNECTED,CS_PS_MODE1,18,0,1437709,377452832,1273503737,255840,-358
20220831T051110,2600,5,10,149(0x95),-107,81,-6,0,23,450f06,24741,1280,REGISTERED,CONNECTED,CS_PS_MODE1,18,0,1439706,377452835,1273503740,255760,-432
20220831T051112,2600,5,10,149(0x95),-107,81,-6,0,23,450f06,24741,1280,REGISTERED,CONNECTED,CS_PS_MODE1,18,0,1441704,377452839,1273503743,255780,-413
20220831T051114,2600,5,10,149(0x95),-107,81,-6,0,23,450f06,24741,1280,REGISTERED,CONNECTED,CS_PS_MODE1,18,0,1443702,377452840,1273503747,255770,-421
20220831T051116,2600,5,10,149(0x95),-107,81,-6,0,23,450f06,24741,1280,REGISTERED,CONNECTED,CS_PS_MODE1,18,0,1445702,377452846,1273503749,255810,-386
20220831T051118,2600,5,10,149(0x95),-107,81,-6,0,22,450f06,24741,1280,REGISTERED,CONNECTED,CS_PS_MODE1,18,0,1447702,377452849,1273503753,255850,-343
20220831T051121,2600,5,10,149(0x95),-107,81,-6,0,23,450f06,24741,1280,REGISTERED,CONNECTED,CS_PS_MODE1,18,0,1451027,377452854,1273503758,255820,-377
20220831T051123,2600,5,10,149(0x95),-107,81,-6,0,23,450f06,24741,1280,REGISTERED,CONNECTED,CS_PS_MODE1,18,0,1453027,377452857,1273503761,255800,-398
20220831T051125,2600,5,10,149(0x95),-107,81,-6,0,19,450f06,24741,1280,REGISTERED,CONNECTED,CS_PS_MODE1,18,0,1455024,377452860,1273503762,255820,-378
20220831T051127,2600,5,10,149(0x95),-107,81,-6,0,0,450f06,24741,1280,REGISTERED,CONNECTED,CS_PS_MODE1,18,0,1457354,377452858,1273503774,256080,-110
20220831T051129,2600,5,10,149(0x95),-107,81,-6,0,22,450f06,24741,1280,REGISTERED,CONNECTED,CS_PS_MODE1,18,0,1459352,377452622,1273503759,256650,455
20220831T051131,2600,5,10,149(0x95),-107,81,-6,0,23,450f06,24741,1280,REGISTERED,CONNECTED,CS_PS_MODE1,18,0,1461352,377452342,1273503715,256690,490
20220831T051133,2600,5,10,149(0x95),-107,81,-6,0,23,450f06,24741,1280,REGISTERED,CONNECTED,CS_PS_MODE1,18,0,1463349,377452076,1273503671,256670,473
20220831T051135,2600,5,10,149(0x95),-107,81,-6,0,23,450f06,24741,1280,REGISTERED,CONNECTED,CS_PS_MODE1,18,0,1465347,377451849,1273503564,256620,426
20220831T051138,2600,5,10,149(0x95),-107,81,-6,0,23,450f06,24741,1280,REGISTERED,CONNECTED,CS_PS_MODE1,18,0,1467677,377451781,1273503534,255980,-211
20220831T051140,2600,5,10,149(0x95),-107,81,-6,0,23,450f06,24741,1280,REGISTERED,CONNECTED,CS_PS_MODE1,18,0,1469677,377451780,1273503519,255870,-320
20220831T051142,2600,5,10,149(0x95),-107,81,-6,0,22,450f06,24741,1280,REGISTERED,CONNECTED,CS_PS_MODE1,18,0,1471674,377451783,1273503512,255940,-256
20220831T051144,2600,5,10,149(0x95),-107,81,-6,0,23,450f06,24741,1280,REGISTERED,CONNECTED,CS_PS_MODE1,18,0,1473672,377451781,1273503515,255880,-310
20220831T051146,2600,5,10,149(0x95),-107,81,-6,0,23,450f06,24741,1280,REGISTERED,CONNECTED,CS_PS_MODE1,18,0,1475669,377451774,1273503518,255850,-343
20220831T051148,2600,5,10,149(0x95),-107,81,-6,0,23,450f06,24741,1280,REGISTERED,CONNECTED,CS_PS_MODE1,18,0,1477669,377451766,1273503522,255870,-326
20220831T051150,2600,5,10,149(0x95),-107,81,-6,0,22,450f06,24741,1280,REGISTERED,CONNECTED,CS_PS_MODE1,18,0,1479666,377451760,1273503523,255890,-308
20220831T051153,2600,5,10,149(0x95),-107,81,-6,0,22,450f06,24741,1280,REGISTERED,CONNECTED,CS_PS_MODE1,18,0,1483329,377451754,1273503516,255890,-301
20220831T051155,2600,5,10,149(0x95),-107,81,-6,0,23,450f06,24741,1280,REGISTERED,CONNECTED,CS_PS_MODE1,18,0,1484662,377451754,1273503515,255870,-326
20220831T051157,2600,5,10,149(0x95),-107,81,-6,0,22,450f06,24741,1280,REGISTERED,CONNECTED,CS_PS_MODE1,18,0,1486659,377451752,1273503513,255860,-330
20220831T051159,2600,5,10,149(0x95),-107,81,-6,0,22,450f06,24741,1280,REGISTERED,CONNECTED,CS_PS_MODE1,18,0,1488656,377451755,1273503505,255800,-394
20220831T051201,2600,5,10,149(0x95),-107,81,-6,0,23,450f06,24741,1280,REGISTERED,CONNECTED,CS_PS_MODE1,18,0,1490654,377451759,1273503503,255810,-383
20220831T051203,2600,5,10,149(0x95),-107,81,-6,0,23,450f06,24741,1280,REGISTERED,CONNECTED,CS_PS_MODE1,18,0,1492652,377451764,1273503501,255790,-403
20220831T051205,2600,5,10,149(0x95),-107,81,-6,0,23,450f06,24741,1280,REGISTERED,CONNECTED,CS_PS_MODE1,18,0,1494652,377451765,1273503501,255800,-393
20220831T051207,2600,5,10,149(0x95),-107,81,-6,0,23,450f06,24741,1280,REGISTERED,CONNECTED,CS_PS_MODE1,18,0,1496649,377451768,1273503501,255790,-404
20220831T051210,2600,5,10,149(0x95),-107,81,-6,0,23,450f06,24741,1280,REGISTERED,CONNECTED,CS_PS_MODE1,18,0,1499647,377451770,1273503500,255820,-375
20220831T051212,2600,5,10,149(0x95),-107,81,-6,0,23,450f06,24741,1280,REGISTERED,CONNECTED,CS_PS_MODE1,18,0,1501644,377451773,1273503498,255850,-344
20220831T051214,2600,5,10,149(0x95),-107,81,-6,0,22,450f06,24741,1280,REGISTERED,CONNECTED,CS_PS_MODE1,18,0,1503641,377451775,1273503497,255890,-301
20220831T051216,2600,5,10,149(0x95),-107,81,-6,0,23,450f06,24741,1280,REGISTERED,CONNECTED,CS_PS_MODE1,18,0,1505639,377451775,1273503498,255930,-266
20220831T051218,2600,5,10,149(0x95),-107,81,-6,0,23,450f06,24741,1280,REGISTERED,CONNECTED,CS_PS_MODE1,18,0,1507637,377451768,1273503493,255930,-268
20220831T051220,2600,5,10,149(0x95),-107,81,-6,0,23,450f06,24741,1280,REGISTERED,CONNECTED,CS_PS_MODE1,18,0,1509637,377451767,1273503488,255940,-250
20220831T051222,2600,5,10,149(0x95),-107,81,-12,0,23,450f06,24741,1280,REGISTERED,CONNECTED,CS_PS_MODE1,18,0,1511634,377451760,1273503485,255890,-303
20220831T051225,2600,5,10,149(0x95),-107,81,-12,0,23,450f06,24741,1280,REGISTERED,CONNECTED,CS_PS_MODE1,18,0,1514631,377451756,1273503479,255840,-352
20220831T051227,2600,5,10,149(0x95),-107,81,-12,0,23,450f06,24741,1280,REGISTERED,CONNECTED,CS_PS_MODE1,18,0,1516629,377451757,1273503474,255870,-325
20220831T051229,2600,5,10,149(0x95),-107,81,-12,0,23,450f06,24741,1280,REGISTERED,CONNECTED,CS_PS_MODE1,18,0,1518627,377451759,1273503468,255880,-315
20220831T051231,2600,5,10,149(0x95),-107,81,-12,0,23,450f06,24741,1280,REGISTERED,CONNECTED,CS_PS_MODE1,18,0,1520624,377451765,1273503462,255860,-339
20220831T051233,2600,5,10,149(0x95),-107,81,-12,0,23,450f06,24741,1280,REGISTERED,CONNECTED,CS_PS_MODE1,18,0,1522622,377451762,1273503460,255800,-394
20220831T051235,2600,5,10,149(0x95),-107,81,-7,0,23,450f06,24741,1280,REGISTERED,CONNECTED,CS_PS_MODE1,18,0,1524622,377451761,1273503456,255810,-388
20220831T051237,2600,5,10,149(0x95),-107,81,-7,0,23,450f06,24741,1280,REGISTERED,CONNECTED,CS_PS_MODE1,18,0,1526619,377451763,1273503450,255760,-438
20220831T051239,2600,5,10,149(0x95),-107,81,-7,0,23,450f06,24741,1280,REGISTERED,CONNECTED,CS_PS_MODE1,18,0,1528616,377451764,1273503445,255720,-472
20220831T051242,2600,5,10,149(0x95),-107,81,-7,0,0,450f06,24741,1280,REGISTERED,CONNECTED,CS_PS_MODE1,18,0,1531947,377451772,1273503437,255790,-406
20220831T051244,2600,5,10,149(0x95),-107,81,-7,0,23,450f06,24741,1280,REGISTERED,CONNECTED,CS_PS_MODE1,18,0,1533944,377451774,1273503434,255790,-409
20220831T051246,2600,5,10,149(0x95),-107,81,-7,0,23,450f06,24741,1280,REGISTERED,CONNECTED,CS_PS_MODE1,18,0,1535944,377451774,1273503432,255760,-436
20220831T051248,2600,5,10,149(0x95),-107,81,-7,0,22,450f06,24741,1280,REGISTERED,CONNECTED,CS_PS_MODE1,18,0,1537941,377451776,1273503427,255730,-462
20220831T051250,2600,5,10,149(0x95),-107,81,-7,0,23,450f06,24741,1280,REGISTERED,CONNECTED,CS_PS_MODE1,18,0,1539939,377451775,1273503433,255740,-451
20220831T051252,2600,5,10,149(0x95),-107,81,-7,0,23,450f06,24741,1280,REGISTERED,CONNECTED,CS_PS_MODE1,18,0,1541937,377451770,1273503442,255740,-450
20220831T051254,2600,5,10,149(0x95),-107,81,-7,0,23,450f06,24741,1280,REGISTERED,CONNECTED,CS_PS_MODE1,18,0,1543934,377451762,1273503452,255700,-497
20220831T051256,2600,5,10,149(0x95),-107,81,-7,0,23,450f06,24741,1280,REGISTERED,CONNECTED,CS_PS_MODE1,18,0,1545934,377451754,1273503461,255680,-515
20220831T051259,2600,5,10,149(0x95),-107,81,-7,0,23,450f06,24741,1280,REGISTERED,CONNECTED,CS_PS_MODE1,18,0,1548597,377451746,1273503471,255670,-527
20220831T051301,2600,5,10,149(0x95),-107,81,-7,0,22,450f06,24741,1280,REGISTERED,CONNECTED,CS_PS_MODE1,18,0,1550594,377451737,1273503478,255720,-471
20220831T051303,2600,5,10,149(0x95),-107,81,-7,0,23,450f06,24741,1280,REGISTERED,CONNECTED,CS_PS_MODE1,18,0,1552594,377451733,1273503484,255740,-456
20220831T051305,2600,5,10,149(0x95),-107,81,-7,0,23,450f06,24741,1280,REGISTERED,CONNECTED,CS_PS_MODE1,18,0,1554591,377451731,1273503491,255690,-507
20220831T051307,2600,5,10,149(0x95),-107,81,-7,0,23,450f06,24741,1280,REGISTERED,CONNECTED,CS_PS_MODE1,18,0,1556589,377451729,1273503496,255720,-475
20220831T051309,2600,5,10,149(0x95),-107,81,-7,0,23,450f06,24741,1280,REGISTERED,CONNECTED,CS_PS_MODE1,18,0,1558587,377451723,1273503501,255630,-565
20220831T051311,2600,5,10,149(0x95),-107,81,-7,0,23,450f06,24741,1280,REGISTERED,CONNECTED,CS_PS_MODE1,18,0,1560584,377451724,1273503508,255600,-594
20220831T051314,2600,5,10,149(0x95),-107,81,-7,0,23,450f06,24741,1280,REGISTERED,CONNECTED,CS_PS_MODE1,18,0,1564247,377451725,1273503518,255640,-551
20220831T051316,2600,5,10,149(0x95),-107,81,-7,0,22,450f06,24741,1280,REGISTERED,CONNECTED,CS_PS_MODE1,18,0,1566247,377451725,1273503518,255650,-546
20220831T051318,2600,5,10,149(0x95),-107,81,-7,0,23,450f06,24741,1280,REGISTERED,CONNECTED,CS_PS_MODE1,18,0,1568244,377451727,1273503521,255640,-550
20220831T051320,2600,5,10,149(0x95),-107,81,-7,0,23,450f06,24741,1280,REGISTERED,CONNECTED,CS_PS_MODE1,18,0,1570241,377451732,1273503520,255690,-504
20220831T051322,2600,5,10,149(0x95),-107,81,-7,0,23,450f06,24741,1280,REGISTERED,CONNECTED,CS_PS_MODE1,18,0,1572239,377451736,1273503519,255660,-530
20220831T051324,2600,5,10,149(0x95),-107,81,-7,0,23,450f06,24741,1280,REGISTERED,CONNECTED,CS_PS_MODE1,18,0,1574237,377451739,1273503518,255650,-542
20220831T051326,2600,5,10,149(0x95),-107,81,-7,0,23,450f06,24741,1280,REGISTERED,CONNECTED,CS_PS_MODE1,18,0,1576237,377451744,1273503516,255610,-589
20220831T051328,2600,5,10,149(0x95),-107,81,-7,0,23,450f06,24741,1280,REGISTERED,CONNECTED,CS_PS_MODE1,18,0,1578234,377451744,1273503515,255530,-666
20220831T051331,2600,5,10,149(0x95),-107,81,-7,0,23,450f06,24741,1280,REGISTERED,CONNECTED,CS_PS_MODE1,18,0,1580564,377451742,1273503517,255520,-675
20220831T051333,2600,5,10,149(0x95),-107,81,-7,0,23,450f06,24741,1280,REGISTERED,CONNECTED,CS_PS_MODE1,18,0,1582562,377451742,1273503518,255590,-601
20220831T051335,2600,5,10,149(0x95),-107,81,-7,0,23,450f06,24741,1280,REGISTERED,CONNECTED,CS_PS_MODE1,18,0,1584562,377451742,1273503517,255590,-604
20220831T051337,2600,5,10,149(0x95),-107,81,-7,0,23,450f06,24741,1280,REGISTERED,CONNECTED,CS_PS_MODE1,18,0,1586559,377451748,1273503515,255590,-603
20220831T051339,2600,5,10,149(0x95),-107,81,-7,0,22,450f06,24741,1280,REGISTERED,CONNECTED,CS_PS_MODE1,18,0,1588556,377451747,1273503515,255510,-684
20220831T051341,2600,5,10,149(0x95),-107,81,-7,0,23,450f06,24741,1280,REGISTERED,CONNECTED,CS_PS_MODE1,18,0,1590554,377451747,1273503513,255490,-704
20220831T051343,2600,5,10,149(0x95),-107,81,-7,0,23,450f06,24741,1280,REGISTERED,CONNECTED,CS_PS_MODE1,18,0,1592552,377451749,1273503511,255500,-692
20220831T051345,2600,5,10,149(0x95),-107,81,-7,0,23,450f06,24741,1280,REGISTERED,CONNECTED,CS_PS_MODE1,18,0,1594552,377451751,1273503511,255500,-691
20220831T051348,2600,5,10,149(0x95),-107,81,-7,0,23,450f06,24741,1280,REGISTERED,CONNECTED,CS_PS_MODE1,18,0,1597547,377451755,1273503512,255580,-620
20220831T051350,2600,5,10,149(0x95),-107,81,-7,0,23,450f06,24741,1280,REGISTERED,CONNECTED,CS_PS_MODE1,18,0,1599547,377451756,1273503516,255590,-607
20220831T051352,2600,5,10,149(0x95),-107,81,-7,0,23,450f06,24741,1280,REGISTERED,CONNECTED,CS_PS_MODE1,18,0,1601544,377451757,1273503521,255580,-611
20220831T051354,2600,5,10,149(0x95),-107,81,-7,0,23,450f06,24741,1280,REGISTERED,CONNECTED,CS_PS_MODE1,18,0,1603541,377451754,1273503527,255600,-593
20220831T051356,2600,5,10,149(0x95),-107,81,-7,0,22,450f06,24741,1280,REGISTERED,CONNECTED,CS_PS_MODE1,18,0,1605539,377451750,1273503530,255570,-622
20220831T051358,2600,5,10,149(0x95),-107,81,-7,0,23,450f06,24741,1280,REGISTERED,CONNECTED,CS_PS_MODE1,18,0,1607537,377451748,1273503531,255600,-591
20220831T051400,2600,5,10,149(0x95),-107,81,-7,0,23,450f06,24741,1280,REGISTERED,CONNECTED,CS_PS_MODE1,18,0,1609537,377451743,1273503536,255560,-632
20220831T051403,2600,5,10,149(0x95),-107,81,-7,0,23,450f06,24741,1280,REGISTERED,CONNECTED,CS_PS_MODE1,18,0,1612866,377451738,1273503537,255500,-694
20220831T051405,2600,5,10,149(0x95),-107,81,-7,0,23,450f06,24741,1280,REGISTERED,CONNECTED,CS_PS_MODE1,18,0,1614864,377451738,1273503538,255470,-727
20220831T051407,2600,5,10,149(0x95),-107,81,-7,0,23,450f06,24741,1280,REGISTERED,CONNECTED,CS_PS_MODE1,18,0,1616862,377451739,1273503536,255540,-656
20220831T051409,2600,5,10,149(0x95),-107,81,-7,0,23,450f06,24741,1280,REGISTERED,CONNECTED,CS_PS_MODE1,18,0,1618859,377451742,1273503533,255460,-734
20220831T051411,2600,5,10,149(0x95),-107,81,-7,0,23,450f06,24741,1280,REGISTERED,CONNECTED,CS_PS_MODE1,18,0,1620859,377451748,1273503528,255570,-624
20220831T051413,2600,5,10,149(0x95),-107,81,-7,0,23,450f06,24741,1280,REGISTERED,CONNECTED,CS_PS_MODE1,18,0,1622856,377451750,1273503523,255560,-631
20220831T051415,2600,5,10,149(0x95),-107,81,-7,0,22,450f06,24741,1280,REGISTERED,CONNECTED,CS_PS_MODE1,18,0,1624854,377451748,1273503520,255500,-695
20220831T051417,2600,5,10,149(0x95),-107,81,-7,0,23,450f06,24741,1280,REGISTERED,CONNECTED,CS_PS_MODE1,18,0,1626852,377451746,1273503517,255480,-718
20220831T051420,2600,5,10,149(0x95),-107,81,-7,0,23,450f06,24741,1280,REGISTERED,CONNECTED,CS_PS_MODE1,18,0,1629849,377451748,1273503512,255460,-730
20220831T051422,2600,5,10,149(0x95),-107,81,-7,0,23,450f06,24741,1280,REGISTERED,CONNECTED,CS_PS_MODE1,18,0,1631847,377451753,1273503510,255510,-682
20220831T051424,2600,5,10,149(0x95),-107,81,-7,0,23,450f06,24741,1280,REGISTERED,CONNECTED,CS_PS_MODE1,18,0,1633844,377451758,1273503511,255450,-741
20220831T051426,2600,5,10,149(0x95),-107,81,-7,0,23,450f06,24741,1280,REGISTERED,CONNECTED,CS_PS_MODE1,18,0,1635844,377451768,1273503512,255390,-809
20220831T051428,2600,5,10,149(0x95),-107,81,-7,0,23,450f06,24741,1280,REGISTERED,CONNECTED,CS_PS_MODE1,18,0,1637841,377451775,1273503515,255360,-833
20220831T051430,2600,5,10,149(0x95),-107,81,-7,0,23,450f06,24741,1280,REGISTERED,CONNECTED,CS_PS_MODE1,18,0,1639839,377451780,1273503518,255310,-889
20220831T051432,2600,5,10,149(0x95),-107,81,-7,0,23,450f06,24741,1280,REGISTERED,CONNECTED,CS_PS_MODE1,18,0,1641837,377451781,1273503521,255380,-810
20220831T051435,2600,5,10,149(0x95),-107,81,-7,0,23,450f06,24741,1280,REGISTERED,CONNECTED,CS_PS_MODE1,18,0,1644834,377451786,1273503524,255390,-801
20220831T051437,2600,5,10,149(0x95),-107,81,-7,0,23,450f06,24741,1280,REGISTERED,CONNECTED,CS_PS_MODE1,18,0,1647165,377451790,1273503525,255370,-829
20220831T051439,2600,5,10,149(0x95),-107,81,-7,0,23,450f06,24741,1280,REGISTERED,CONNECTED,CS_PS_MODE1,18,0,1649162,377451797,1273503518,255380,-815
20220831T051441,2600,5,10,149(0x95),-107,81,-7,0,23,450f06,24741,1280,REGISTERED,CONNECTED,CS_PS_MODE1,18,0,1651162,377451802,1273503513,255370,-826
20220831T051443,2600,5,10,149(0x95),-107,81,-7,0,23,450f06,24741,1280,REGISTERED,CONNECTED,CS_PS_MODE1,18,0,1653159,377451804,1273503511,255330,-865
20220831T051445,2600,5,10,149(0x95),-107,81,-7,0,23,450f06,24741,1280,REGISTERED,CONNECTED,CS_PS_MODE1,18,0,1655156,377451808,1273503509,255300,-894
20220831T051447,2600,5,10,149(0x95),-107,81,-7,0,23,450f06,24741,1280,REGISTERED,CONNECTED,CS_PS_MODE1,18,0,1657154,377451811,1273503508,255310,-888
20220831T051449,2600,5,10,149(0x95),-107,81,-7,0,23,450f06,24741,1280,REGISTERED,CONNECTED,CS_PS_MODE1,18,0,1659152,377451819,1273503509,255260,-931
20220831T051452,2600,5,10,149(0x95),-107,81,-7,0,23,450f06,24741,1280,REGISTERED,CONNECTED,CS_PS_MODE1,18,0,1661816,377451827,1273503511,255180,-1011
20220831T051454,2600,5,10,149(0x95),-107,81,-7,0,23,450f06,24741,1280,REGISTERED,CONNECTED,CS_PS_MODE1,18,0,1663814,377451830,1273503512,255170,-1020
20220831T051456,2600,5,10,149(0x95),-107,81,-7,0,23,450f06,24741,1280,REGISTERED,CONNECTED,CS_PS_MODE1,18,0,1665812,377451830,1273503512,255250,-949
20220831T051458,2600,5,10,149(0x95),-107,81,-7,0,22,450f06,24741,1280,REGISTERED,CONNECTED,CS_PS_MODE1,18,0,1667812,377451833,1273503512,255190,-1003
20220831T051500,2600,5,10,149(0x95),-107,81,-7,0,23,450f06,24741,1280,REGISTERED,CONNECTED,CS_PS_MODE1,18,0,1669809,377451833,1273503512,255230,-965
20220831T051502,2600,5,10,149(0x95),-107,81,-7,0,23,450f06,24741,1280,REGISTERED,CONNECTED,CS_PS_MODE1,18,0,1671806,377451841,1273503509,255260,-931
20220831T051504,2600,5,10,149(0x95),-107,81,-7,0,23,450f06,24741,1280,REGISTERED,CONNECTED,CS_PS_MODE1,18,0,1673804,377451848,1273503506,255270,-925
20220831T051506,2600,5,10,149(0x95),-107,81,-7,0,23,450f06,24741,1280,REGISTERED,CONNECTED,CS_PS_MODE1,18,0,1675802,377451856,1273503501,255260,-939
20220831T051509,2600,5,10,149(0x95),-107,81,-7,0,22,450f06,24741,1280,REGISTERED,CONNECTED,CS_PS_MODE1,18,0,1679466,377451866,1273503494,255280,-918
20220831T051511,2600,5,10,149(0x95),-107,81,-7,0,23,450f06,24741,1280,REGISTERED,CONNECTED,CS_PS_MODE1,18,0,1681464,377451876,1273503490,255310,-883
20220831T051513,2600,5,10,149(0x95),-107,81,-7,0,23,450f06,24741,1280,REGISTERED,CONNECTED,CS_PS_MODE1,18,0,1683462,377451879,1273503487,255320,-879
20220831T051515,2600,5,10,149(0x95),-107,81,-7,0,23,450f06,24741,1280,REGISTERED,CONNECTED,CS_PS_MODE1,18,0,1685459,377451878,1273503485,255270,-922
20220831T051517,2600,5,10,149(0x95),-107,81,-7,0,23,450f06,24741,1280,REGISTERED,CONNECTED,CS_PS_MODE1,18,0,1687459,377451884,1273503482,255250,-945
20220831T051519,2600,5,10,149(0x95),-107,81,-7,0,23,450f06,24741,1280,REGISTERED,CONNECTED,CS_PS_MODE1,18,0,1689456,377451884,1273503479,255230,-964
20220831T051521,2600,5,10,149(0x95),-107,81,-7,0,23,450f06,24741,1280,REGISTERED,CONNECTED,CS_PS_MODE1,18,0,1691454,377451880,1273503477,255200,-998
20220831T051523,2600,5,10,149(0x95),-107,81,-7,0,23,450f06,24741,1280,REGISTERED,CONNECTED,CS_PS_MODE1,18,0,1693452,377451877,1273503477,255230,-965
20220831T051526,2600,5,10,149(0x95),-107,81,-7,0,23,450f06,24741,1280,REGISTERED,CONNECTED,CS_PS_MODE1,18,0,1695784,377451872,1273503476,255210,-988
20220831T051528,2600,5,10,149(0x95),-107,81,-7,0,23,450f06,24741,1280,REGISTERED,CONNECTED,CS_PS_MODE1,18,0,1697781,377451866,1273503475,255150,-1041
20220831T051530,2600,5,10,149(0x95),-107,81,-7,0,22,450f06,24741,1280,REGISTERED,CONNECTED,CS_PS_MODE1,18,0,1699779,377451860,1273503476,255080,-1119
20220831T051532,2600,5,10,149(0x95),-107,81,-7,0,23,450f06,24741,1280,REGISTERED,CONNECTED,CS_PS_MODE1,18,0,1701777,377451856,1273503477,255000,-1197
20220831T051534,2600,5,10,149(0x95),-107,81,-7,0,23,450f06,24741,1280,REGISTERED,CONNECTED,CS_PS_MODE1,18,0,1703774,377451851,1273503478,255050,-1146
20220831T051536,2600,5,10,149(0x95),-107,81,-7,0,22,450f06,24741,1280,REGISTERED,CONNECTED,CS_PS_MODE1,18,0,1705772,377451847,1273503479,255060,-1136
20220831T051538,2600,5,10,149(0x95),-107,81,-7,0,23,450f06,24741,1280,REGISTERED,CONNECTED,CS_PS_MODE1,18,0,1707772,377451844,1273503478,255090,-1108
20220831T051541,2600,5,10,149(0x95),-107,81,-7,0,23,450f06,24741,1280,REGISTERED,CONNECTED,CS_PS_MODE1,18,0,1710769,377451835,1273503478,255120,-1076
20220831T051543,2600,5,10,149(0x95),-107,81,-7,0,22,450f06,24741,1280,REGISTERED,CONNECTED,CS_PS_MODE1,18,0,1712766,377451828,1273503478,255120,-1079
20220831T051545,2600,5,10,149(0x95),-107,81,-7,0,22,450f06,24741,1280,REGISTERED,CONNECTED,CS_PS_MODE1,18,0,1714764,377451822,1273503479,255140,-1050
20220831T051547,2600,5,10,149(0x95),-107,81,-7,0,23,450f06,24741,1280,REGISTERED,CONNECTED,CS_PS_MODE1,18,0,1716762,377451822,1273503479,255110,-1084
20220831T051549,2600,5,10,149(0x95),-107,81,-7,0,23,450f06,24741,1280,REGISTERED,CONNECTED,CS_PS_MODE1,18,0,1718759,377451825,1273503480,255120,-1077
20220831T051551,2600,5,10,149(0x95),-107,81,-7,0,23,450f06,24741,1280,REGISTERED,CONNECTED,CS_PS_MODE1,18,0,1720759,377451828,1273503480,255080,-1116
