ct,earfcn_dl,earfcn_ul,rf_state,band,bandwidth,plmn,tac,cell_id,esm_cause,drx,rsrp,rsrq,rssi,l2w,ri,cqi,status,sub_status,rrc,svc,sinr,tx_pwr,tmsi,ip,avg_rsrp,antbar,imsi,missdn,time_boot_ms,lat,lon,alt,vx,vy,vz,hdg,relative_alt
20220901T093733,2500,20500,RXTX,5,10,45005,1810,148922-31(273),0,640,-65,-6,-40,-,0,0,SRV/REGISTERED,NORMAL_SERVICE,CONNECTED,CS_PS,30,0,dfc44192,27.172.151.250,-65,4,4.50E+14,1227091531,206464,379531314,1287700393,3300,0,0,0,65535,471
20220901T093735,2500,20500,RXTX,5,10,45005,1810,148922-31(273),0,640,-65,-6,-40,-,0,0,SRV/REGISTERED,NORMAL_SERVICE,CONNECTED,CS_PS,25.8,-22,dfc44192,27.172.151.250,-65,4,4.50E+14,1227091531,208461,379531312,1287700389,3350,0,0,0,65535,525
20220901T093738,2500,20500,RXTX,5,10,45005,1810,148922-31(273),0,640,-65,-6,-40,-,0,0,SRV/REGISTERED,NORMAL_SERVICE,CONNECTED,CS_PS,30,-20,dfc44192,27.172.151.250,-65,4,4.50E+14,1227091531,210792,379531309,1287700382,3390,0,0,0,65535,560
20220901T093740,2500,20500,RXTX,5,10,45005,1810,148922-31(273),0,640,-65,-6,-40,-,0,0,SRV/REGISTERED,NORMAL_SERVICE,CONNECTED,CS_PS,30,-14,dfc44192,27.172.151.250,-65,4,4.50E+14,1227091531,212792,379531305,1287700373,3360,0,0,0,65535,539
20220901T093742,2500,20500,RXTX,5,10,45005,1810,148922-31(273),0,640,-65,-6,-40,-,0,0,SRV/REGISTERED,NORMAL_SERVICE,CONNECTED,CS_PS,30,-20,dfc44192,27.172.151.250,-65,4,4.50E+14,1227091531,215122,379531301,1287700365,3380,0,0,0,65535,555
20220901T093744,2500,20500,RXTX,5,10,45005,1810,148922-31(273),0,640,-65,-6,-40,-,0,0,SRV/REGISTERED,NORMAL_SERVICE,CONNECTED,CS_PS,28,0,dfc44192,27.172.151.250,-65,4,4.50E+14,1227091531,217119,379531299,1287700357,3400,0,0,0,65535,575
20220901T093746,2500,20500,RXTX,5,10,45005,1810,148922-31(273),0,640,-65,-6,-40,-,0,0,SRV/REGISTERED,NORMAL_SERVICE,CONNECTED,CS_PS,28,0,dfc44192,27.172.151.250,-65,4,4.50E+14,1227091531,219450,379531298,1287700348,3410,0,0,0,65535,580
20220901T093748,2500,20500,RXTX,5,10,45005,1810,148922-31(273),0,640,-65,-6,-40,-,0,0,SRV/REGISTERED,NORMAL_SERVICE,CONNECTED,CS_PS,30,0,dfc44192,27.172.151.250,-65,4,4.50E+14,1227091531,221450,379531298,1287700341,3410,0,0,0,65535,585
20220901T093750,2500,20500,RXTX,5,10,45005,1810,148922-31(273),0,640,-65,-6,-40,-,0,0,SRV/REGISTERED,NORMAL_SERVICE,CONNECTED,CS_PS,30,-20,dfc44192,27.172.151.250,-65,4,4.50E+14,1227091531,223447,379531294,1287700332,3360,0,0,0,65535,538
20220901T093753,2500,20500,RXTX,5,10,45005,1810,148922-31(273),0,640,-65,-6,-40,-,0,0,SRV/REGISTERED,NORMAL_SERVICE,CONNECTED,CS_PS,30,-8,dfc44192,27.172.151.250,-65,4,4.50E+14,1227091531,225779,379531291,1287700327,3400,0,0,0,65535,575
20220901T093755,2500,20500,RXTX,5,10,45005,1810,148922-31(273),0,640,-65,-6,-40,-,0,0,SRV/REGISTERED,NORMAL_SERVICE,CONNECTED,CS_PS,30,-20,dfc44192,27.172.151.250,-65,4,4.50E+14,1227091531,227776,379531287,1287700327,3410,0,0,0,65535,585
20220901T093757,2500,20500,RXTX,5,10,45005,1810,148922-31(273),0,640,-65,-6,-40,-,0,0,SRV/REGISTERED,NORMAL_SERVICE,CONNECTED,CS_PS,27,-17,dfc44192,27.172.151.250,-65,4,4.50E+14,1227091531,230107,379531286,1287700327,3410,0,0,0,65535,584
20220901T093759,2500,20500,RXTX,5,10,45005,1810,148922-31(273),0,640,-65,-6,-40,-,0,0,SRV/REGISTERED,NORMAL_SERVICE,CONNECTED,CS_PS,30,0,dfc44192,27.172.151.250,-65,4,4.50E+14,1227091531,232104,379531286,1287700327,3430,0,0,0,65535,606
20220901T093801,2500,20500,RXTX,5,10,45005,1810,148922-31(273),0,640,-65,-6,-40,-,0,0,SRV/REGISTERED,NORMAL_SERVICE,CONNECTED,CS_PS,30,-17,dfc44192,27.172.151.250,-65,4,4.50E+14,1227091531,234437,379531287,1287700326,3370,0,0,0,65535,546
20220901T093803,2500,20500,RXTX,5,10,45005,1810,148922-31(273),0,640,-65,-6,-40,-,0,0,SRV/REGISTERED,NORMAL_SERVICE,CONNECTED,CS_PS,30,-20,dfc44192,27.172.151.250,-65,4,4.50E+14,1227091531,236434,379531287,1287700328,3370,0,0,0,65535,548
20220901T093805,2500,20500,RXTX,5,10,45005,1810,148922-31(273),0,640,-65,-6,-40,-,0,0,SRV/REGISTERED,NORMAL_SERVICE,CONNECTED,CS_PS,30,-20,dfc44192,27.172.151.250,-65,4,4.50E+14,1227091531,238432,379531289,1287700329,3420,0,0,0,65535,595
20220901T093808,2500,20500,RXTX,5,10,45005,1810,148922-31(273),0,640,-65,-6,-40,-,0,0,SRV/REGISTERED,NORMAL_SERVICE,CONNECTED,CS_PS,30,-20,dfc44192,27.172.151.250,-65,4,4.50E+14,1227091531,240762,379531293,1287700330,3440,0,0,0,65535,619
20220901T093810,2500,20500,RXTX,5,10,45005,1810,148922-31(273),0,640,-65,-6,-40,-,0,0,SRV/REGISTERED,NORMAL_SERVICE,CONNECTED,CS_PS,30,-20,dfc44192,27.172.151.250,-65,4,4.50E+14,1227091531,242762,379531297,1287700333,3390,0,0,0,65535,569
20220901T093812,2500,20500,RXTX,5,10,45005,1810,148922-31(273),0,640,-65,-6,-40,-,0,0,SRV/REGISTERED,NORMAL_SERVICE,CONNECTED,CS_PS,30,-8,dfc44192,27.172.151.250,-65,4,4.50E+14,1227091531,245092,379531300,1287700337,3400,0,0,0,65535,571
20220901T093814,2500,20500,RXTX,5,10,45005,1810,148922-31(273),0,640,-65,-6,-40,-,0,0,SRV/REGISTERED,NORMAL_SERVICE,CONNECTED,CS_PS,30,-19,dfc44192,27.172.151.250,-65,4,4.50E+14,1227091531,247089,379531305,1287700341,3410,0,0,0,65535,589
20220901T093816,2500,20500,RXTX,5,10,45005,1810,148922-31(273),0,640,-65,-6,-40,-,0,0,SRV/REGISTERED,NORMAL_SERVICE,CONNECTED,CS_PS,30,-20,dfc44192,27.172.151.250,-65,4,4.50E+14,1227091531,249421,379531308,1287700346,3410,0,0,0,65535,581
20220901T093818,2500,20500,RXTX,5,10,45005,1810,148922-31(273),0,640,-65,-6,-40,-,0,0,SRV/REGISTERED,NORMAL_SERVICE,CONNECTED,CS_PS,30,-15,dfc44192,27.172.151.250,-65,4,4.50E+14,1227091531,251419,379531312,1287700353,3350,0,0,0,65535,529
20220901T093820,2500,20500,RXTX,5,10,45005,1810,148922-31(273),0,640,-65,-6,-40,-,0,0,SRV/REGISTERED,NORMAL_SERVICE,CONNECTED,CS_PS,30,-19,dfc44192,27.172.151.250,-65,4,4.50E+14,1227091531,253417,379531316,1287700357,3370,0,0,0,65535,549
20220901T093823,2500,20500,RXTX,5,10,45005,1810,148922-31(273),0,640,-65,-6,-40,-,0,0,SRV/REGISTERED,NORMAL_SERVICE,CONNECTED,CS_PS,30,-4,dfc44192,27.172.151.250,-65,4,4.50E+14,1227091531,255749,379531322,1287700362,3400,0,0,0,65535,571
20220901T093825,2500,20500,RXTX,5,10,45005,1810,148922-31(273),0,640,-65,-6,-40,-,0,0,SRV/REGISTERED,NORMAL_SERVICE,CONNECTED,CS_PS,30,-19,dfc44192,27.172.151.250,-65,4,4.50E+14,1227091531,257746,379531327,1287700367,3350,0,0,0,65535,521
20220901T093827,2500,20500,RXTX,5,10,45005,1810,148922-31(273),0,640,-65,-6,-40,-,0,0,SRV/REGISTERED,NORMAL_SERVICE,CONNECTED,CS_PS,30,-20,dfc44192,27.172.151.250,-65,4,4.50E+14,1227091531,260077,379531335,1287700373,3390,0,0,0,65535,562
20220901T093829,2500,20500,RXTX,5,10,45005,1810,148922-31(273),0,640,-65,-6,-40,-,0,0,SRV/REGISTERED,NORMAL_SERVICE,CONNECTED,CS_PS,30,0,dfc44192,27.172.151.250,-65,4,4.50E+14,1227091531,262074,379531338,1287700375,3360,0,0,0,65535,534
20220901T093831,2500,20500,RXTX,5,10,45005,1810,148922-31(273),0,640,-65,-6,-40,-,0,0,SRV/REGISTERED,NORMAL_SERVICE,CONNECTED,CS_PS,30,-14,dfc44192,27.172.151.250,-65,4,4.50E+14,1227091531,264407,379531343,1287700380,3380,0,0,0,65535,552
20220901T093833,2500,20500,RXTX,5,10,45005,1810,148922-31(273),0,640,-65,-6,-40,-,0,0,SRV/REGISTERED,NORMAL_SERVICE,CONNECTED,CS_PS,30,-19,dfc44192,27.172.151.250,-65,4,4.50E+14,1227091531,266404,379531345,1287700385,3400,0,0,0,65535,573
20220901T093835,2500,20500,RXTX,5,10,45005,1810,148922-31(273),0,640,-65,-6,-40,-,0,0,SRV/REGISTERED,NORMAL_SERVICE,CONNECTED,CS_PS,30,-20,dfc44192,27.172.151.250,-65,4,4.50E+14,1227091531,268734,379531346,1287700391,3410,0,0,0,65535,589
20220901T093838,2500,20500,RXTX,5,10,45005,1810,148922-31(273),0,640,-65,-6,-40,-,0,0,SRV/REGISTERED,NORMAL_SERVICE,CONNECTED,CS_PS,30,-15,dfc44192,27.172.151.250,-65,4,4.50E+14,1227091531,270732,379531345,1287700397,3430,0,0,0,65535,603
20220901T093840,2500,20500,RXTX,5,10,45005,1810,148922-31(273),0,640,-65,-6,-40,-,0,0,SRV/REGISTERED,NORMAL_SERVICE,CONNECTED,CS_PS,30,-19,dfc44192,27.172.151.250,-65,4,4.50E+14,1227091531,272732,379531344,1287700404,3400,0,0,0,65535,574
20220901T093842,2500,20500,RXTX,5,10,45005,1810,148922-31(273),0,640,-65,-6,-40,-,0,0,SRV/REGISTERED,NORMAL_SERVICE,CONNECTED,CS_PS,27.6,-18,dfc44192,27.172.151.250,-65,4,4.50E+14,1227091531,275061,379531340,1287700407,3360,0,0,0,65535,530
20220901T093844,2500,20500,RXTX,5,10,45005,1810,148922-31(273),0,640,-65,-6,-40,-,0,0,SRV/REGISTERED,NORMAL_SERVICE,CONNECTED,CS_PS,30,-20,dfc44192,27.172.151.250,-65,4,4.50E+14,1227091531,277060,379531339,1287700410,3310,0,0,0,65535,483
20220901T093846,2500,20500,RXTX,5,10,45005,1810,148922-31(273),0,640,-65,-6,-40,-,0,0,SRV/REGISTERED,NORMAL_SERVICE,CONNECTED,CS_PS,30,-19,dfc44192,27.172.151.250,-65,4,4.50E+14,1227091531,279392,379531340,1287700418,3310,0,0,0,65535,482
20220901T093848,2500,20500,RXTX,5,10,45005,1810,148922-31(273),0,640,-65,-6,-40,-,0,0,SRV/REGISTERED,NORMAL_SERVICE,CONNECTED,CS_PS,30,-19,dfc44192,27.172.151.250,-65,4,4.50E+14,1227091531,281389,379531342,1287700425,3390,0,0,0,65535,562
20220901T093850,2500,20500,RXTX,5,10,45005,1810,148922-31(273),0,640,-65,-6,-40,-,0,0,SRV/REGISTERED,NORMAL_SERVICE,CONNECTED,CS_PS,29.6,-19,dfc44192,27.172.151.250,-65,4,4.50E+14,1227091531,283719,379531343,1287700430,3370,0,0,0,65535,540
20220901T093853,2500,20500,RXTX,5,10,45005,1810,148922-31(273),0,640,-65,-6,-40,-,0,0,SRV/REGISTERED,NORMAL_SERVICE,CONNECTED,CS_PS,27,-14,dfc44192,27.172.151.250,-65,4,4.50E+14,1227091531,285717,379531345,1287700437,3370,0,0,0,65535,544
20220901T093855,2500,20500,RXTX,5,10,45005,1810,148922-31(273),0,640,-65,-6,-40,-,0,0,SRV/REGISTERED,NORMAL_SERVICE,CONNECTED,CS_PS,27,-20,dfc44192,27.172.151.250,-65,4,4.50E+14,1227091531,288049,379531345,1287700441,3360,0,0,0,65535,536
20220901T093857,2500,20500,RXTX,5,10,45005,1810,148922-31(273),0,640,-65,-6,-40,-,0,0,SRV/REGISTERED,NORMAL_SERVICE,CONNECTED,CS_PS,30,-20,dfc44192,27.172.151.250,-65,4,4.50E+14,1227091531,290047,379531346,1287700442,3350,0,0,0,65535,528
20220901T093859,2500,20500,RXTX,5,10,45005,1810,148922-31(273),0,640,-65,-6,-40,-,0,0,SRV/REGISTERED,NORMAL_SERVICE,CONNECTED,CS_PS,30,-20,dfc44192,27.172.151.250,-65,4,4.50E+14,1227091531,292045,379531347,1287700443,3350,0,0,0,65535,523
20220901T093901,2500,20500,RXTX,5,10,45005,1810,148922-31(273),0,640,-65,-6,-40,-,0,0,SRV/REGISTERED,NORMAL_SERVICE,CONNECTED,CS_PS,30,-7,dfc44192,27.172.151.250,-65,4,4.50E+14,1227091531,294377,379531347,1287700444,3330,0,0,0,65535,503
20220901T093903,2500,20500,RXTX,5,10,45005,1810,148922-31(273),0,640,-65,-6,-40,-,0,0,SRV/REGISTERED,NORMAL_SERVICE,CONNECTED,CS_PS,29.6,-20,dfc44192,27.172.151.250,-65,4,4.50E+14,1227091531,296374,379531347,1287700443,3330,0,0,0,65535,506
20220901T093905,2500,20500,RXTX,5,10,45005,1810,148922-31(273),0,640,-65,-6,-40,-,0,0,SRV/REGISTERED,NORMAL_SERVICE,CONNECTED,CS_PS,30,-19,dfc44192,27.172.151.250,-65,4,4.50E+14,1227091531,298704,379531347,1287700440,3320,0,0,0,65535,492
20220901T093908,2500,20500,RXTX,5,10,45005,1810,148922-31(273),0,640,-65,-6,-40,-,0,0,SRV/REGISTERED,NORMAL_SERVICE,CONNECTED,CS_PS,30,-19,dfc44192,27.172.151.250,-65,4,4.50E+14,1227091531,300704,379531347,1287700435,3350,0,0,0,65535,521
20220901T093910,2500,20500,RXTX,5,10,45005,1810,148922-31(273),0,640,-65,-6,-40,-,0,0,SRV/REGISTERED,NORMAL_SERVICE,CONNECTED,CS_PS,30,0,dfc44192,27.172.151.250,-65,4,4.50E+14,1227091531,303034,379531347,1287700430,3320,0,0,0,65535,493
20220901T093912,2500,20500,RXTX,5,10,45005,1810,148922-31(273),0,640,-65,-6,-40,-,0,0,SRV/REGISTERED,NORMAL_SERVICE,CONNECTED,CS_PS,30,-21,dfc44192,27.172.151.250,-65,4,4.50E+14,1227091531,305032,379531344,1287700424,3340,0,0,0,65535,515
20220901T093914,2500,20500,RXTX,5,10,45005,1810,148922-31(273),0,640,-65,-6,-40,-,0,0,SRV/REGISTERED,NORMAL_SERVICE,CONNECTED,CS_PS,30,-20,dfc44192,27.172.151.250,-65,4,4.50E+14,1227091531,307029,379531344,1287700422,3320,0,0,0,65535,497
20220901T093916,2500,20500,RXTX,5,10,45005,1810,148922-31(273),0,640,-65,-6,-40,-,0,0,SRV/REGISTERED,NORMAL_SERVICE,CONNECTED,CS_PS,30,-20,dfc44192,27.172.151.250,-65,4,4.50E+14,1227091531,309361,379531345,1287700420,3360,0,0,0,65535,534
20220901T093918,2500,20500,RXTX,5,10,45005,1810,148922-31(273),0,640,-65,-6,-40,-,0,0,SRV/REGISTERED,NORMAL_SERVICE,CONNECTED,CS_PS,28.8,-20,dfc44192,27.172.151.250,-65,4,4.50E+14,1227091531,311359,379531345,1287700415,3310,0,0,0,65535,487
20220901T093920,2500,20500,RXTX,5,10,45005,1810,148922-31(273),0,640,-65,-6,-40,-,0,0,SRV/REGISTERED,NORMAL_SERVICE,CONNECTED,CS_PS,30,-20,dfc44192,27.172.151.250,-65,4,4.50E+14,1227091531,313689,379531346,1287700413,3290,0,0,0,65535,463
20220901T093923,2500,20500,RXTX,5,10,45005,1810,148922-31(273),0,640,-65,-6,-40,-,0,0,SRV/REGISTERED,NORMAL_SERVICE,CONNECTED,CS_PS,26.4,-21,dfc44192,27.172.151.250,-65,4,4.50E+14,1227091531,315689,379531349,1287700411,3330,0,0,0,65535,503
20220901T093925,2500,20500,RXTX,5,10,45005,1810,148922-31(273),0,640,-65,-6,-40,-,0,0,SRV/REGISTERED,NORMAL_SERVICE,CONNECTED,CS_PS,26.4,0,dfc44192,27.172.151.250,-65,4,4.50E+14,1227091531,317686,379531355,1287700410,3340,0,0,0,65535,516
20220901T093927,2500,20500,RXTX,5,10,45005,1810,148922-31(273),0,640,-65,-6,-40,-,0,0,SRV/REGISTERED,NORMAL_SERVICE,CONNECTED,CS_PS,27.4,-14,dfc44192,27.172.151.250,-65,4,4.50E+14,1227091531,320017,379531361,1287700410,3370,0,0,0,65535,540
20220901T093929,2500,20500,RXTX,5,10,45005,1810,148922-31(273),0,640,-65,-6,-40,-,0,0,SRV/REGISTERED,NORMAL_SERVICE,CONNECTED,CS_PS,30,-21,dfc44192,27.172.151.250,-65,4,4.50E+14,1227091531,322014,379531367,1287700412,3420,0,0,0,65535,596
20220901T093931,2500,20500,RXTX,5,10,45005,1810,148922-31(273),0,640,-65,-6,-40,-,0,0,SRV/REGISTERED,NORMAL_SERVICE,CONNECTED,CS_PS,30,-7,dfc44192,27.172.151.250,-65,4,4.50E+14,1227091531,324347,379531372,1287700416,3380,0,0,0,65535,559
20220901T093933,2500,20500,RXTX,5,10,45005,1810,148922-31(273),0,640,-65,-6,-40,-,0,0,SRV/REGISTERED,NORMAL_SERVICE,CONNECTED,CS_PS,30,-14,dfc44192,27.172.151.250,-65,4,4.50E+14,1227091531,326344,379531374,1287700420,3370,0,0,0,65535,545
20220901T093935,2500,20500,RXTX,5,10,45005,1810,148922-31(273),0,640,-65,-6,-40,-,0,0,SRV/REGISTERED,NORMAL_SERVICE,CONNECTED,CS_PS,27,-20,dfc44192,27.172.151.250,-65,4,4.50E+14,1227091531,328674,379531375,1287700421,3340,0,0,0,65535,514
20220901T093938,2500,20500,RXTX,5,10,45005,1810,148922-31(273),0,640,-65,-6,-40,-,0,0,SRV/REGISTERED,NORMAL_SERVICE,CONNECTED,CS_PS,30,-13,dfc44192,27.172.151.250,-65,4,4.50E+14,1227091531,330674,379531375,1287700422,3280,0,0,0,65535,454
20220901T093940,2500,20500,RXTX,5,10,45005,1810,148922-31(273),0,640,-65,-6,-40,-,0,0,SRV/REGISTERED,NORMAL_SERVICE,CONNECTED,CS_PS,30,-19,dfc44192,27.172.151.250,-65,4,4.50E+14,1227091531,332674,379531377,1287700421,3260,0,0,0,65535,438
20220901T093942,2500,20500,RXTX,5,10,45005,1810,148922-31(273),0,640,-65,-6,-40,-,0,0,SRV/REGISTERED,NORMAL_SERVICE,CONNECTED,CS_PS,30,-8,dfc44192,27.172.151.250,-65,4,4.50E+14,1227091531,335001,379531378,1287700422,3280,0,0,0,65535,458
20220901T093944,2500,20500,RXTX,5,10,45005,1810,148922-31(273),0,640,-65,-6,-40,-,0,0,SRV/REGISTERED,NORMAL_SERVICE,CONNECTED,CS_PS,28.4,-13,dfc44192,27.172.151.250,-65,4,4.50E+14,1227091531,336999,379531377,1287700421,3250,0,0,0,65535,427
20220901T093946,2500,20500,RXTX,5,10,45005,1810,148922-31(273),0,640,-65,-6,-40,-,0,0,SRV/REGISTERED,NORMAL_SERVICE,CONNECTED,CS_PS,28.4,-19,dfc44192,27.172.151.250,-65,4,4.50E+14,1227091531,339332,379531413,1287700458,3790,0,0,0,65535,966
20220901T093948,2500,20500,RXTX,5,10,45005,1810,148922-31(273),0,640,-65,-6,-40,-,0,0,SRV/REGISTERED,NORMAL_SERVICE,CONNECTED,CS_PS,25.2,-33,dfc44192,27.172.151.250,-65,4,4.50E+14,1227091531,341329,379531667,1287700418,4010,0,0,0,65535,1187
20220901T093950,2500,20500,RXTX,5,10,45005,1810,148922-31(273),0,640,-65,-6,-40,-,0,0,SRV/REGISTERED,NORMAL_SERVICE,CONNECTED,CS_PS,30,-22,dfc44192,27.172.151.250,-65,4,4.50E+14,1227091531,343659,379531871,1287700372,3870,0,0,0,65535,1046
20220901T093952,2500,20500,RXTX,5,10,45005,1810,148922-31(273),0,640,-65,-6,-40,-,0,0,SRV/REGISTERED,NORMAL_SERVICE,CONNECTED,CS_PS,30,-20,dfc44192,27.172.151.250,-65,4,4.50E+14,1227091531,345657,379531875,1287700399,3390,0,0,0,65535,566
20220901T093955,2500,20500,RXTX,5,10,45005,1810,148922-31(273),0,640,-65,-6,-40,-,0,0,SRV/REGISTERED,NORMAL_SERVICE,CONNECTED,CS_PS,30,-19,dfc44192,27.172.151.250,-65,4,4.50E+14,1227091531,347657,379531881,1287700391,3420,0,0,0,65535,596
20220901T093957,2500,20500,RXTX,5,10,45005,1810,148922-31(273),0,640,-65,-6,-40,-,0,0,SRV/REGISTERED,NORMAL_SERVICE,CONNECTED,CS_PS,30,-20,dfc44192,27.172.151.250,-65,4,4.50E+14,1227091531,349986,379531889,1287700394,3430,0,0,0,65535,604
20220901T093959,2500,20500,RXTX,5,10,45005,1810,148922-31(273),0,640,-65,-6,-40,-,0,0,SRV/REGISTERED,NORMAL_SERVICE,CONNECTED,CS_PS,30,-19,dfc44192,27.172.151.250,-65,4,4.50E+14,1227091531,351984,379531895,1287700396,3410,0,0,0,65535,587
20220901T094001,2500,20500,RXTX,5,10,45005,1810,148922-31(273),0,640,-65,-6,-40,-,0,0,SRV/REGISTERED,NORMAL_SERVICE,CONNECTED,CS_PS,30,-19,dfc44192,27.172.151.250,-65,4,4.50E+14,1227091531,354317,379531902,1287700397,3370,0,0,0,65535,549
20220901T094003,2500,20500,RXTX,5,10,45005,1810,148922-31(273),0,640,-65,-6,-40,-,0,0,SRV/REGISTERED,NORMAL_SERVICE,CONNECTED,CS_PS,30,-13,dfc44192,27.172.151.250,-65,4,4.50E+14,1227091531,356314,379531907,1287700397,3350,0,0,0,65535,521
20220901T094005,2500,20500,RXTX,5,10,45005,1810,148922-31(273),0,640,-65,-6,-40,-,0,0,SRV/REGISTERED,NORMAL_SERVICE,CONNECTED,CS_PS,30,-19,dfc44192,27.172.151.250,-65,4,4.50E+14,1227091531,358645,379531910,1287700395,3360,0,0,0,65535,538
20220901T094007,2500,20500,RXTX,5,10,45005,1810,148922-31(273),0,640,-65,-6,-40,-,0,0,SRV/REGISTERED,NORMAL_SERVICE,CONNECTED,CS_PS,30,-8,dfc44192,27.172.151.250,-65,4,4.50E+14,1227091531,360642,379531915,1287700395,3390,0,0,0,65535,564
20220901T094010,2500,20500,RXTX,5,10,45005,1810,148922-31(273),0,640,-65,-6,-40,-,0,0,SRV/REGISTERED,NORMAL_SERVICE,CONNECTED,CS_PS,30,-17,dfc44192,27.172.151.250,-65,4,4.50E+14,1227091531,362642,379531916,1287700395,3330,0,0,0,65535,504
20220901T094012,2500,20500,RXTX,5,10,45005,1810,148922-31(273),0,640,-65,-6,-40,-,0,0,SRV/REGISTERED,NORMAL_SERVICE,CONNECTED,CS_PS,30,-19,dfc44192,27.172.151.250,-65,4,4.50E+14,1227091531,364972,379531917,1287700398,3330,0,0,0,65535,502
20220901T094014,2500,20500,RXTX,5,10,45005,1810,148922-31(273),0,640,-65,-11,-40,-,0,0,SRV/REGISTERED,NORMAL_SERVICE,CONNECTED,CS_PS,28.2,-12,dfc44192,27.172.151.250,-65,4,4.50E+14,1227091531,366969,379531916,1287700400,3380,0,0,0,65535,557
20220901T094016,2500,20500,RXTX,5,10,45005,1810,148922-31(273),0,640,-65,-11,-40,-,0,0,SRV/REGISTERED,NORMAL_SERVICE,CONNECTED,CS_PS,28.2,-4,dfc44192,27.172.151.250,-65,4,4.50E+14,1227091531,369301,379531913,1287700403,3380,0,0,0,65535,557
20220901T094018,2500,20500,RXTX,5,10,45005,1810,148922-31(273),0,640,-65,-11,-40,-,0,0,SRV/REGISTERED,NORMAL_SERVICE,CONNECTED,CS_PS,30,-16,dfc44192,27.172.151.250,-65,4,4.50E+14,1227091531,371299,379531909,1287700404,3410,0,0,0,65535,582
20220901T094020,2500,20500,RXTX,5,10,45005,1810,148922-31(273),0,640,-65,-11,-40,-,0,0,SRV/REGISTERED,NORMAL_SERVICE,CONNECTED,CS_PS,30,-17,dfc44192,27.172.151.250,-65,4,4.50E+14,1227091531,373629,379531907,1287700406,3370,0,0,0,65535,543
20220901T094023,2500,20500,RXTX,5,10,45005,1810,148922-31(273),0,640,-65,-11,-40,-,0,0,SRV/REGISTERED,NORMAL_SERVICE,CONNECTED,CS_PS,30,-19,dfc44192,27.172.151.250,-65,4,4.50E+14,1227091531,375629,379531908,1287700407,3360,0,0,0,65535,530
20220901T094025,2500,20500,RXTX,5,10,45005,1810,148922-31(273),0,640,-65,-6,-40,-,0,0,SRV/REGISTERED,NORMAL_SERVICE,CONNECTED,CS_PS,30,0,dfc44192,27.172.151.250,-65,4,4.50E+14,1227091531,377626,379531907,1287700410,3380,0,0,0,65535,557
20220901T094027,2500,20500,RXTX,5,10,45005,1810,148922-31(273),0,640,-65,-6,-40,-,0,0,SRV/REGISTERED,NORMAL_SERVICE,CONNECTED,CS_PS,30,-12,dfc44192,27.172.151.250,-65,4,4.50E+14,1227091531,379957,379531907,1287700414,3350,0,0,0,65535,525
20220901T094029,2500,20500,RXTX,5,10,45005,1810,148922-31(273),0,640,-65,-6,-40,-,0,0,SRV/REGISTERED,NORMAL_SERVICE,CONNECTED,CS_PS,30,-19,dfc44192,27.172.151.250,-65,4,4.50E+14,1227091531,381954,379531906,1287700414,3370,0,0,0,65535,543
20220901T094031,2500,20500,RXTX,5,10,45005,1810,148922-31(273),0,640,-65,-6,-40,-,0,0,SRV/REGISTERED,NORMAL_SERVICE,CONNECTED,CS_PS,30,-13,dfc44192,27.172.151.250,-65,4,4.50E+14,1227091531,384286,379531908,1287700412,3370,0,0,0,65535,543
20220901T094033,2500,20500,RXTX,5,10,45005,1810,148922-31(273),0,640,-65,-6,-40,-,0,0,SRV/REGISTERED,NORMAL_SERVICE,CONNECTED,CS_PS,30,-17,dfc44192,27.172.151.250,-65,4,4.50E+14,1227091531,386284,379531909,1287700405,3340,0,0,0,65535,516
20220901T094035,2500,20500,RXTX,5,10,45005,1810,148922-31(273),0,640,-65,-6,-40,-,0,0,SRV/REGISTERED,NORMAL_SERVICE,CONNECTED,CS_PS,30,-12,dfc44192,27.172.151.250,-65,4,4.50E+14,1227091531,388282,379531910,1287700401,3350,0,0,0,65535,525
20220901T094037,2500,20500,RXTX,5,10,45005,1810,148922-31(273),0,640,-65,-6,-40,-,0,0,SRV/REGISTERED,NORMAL_SERVICE,CONNECTED,CS_PS,30,-17,dfc44192,27.172.151.250,-65,4,4.50E+14,1227091531,390614,379531911,1287700397,3370,0,0,0,65535,547
20220901T094040,2500,20500,RXTX,5,10,45005,1810,148922-31(273),0,640,-65,-6,-40,-,0,0,SRV/REGISTERED,NORMAL_SERVICE,CONNECTED,CS_PS,30,-17,dfc44192,27.172.151.250,-65,4,4.50E+14,1227091531,392611,379531912,1287700392,3360,0,0,0,65535,539
20220901T094042,2500,20500,RXTX,5,10,45005,1810,148922-31(273),0,640,-65,-6,-40,-,0,0,SRV/REGISTERED,NORMAL_SERVICE,CONNECTED,CS_PS,30,-18,dfc44192,27.172.151.250,-65,4,4.50E+14,1227091531,394942,379531903,1287700461,3780,0,0,0,65535,950
20220901T094044,2500,20500,RXTX,5,10,45005,1810,148922-31(273),0,640,-65,-6,-40,-,0,0,SRV/REGISTERED,NORMAL_SERVICE,CONNECTED,CS_PS,30,-24,dfc44192,27.172.151.250,-65,4,4.50E+14,1227091531,396939,379531910,1287700773,3540,0,0,0,65535,714
20220901T094046,2500,20500,RXTX,5,10,45005,1810,148922-31(273),0,640,-65,-6,-40,-,0,0,SRV/REGISTERED,NORMAL_SERVICE,CONNECTED,CS_PS,30,0,dfc44192,27.172.151.250,-65,4,4.50E+14,1227091531,399272,379531934,1287700784,3260,0,0,0,65535,431
20220901T094048,2500,20500,RXTX,5,10,45005,1810,148922-31(273),0,640,-65,-6,-40,-,0,0,SRV/REGISTERED,NORMAL_SERVICE,CONNECTED,CS_PS,30,-19,dfc44192,27.172.151.250,-65,4,4.50E+14,1227091531,401269,379531936,1287700785,3310,0,0,0,65535,485
20220901T094050,2500,20500,RXTX,5,10,45005,1810,148922-31(273),0,640,-65,-6,-40,-,0,0,SRV/REGISTERED,NORMAL_SERVICE,CONNECTED,CS_PS,30,-13,dfc44192,27.172.151.250,-65,4,4.50E+14,1227091531,403267,379531937,1287700785,3300,0,0,0,65535,479
20220901T094052,2500,20500,RXTX,5,10,45005,1810,148922-31(273),0,640,-65,-6,-40,-,0,0,SRV/REGISTERED,NORMAL_SERVICE,CONNECTED,CS_PS,30,-19,dfc44192,27.172.151.250,-65,4,4.50E+14,1227091531,405597,379532099,1287700616,4020,0,0,0,65535,1193
20220901T094055,2500,20500,RXTX,5,10,45005,1810,148922-31(273),0,640,-65,-6,-40,-,0,0,SRV/REGISTERED,NORMAL_SERVICE,CONNECTED,CS_PS,29,-13,dfc44192,27.172.151.250,-65,4,4.50E+14,1227091531,407597,379532236,1287700403,4080,0,0,0,65535,1256
20220901T094057,2500,20500,RXTX,5,10,45005,1810,148922-31(273),0,640,-65,-6,-40,-,0,0,SRV/REGISTERED,NORMAL_SERVICE,CONNECTED,CS_PS,19.2,-15,dfc44192,27.172.151.250,-65,4,4.50E+14,1227091531,409926,379532338,1287700107,4140,0,0,0,65535,1311
20220901T094059,2500,20500,RXTX,5,10,45005,1810,148922-31(273),0,640,-65,-6,-40,-,0,0,SRV/REGISTERED,NORMAL_SERVICE,CONNECTED,CS_PS,30,-20,dfc44192,27.172.151.250,-65,4,4.50E+14,1227091531,411924,379532170,1287699926,4010,0,0,0,65535,1189
20220901T094101,2500,20500,RXTX,5,10,45005,1810,148922-31(273),0,640,-65,-6,-40,-,0,0,SRV/REGISTERED,NORMAL_SERVICE,CONNECTED,CS_PS,30,-22,dfc44192,27.172.151.250,-65,4,4.50E+14,1227091531,414257,379532081,1287700022,3440,0,0,0,65535,612
20220901T094103,2500,20500,RXTX,5,10,45005,1810,148922-31(273),0,640,-65,-6,-40,-,0,0,SRV/REGISTERED,NORMAL_SERVICE,CONNECTED,CS_PS,27.4,-21,dfc44192,27.172.151.250,-65,4,4.50E+14,1227091531,416254,379532092,1287700008,3420,0,0,0,65535,593
20220901T094105,2500,20500,RXTX,5,10,45005,1810,148922-31(273),0,640,-70,-6,-40,-,0,0,SRV/REGISTERED,NORMAL_SERVICE,CONNECTED,CS_PS,28.2,0,dfc44192,27.172.151.250,-70,4,4.50E+14,1227091531,418251,379532087,1287700007,3450,0,0,0,65535,621
20220901T094107,2500,20500,RXTX,5,10,45005,1810,148922-31(273),0,640,-70,-6,-40,-,0,0,SRV/REGISTERED,NORMAL_SERVICE,CONNECTED,CS_PS,28.2,-15,dfc44192,27.172.151.250,-70,4,4.50E+14,1227091531,420582,379532085,1287700013,3470,0,0,0,65535,646
20220901T094110,2500,20500,RXTX,5,10,45005,1810,148922-31(273),0,640,-70,-6,-40,-,0,0,SRV/REGISTERED,NORMAL_SERVICE,CONNECTED,CS_PS,30,-15,dfc44192,27.172.151.250,-70,4,4.50E+14,1227091531,422582,379532087,1287700017,3440,0,0,0,65535,617
20220901T094112,2500,20500,RXTX,5,10,45005,1810,148922-31(273),0,640,-70,-6,-46,-,0,0,SRV/REGISTERED,NORMAL_SERVICE,CONNECTED,CS_PS,30,-18,dfc44192,27.172.151.250,-70,4,4.50E+14,1227091531,424911,379532093,1287700022,3410,0,0,0,65535,587
20220901T094114,2500,20500,RXTX,5,10,45005,1810,148922-31(273),0,640,-70,-6,-46,-,0,0,SRV/REGISTERED,NORMAL_SERVICE,CONNECTED,CS_PS,30,-22,dfc44192,27.172.151.250,-70,4,4.50E+14,1227091531,426909,379532095,1287700025,3450,0,0,0,65535,622
20220901T094116,2500,20500,RXTX,5,10,45005,1810,148922-31(273),0,640,-70,-6,-46,-,0,0,SRV/REGISTERED,NORMAL_SERVICE,CONNECTED,CS_PS,30,0,dfc44192,27.172.151.250,-70,4,4.50E+14,1227091531,428907,379532095,1287700026,3440,0,0,0,65535,615
20220901T094118,2500,20500,RXTX,5,10,45005,1810,148922-31(273),0,640,-70,-6,-46,-,0,0,SRV/REGISTERED,NORMAL_SERVICE,CONNECTED,CS_PS,29.8,-7,dfc44192,27.172.151.250,-70,4,4.50E+14,1227091531,431239,379532095,1287700029,3440,0,0,0,65535,613
20220901T094120,2500,20500,RXTX,5,10,45005,1810,148922-31(273),0,640,-70,-6,-46,-,0,0,SRV/REGISTERED,NORMAL_SERVICE,CONNECTED,CS_PS,30,-15,dfc44192,27.172.151.250,-70,4,4.50E+14,1227091531,433237,379532091,1287700029,3400,0,0,0,65535,575
20220901T094122,2500,20500,RXTX,5,10,45005,1810,148922-31(273),0,640,-70,-6,-46,-,0,0,SRV/REGISTERED,NORMAL_SERVICE,CONNECTED,CS_PS,30,-20,dfc44192,27.172.151.250,-70,4,4.50E+14,1227091531,435567,379532085,1287700028,3360,0,0,0,65535,531
20220901T094124,2500,20500,RXTX,5,10,45005,1810,148922-31(273),0,640,-70,-6,-46,-,0,0,SRV/REGISTERED,NORMAL_SERVICE,CONNECTED,CS_PS,30,-18,dfc44192,27.172.151.250,-70,4,4.50E+14,1227091531,437567,379532078,1287700029,3440,0,0,0,65535,613
20220901T094127,2500,20500,RXTX,5,10,45005,1810,148922-31(273),0,640,-70,-6,-46,-,0,0,SRV/REGISTERED,NORMAL_SERVICE,CONNECTED,CS_PS,26.8,-20,dfc44192,27.172.151.250,-70,4,4.50E+14,1227091531,439897,379532072,1287700026,3490,0,0,0,65535,660
20220901T094129,2500,20500,RXTX,5,10,45005,1810,148922-31(273),0,640,-70,-6,-46,-,0,0,SRV/REGISTERED,NORMAL_SERVICE,CONNECTED,CS_PS,29.8,0,dfc44192,27.172.151.250,-70,4,4.50E+14,1227091531,441894,379532065,1287700021,3500,0,0,0,65535,671
20220901T094131,2500,20500,RXTX,5,10,45005,1810,148922-31(273),0,640,-70,-6,-46,-,0,0,SRV/REGISTERED,NORMAL_SERVICE,CONNECTED,CS_PS,29.8,0,dfc44192,27.172.151.250,-70,4,4.50E+14,1227091531,444226,379532058,1287700014,3480,0,0,0,65535,652
20220901T094133,2500,20500,RXTX,5,10,45005,1810,148922-31(273),0,640,-70,-6,-46,-,0,0,SRV/REGISTERED,NORMAL_SERVICE,CONNECTED,CS_PS,25.8,-20,dfc44192,27.172.151.250,-70,4,4.50E+14,1227091531,446224,379532058,1287700008,3440,0,0,0,65535,618
20220901T094135,2500,20500,RXTX,5,10,45005,1810,148922-31(273),0,640,-70,-6,-46,-,0,0,SRV/REGISTERED,NORMAL_SERVICE,CONNECTED,CS_PS,30,-18,dfc44192,27.172.151.250,-70,4,4.50E+14,1227091531,448222,379532060,1287699998,3420,0,0,0,65535,593
20220901T094137,2500,20500,RXTX,5,10,45005,1810,148922-31(273),0,640,-70,-6,-46,-,0,0,SRV/REGISTERED,NORMAL_SERVICE,CONNECTED,CS_PS,30,-19,dfc44192,27.172.151.250,-70,4,4.50E+14,1227091531,450554,379532062,1287699986,3420,0,0,0,65535,598
20220901T094139,2500,20500,RXTX,5,10,45005,1810,148922-31(273),0,640,-70,-6,-46,-,0,0,SRV/REGISTERED,NORMAL_SERVICE,CONNECTED,CS_PS,30,-19,dfc44192,27.172.151.250,-70,4,4.50E+14,1227091531,452551,379532067,1287699976,3480,0,0,0,65535,652
20220901T094142,2500,20500,RXTX,5,10,45005,1810,148922-31(273),0,640,-70,-6,-46,-,0,0,SRV/REGISTERED,NORMAL_SERVICE,CONNECTED,CS_PS,30,0,dfc44192,27.172.151.250,-70,4,4.50E+14,1227091531,454882,379532071,1287699963,3460,0,0,0,65535,637
20220901T094144,2500,20500,RXTX,5,10,45005,1810,148922-31(273),0,640,-70,-6,-46,-,0,0,SRV/REGISTERED,NORMAL_SERVICE,CONNECTED,CS_PS,30,-18,dfc44192,27.172.151.250,-70,4,4.50E+14,1227091531,456879,379532077,1287699953,3480,0,0,0,65535,653
20220901T094146,2500,20500,RXTX,5,10,45005,1810,148922-31(273),0,640,-70,-6,-46,-,0,0,SRV/REGISTERED,NORMAL_SERVICE,CONNECTED,CS_PS,30,-21,dfc44192,27.172.151.250,-70,4,4.50E+14,1227091531,458879,379532082,1287699944,3480,0,0,0,65535,657
20220901T094148,2500,20500,RXTX,5,10,45005,1810,148922-31(273),0,640,-70,-6,-46,-,0,0,SRV/REGISTERED,NORMAL_SERVICE,CONNECTED,CS_PS,30,0,dfc44192,27.172.151.250,-70,4,4.50E+14,1227091531,461209,379532088,1287699937,3470,0,0,0,65535,642
20220901T094150,2500,20500,RXTX,5,10,45005,1810,148922-31(273),0,640,-70,-6,-46,-,0,0,SRV/REGISTERED,NORMAL_SERVICE,CONNECTED,CS_PS,29.2,-22,dfc44192,27.172.151.250,-70,4,4.50E+14,1227091531,463207,379532094,1287699929,3470,0,0,0,65535,646
20220901T094152,2500,20500,RXTX,5,10,45005,1810,148922-31(273),0,640,-70,-6,-46,-,0,0,SRV/REGISTERED,NORMAL_SERVICE,CONNECTED,CS_PS,29.2,-22,dfc44192,27.172.151.250,-70,4,4.50E+14,1227091531,465539,379532101,1287699923,3440,0,0,0,65535,614
20220901T094154,2500,20500,RXTX,5,10,45005,1810,148922-31(273),0,640,-70,-6,-46,-,0,0,SRV/REGISTERED,NORMAL_SERVICE,CONNECTED,CS_PS,30,-23,dfc44192,27.172.151.250,-70,4,4.50E+14,1227091531,467537,379532108,1287699920,3470,0,0,0,65535,643
20220901T094156,2500,20500,RXTX,5,10,45005,1810,148922-31(273),0,640,-70,-6,-46,-,0,0,SRV/REGISTERED,NORMAL_SERVICE,CONNECTED,CS_PS,28.6,-25,dfc44192,27.172.151.250,-70,4,4.50E+14,1227091531,469534,379532113,1287699916,3450,0,0,0,65535,628
20220901T094159,2500,20500,RXTX,5,10,45005,1810,148922-31(273),0,640,-70,-6,-46,-,0,0,SRV/REGISTERED,NORMAL_SERVICE,CONNECTED,CS_PS,30,-14,dfc44192,27.172.151.250,-70,4,4.50E+14,1227091531,471532,379532117,1287699912,3470,0,0,0,65535,649
20220901T094201,2500,20500,RXTX,5,10,45005,1810,148922-31(273),0,640,-70,-6,-46,-,0,0,SRV/REGISTERED,NORMAL_SERVICE,CONNECTED,CS_PS,30,-19,dfc44192,27.172.151.250,-70,4,4.50E+14,1227091531,473864,379532117,1287699909,3520,0,0,0,65535,698
20220901T094203,2500,20500,RXTX,5,10,45005,1810,148922-31(273),0,640,-70,-6,-46,-,0,0,SRV/REGISTERED,NORMAL_SERVICE,CONNECTED,CS_PS,30,-19,dfc44192,27.172.151.250,-70,4,4.50E+14,1227091531,476194,379532114,1287699904,3530,0,0,0,65535,703
20220901T094205,2500,20500,RXTX,5,10,45005,1810,148922-31(273),0,640,-70,-6,-46,-,0,0,SRV/REGISTERED,NORMAL_SERVICE,CONNECTED,CS_PS,29.2,-20,dfc44192,27.172.151.250,-70,4,4.50E+14,1227091531,478192,379532112,1287699901,3540,0,0,0,65535,718
20220901T094207,2500,20500,RXTX,5,10,45005,1810,148922-31(273),0,640,-70,-6,-46,-,0,0,SRV/REGISTERED,NORMAL_SERVICE,CONNECTED,CS_PS,29.2,-18,dfc44192,27.172.151.250,-70,4,4.50E+14,1227091531,480522,379532110,1287699899,3530,0,0,0,65535,701
20220901T094209,2500,20500,RXTX,5,10,45005,1810,148922-31(273),0,640,-70,-6,-46,-,0,0,SRV/REGISTERED,NORMAL_SERVICE,CONNECTED,CS_PS,30,-18,dfc44192,27.172.151.250,-70,4,4.50E+14,1227091531,482522,379532108,1287699897,3510,0,0,0,65535,681
20220901T094211,2500,20500,RXTX,5,10,45005,1810,148922-31(273),0,640,-70,-6,-46,-,0,0,SRV/REGISTERED,NORMAL_SERVICE,CONNECTED,CS_PS,30,-20,dfc44192,27.172.151.250,-70,4,4.50E+14,1227091531,484519,379532105,1287699898,3510,0,0,0,65535,686
20220901T094214,2500,20500,RXTX,5,10,45005,1810,148922-31(273),0,640,-70,-6,-46,-,0,0,SRV/REGISTERED,NORMAL_SERVICE,CONNECTED,CS_PS,30,-20,dfc44192,27.172.151.250,-70,4,4.50E+14,1227091531,486849,379532102,1287699898,3530,0,0,0,65535,702
20220901T094216,2500,20500,RXTX,5,10,45005,1810,148922-31(273),0,640,-70,-6,-46,-,0,0,SRV/REGISTERED,NORMAL_SERVICE,CONNECTED,CS_PS,30,-20,dfc44192,27.172.151.250,-70,4,4.50E+14,1227091531,488847,379532099,1287699898,3510,0,0,0,65535,685
20220901T094218,2500,20500,RXTX,5,10,45005,1810,148922-31(273),0,640,-70,-6,-46,-,0,0,SRV/REGISTERED,NORMAL_SERVICE,CONNECTED,CS_PS,30,-21,dfc44192,27.172.151.250,-70,4,4.50E+14,1227091531,491180,379532094,1287699897,3520,0,0,0,65535,691
20220901T094220,2500,20500,RXTX,5,10,45005,1810,148922-31(273),0,640,-70,-6,-46,-,0,0,SRV/REGISTERED,NORMAL_SERVICE,CONNECTED,CS_PS,29.6,-19,dfc44192,27.172.151.250,-70,4,4.50E+14,1227091531,493177,379532093,1287699898,3540,0,0,0,65535,710
20220901T094222,2500,20500,RXTX,5,10,45005,1810,148922-31(273),0,640,-70,-6,-46,-,0,0,SRV/REGISTERED,NORMAL_SERVICE,CONNECTED,CS_PS,29.6,-13,dfc44192,27.172.151.250,-70,4,4.50E+14,1227091531,495507,379532091,1287699900,3550,0,0,0,65535,728
20220901T094224,2500,20500,RXTX,5,10,45005,1810,148922-31(273),0,640,-70,-6,-46,-,0,0,SRV/REGISTERED,NORMAL_SERVICE,CONNECTED,CS_PS,30,-20,dfc44192,27.172.151.250,-70,4,4.50E+14,1227091531,497505,379532089,1287699904,3620,0,0,0,65535,62
20220901T094227,2500,20500,RXTX,5,10,45005,1810,148922-31(273),0,640,-70,-6,-46,-,0,0,SRV/REGISTERED,NORMAL_SERVICE,CONNECTED,CS_PS,30,-20,dfc44192,27.172.151.250,-70,4,4.50E+14,1227091531,499837,379532089,1287699909,3580,0,0,0,65535,28
20220901T094229,2500,20500,RXTX,5,10,45005,1810,148922-31(273),0,640,-70,-6,-46,-,0,0,SRV/REGISTERED,NORMAL_SERVICE,CONNECTED,CS_PS,27.6,-4,dfc44192,27.172.151.250,-70,4,4.50E+14,1227091531,501835,379532086,1287699914,3540,0,0,0,65535,-10
20220901T094231,2500,20500,RXTX,5,10,45005,1810,148922-31(273),0,640,-70,-6,-46,-,0,0,SRV/REGISTERED,NORMAL_SERVICE,CONNECTED,CS_PS,27.6,-19,dfc44192,27.172.151.250,-70,4,4.50E+14,1227091531,503833,379532086,1287699923,4750,0,0,0,65535,1193
20220901T094233,2500,20500,RXTX,5,10,45005,1810,148922-31(273),0,640,-70,-6,-46,-,0,0,SRV/REGISTERED,NORMAL_SERVICE,CONNECTED,CS_PS,21,-26,dfc44192,27.172.151.250,-70,4,4.50E+14,1227091531,506165,379532085,1287699915,10550,0,0,0,65535,6992
20220901T094235,2500,20500,RXTX,5,10,45005,1810,148922-31(273),0,640,-60,-6,-33,-,0,0,SRV/REGISTERED,NORMAL_SERVICE,CONNECTED,CS_PS,21,-25,dfc44192,27.172.151.250,-70,4,4.50E+14,1227091531,508162,379532088,1287699916,15520,0,0,0,65535,11961
20220901T094237,2500,20500,RXTX,5,10,45005,1810,148922-31(273),0,640,-60,-6,-33,-,0,0,SRV/REGISTERED,NORMAL_SERVICE,CONNECTED,CS_PS,21,-22,dfc44192,27.172.151.250,-70,4,4.50E+14,1227091531,510493,379532088,1287699911,20800,0,0,0,65535,17241
20220901T094239,2500,20500,RXTX,5,10,45005,1810,148922-31(273),0,640,-60,-6,-33,-,0,0,SRV/REGISTERED,NORMAL_SERVICE,CONNECTED,CS_PS,17.6,-27,dfc44192,27.172.151.250,-70,4,4.50E+14,1227091531,512490,379532082,1287699919,23260,0,0,0,65535,19707
20220901T094242,2500,20500,RXTX,5,10,45005,1810,148922-31(273),0,640,-60,-6,-33,-,0,0,SRV/REGISTERED,NORMAL_SERVICE,CONNECTED,CS_PS,23.4,0,dfc44192,27.172.151.250,-70,4,4.50E+14,1227091531,514825,379532084,1287699916,23560,0,0,0,65535,20000
20220901T094244,2500,20500,RXTX,5,10,45005,1810,148922-31(273),0,640,-60,-6,-33,-,0,0,SRV/REGISTERED,NORMAL_SERVICE,CONNECTED,CS_PS,20.8,-20,dfc44192,27.172.151.250,-70,4,4.50E+14,1227091531,516820,379532083,1287699921,23570,0,0,0,65535,20011
20220901T094246,2500,20500,RXTX,5,10,45005,1810,148922-31(273),0,640,-60,-6,-33,-,0,0,SRV/REGISTERED,NORMAL_SERVICE,CONNECTED,CS_PS,20.8,-25,dfc44192,27.172.151.250,-70,4,4.50E+14,1227091531,518818,379532088,1287699918,23610,0,0,0,65535,20057
20220901T094248,2500,20500,RXTX,5,10,45005,1810,148922-31(273),0,640,-60,-6,-33,-,0,0,SRV/REGISTERED,NORMAL_SERVICE,CONNECTED,CS_PS,20,-12,dfc44192,27.172.151.250,-70,4,4.50E+14,1227091531,521148,379532087,1287699911,23640,0,0,0,65535,20089
20220901T094250,2500,20500,RXTX,5,10,45005,1810,148922-31(273),0,640,-60,-6,-33,-,0,0,SRV/REGISTERED,NORMAL_SERVICE,CONNECTED,CS_PS,20,-22,dfc44192,27.172.151.250,-62,4,4.50E+14,1227091531,523147,379532089,1287699911,23630,0,0,0,65535,20075
20220901T094252,2500,20500,RXTX,5,10,45005,1810,148922-31(273),0,640,-60,-6,-33,-,0,0,SRV/REGISTERED,NORMAL_SERVICE,CONNECTED,CS_PS,20,-23,dfc44192,27.172.151.250,-60,4,4.50E+14,1227091531,525477,379532086,1287699923,23620,0,0,0,65535,20063
20220901T094254,2500,20500,RXTX,5,10,45005,1810,148922-31(273),0,640,-60,-6,-39,-,0,0,SRV/REGISTERED,NORMAL_SERVICE,CONNECTED,CS_PS,17.6,-25,dfc44192,27.172.151.250,-60,4,4.50E+14,1227091531,527475,379532082,1287699919,23600,0,0,0,65535,20046
20220901T094257,2500,20500,RXTX,5,10,45005,1810,148922-31(273),0,640,-60,-6,-39,-,0,0,SRV/REGISTERED,NORMAL_SERVICE,CONNECTED,CS_PS,23.2,-24,dfc44192,27.172.151.250,-60,4,4.50E+14,1227091531,529808,379532086,1287699914,23600,0,0,0,65535,20042
20220901T094259,2500,20500,RXTX,5,10,45005,1810,148922-31(273),0,640,-60,-6,-39,-,0,0,SRV/REGISTERED,NORMAL_SERVICE,CONNECTED,CS_PS,21.8,-10,dfc44192,27.172.151.250,-60,4,4.50E+14,1227091531,531805,379532090,1287699914,23540,0,0,0,65535,19983
20220901T094301,2500,20500,RXTX,5,10,45005,1810,148922-31(273),0,640,-60,-6,-39,-,0,0,SRV/REGISTERED,NORMAL_SERVICE,CONNECTED,CS_PS,21.8,-25,dfc44192,27.172.151.250,-60,4,4.50E+14,1227091531,533802,379532089,1287699915,23680,0,0,0,65535,20124
20220901T094303,2500,20500,RXTX,5,10,45005,1810,148922-31(273),0,640,-60,-6,-39,-,0,0,SRV/REGISTERED,NORMAL_SERVICE,CONNECTED,CS_PS,22,-18,dfc44192,27.172.151.250,-60,4,4.50E+14,1227091531,536135,379532084,1287699913,23610,0,0,0,65535,20052
20220901T094305,2500,20500,RXTX,5,10,45005,1810,148922-31(273),0,640,-60,-6,-39,-,0,0,SRV/REGISTERED,NORMAL_SERVICE,CONNECTED,CS_PS,18.4,-18,dfc44192,27.172.151.250,-60,4,4.50E+14,1227091531,538135,379532082,1287699916,23690,0,0,0,65535,20135
20220901T094307,2500,20500,RXTX,5,10,45005,1810,148922-31(273),0,640,-60,-6,-39,-,0,0,SRV/REGISTERED,NORMAL_SERVICE,CONNECTED,CS_PS,18.4,-8,dfc44192,27.172.151.250,-60,4,4.50E+14,1227091531,540462,379532087,1287699917,23610,0,0,0,65535,20051
20220901T094309,2500,20500,RXTX,5,10,45005,1810,148922-31(273),0,640,-60,-6,-39,-,0,0,SRV/REGISTERED,NORMAL_SERVICE,CONNECTED,CS_PS,21.4,-17,dfc44192,27.172.151.250,-60,4,4.50E+14,1227091531,542460,379532090,1287699913,23610,0,0,0,65535,20056
20220901T094311,2500,20500,RXTX,5,10,45005,1810,148922-31(273),0,640,-60,-6,-39,-,0,0,SRV/REGISTERED,NORMAL_SERVICE,CONNECTED,CS_PS,14.4,-25,dfc44192,27.172.151.250,-60,4,4.50E+14,1227091531,544458,379532084,1287699914,23630,0,0,0,65535,20077
20220901T094314,2500,20500,RXTX,5,10,45005,1810,148922-31(273),0,640,-60,-6,-39,-,0,0,SRV/REGISTERED,NORMAL_SERVICE,CONNECTED,CS_PS,9.8,-24,dfc44192,27.172.151.250,-60,4,4.50E+14,1227091531,546456,379532091,1287699918,23570,0,0,0,65535,20015
20220901T094316,2500,20500,RXTX,5,10,45005,1810,148922-31(273),0,640,-60,-6,-39,-,0,0,SRV/REGISTERED,NORMAL_SERVICE,CONNECTED,CS_PS,9.8,-25,dfc44192,27.172.151.250,-60,4,4.50E+14,1227091531,548787,379532090,1287699917,23660,0,0,0,65535,20102
20220901T094318,2500,20500,RXTX,5,10,45005,1810,148922-31(273),0,640,-60,-6,-39,-,0,0,SRV/REGISTERED,NORMAL_SERVICE,CONNECTED,CS_PS,16.4,-23,dfc44192,27.172.151.250,-60,4,4.50E+14,1227091531,551118,379532085,1287699916,23580,0,0,0,65535,20024
20220901T094320,2500,20500,RXTX,5,10,45005,1810,148922-31(273),0,640,-60,-6,-39,-,0,0,SRV/REGISTERED,NORMAL_SERVICE,CONNECTED,CS_PS,19.6,-25,dfc44192,27.172.151.250,-60,4,4.50E+14,1227091531,553118,379532083,1287699920,23550,0,0,0,65535,19997
20220901T094322,2500,20500,RXTX,5,10,45005,1810,148922-31(273),0,640,-60,-6,-39,-,0,0,SRV/REGISTERED,NORMAL_SERVICE,CONNECTED,CS_PS,19.6,-25,dfc44192,27.172.151.250,-60,4,4.50E+14,1227091531,555448,379532078,1287699914,23570,0,0,0,65535,20017
20220901T094324,2500,20500,RXTX,5,10,45005,1810,148922-31(273),0,640,-60,-6,-39,-,0,0,SRV/REGISTERED,NORMAL_SERVICE,CONNECTED,CS_PS,20.6,-18,dfc44192,27.172.151.250,-60,4,4.50E+14,1227091531,557446,379532091,1287699917,23630,0,0,0,65535,20073
20220901T094327,2500,20500,RXTX,5,10,45005,1810,148922-31(273),0,640,-60,-6,-39,-,0,0,SRV/REGISTERED,NORMAL_SERVICE,CONNECTED,CS_PS,20,0,dfc44192,27.172.151.250,-60,4,4.50E+14,1227091531,559777,379532083,1287699914,23580,0,0,0,65535,20023
20220901T094329,2500,20500,RXTX,5,10,45005,1810,148922-31(273),0,640,-60,-6,-39,-,0,0,SRV/REGISTERED,NORMAL_SERVICE,CONNECTED,CS_PS,17.4,-25,dfc44192,27.172.151.250,-60,4,4.50E+14,1227091531,561775,379532086,1287699915,23570,0,0,0,65535,20016
20220901T094331,2500,20500,RXTX,5,10,45005,1810,148922-31(273),0,640,-60,-6,-39,-,0,0,SRV/REGISTERED,NORMAL_SERVICE,CONNECTED,CS_PS,17.4,-25,dfc44192,27.172.151.250,-60,4,4.50E+14,1227091531,563773,379532087,1287699915,23570,0,0,0,65535,20016
20220901T094333,2500,20500,RXTX,5,10,45005,1810,148922-31(273),0,640,-60,-6,-39,-,0,0,SRV/REGISTERED,NORMAL_SERVICE,CONNECTED,CS_PS,18.6,0,dfc44192,27.172.151.250,-60,4,4.50E+14,1227091531,566105,379532085,1287699917,23570,0,0,0,65535,20013
20220901T094335,2500,20500,RXTX,5,10,45005,1810,148922-31(273),0,640,-60,-6,-39,-,0,0,SRV/REGISTERED,NORMAL_SERVICE,CONNECTED,CS_PS,21.6,-26,dfc44192,27.172.151.250,-60,4,4.50E+14,1227091531,568102,379532087,1287699917,23620,0,0,0,65535,20061
20220901T094337,2500,20500,RXTX,5,10,45005,1810,148922-31(273),0,640,-60,-6,-39,-,0,0,SRV/REGISTERED,NORMAL_SERVICE,CONNECTED,CS_PS,21.6,-19,dfc44192,27.172.151.250,-60,4,4.50E+14,1227091531,570435,379532086,1287699915,23620,0,0,0,65535,20062
20220901T094339,2500,20500,RXTX,5,10,45005,1810,148922-31(273),0,640,-60,-6,-39,-,0,0,SRV/REGISTERED,NORMAL_SERVICE,CONNECTED,CS_PS,17.8,-8,dfc44192,27.172.151.250,-60,4,4.50E+14,1227091531,572435,379532084,1287699913,23610,0,0,0,65535,20054
20220901T094341,2500,20500,RXTX,5,10,45005,1810,148922-31(273),0,640,-60,-6,-39,-,0,0,SRV/REGISTERED,NORMAL_SERVICE,CONNECTED,CS_PS,17,-19,dfc44192,27.172.151.250,-60,4,4.50E+14,1227091531,574435,379532090,1287699916,23550,0,0,0,65535,19999
20220901T094344,2500,20500,RXTX,5,10,45005,1810,148922-31(273),0,640,-60,-6,-39,-,0,0,SRV/REGISTERED,NORMAL_SERVICE,CONNECTED,CS_PS,20.2,-25,dfc44192,27.172.151.250,-60,4,4.50E+14,1227091531,576760,379532083,1287699917,23620,0,0,0,65535,20064
20220901T094346,2500,20500,RXTX,5,10,45005,1810,148922-31(273),0,640,-60,-6,-39,-,0,0,SRV/REGISTERED,NORMAL_SERVICE,CONNECTED,CS_PS,20.2,-26,dfc44192,27.172.151.250,-60,4,4.50E+14,1227091531,578758,379532085,1287699915,23550,0,0,0,65535,19996
20220901T094348,2500,20500,RXTX,5,10,45005,1810,148922-31(273),0,640,-60,-6,-39,-,0,0,SRV/REGISTERED,NORMAL_SERVICE,CONNECTED,CS_PS,9.6,0,dfc44192,27.172.151.250,-60,4,4.50E+14,1227091531,581090,379532088,1287699911,23610,0,0,0,65535,20059
20220901T094350,2500,20500,RXTX,5,10,45005,1810,148922-31(273),0,640,-60,-6,-39,-,0,0,SRV/REGISTERED,NORMAL_SERVICE,CONNECTED,CS_PS,12.6,-25,dfc44192,27.172.151.250,-60,4,4.50E+14,1227091531,583087,379532087,1287699914,23580,0,0,0,65535,20020
20220901T094352,2500,20500,RXTX,5,10,45005,1810,148922-31(273),0,640,-60,-6,-39,-,0,0,SRV/REGISTERED,NORMAL_SERVICE,CONNECTED,CS_PS,12.6,-25,dfc44192,27.172.151.250,-60,4,4.50E+14,1227091531,585418,379532079,1287699916,23590,0,0,0,65535,20034
20220901T094354,2500,20500,RXTX,5,10,45005,1810,148922-31(273),0,640,-60,-6,-39,-,0,0,SRV/REGISTERED,NORMAL_SERVICE,CONNECTED,CS_PS,20.2,-18,dfc44192,27.172.151.250,-60,4,4.50E+14,1227091531,587415,379532082,1287699916,23590,0,0,0,65535,20037
20220901T094356,2500,20500,RXTX,5,10,45005,1810,148922-31(273),0,640,-60,-6,-39,-,0,0,SRV/REGISTERED,NORMAL_SERVICE,CONNECTED,CS_PS,22.6,-24,dfc44192,27.172.151.250,-60,4,4.50E+14,1227091531,589415,379532089,1287699915,23500,0,0,0,65535,19949
20220901T094359,2500,20500,RXTX,5,10,45005,1810,148922-31(273),0,640,-60,-6,-39,-,0,0,SRV/REGISTERED,NORMAL_SERVICE,CONNECTED,CS_PS,21,-26,dfc44192,27.172.151.250,-60,4,4.50E+14,1227091531,591745,379532085,1287699914,23590,0,0,0,65535,20033
20220901T094401,2500,20500,RXTX,5,10,45005,1810,148922-31(273),0,640,-60,-6,-39,-,0,0,SRV/REGISTERED,NORMAL_SERVICE,CONNECTED,CS_PS,21,-24,dfc44192,27.172.151.250,-60,4,4.50E+14,1227091531,593743,379532084,1287699910,23610,0,0,0,65535,20052
20220901T094403,2500,20500,RXTX,5,10,45005,1810,148922-31(273),0,640,-60,-6,-39,-,0,0,SRV/REGISTERED,NORMAL_SERVICE,CONNECTED,CS_PS,15.8,-19,dfc44192,27.172.151.250,-60,4,4.50E+14,1227091531,596075,379532089,1287699913,23600,0,0,0,65535,20042
20220901T094405,2500,20500,RXTX,5,10,45005,1810,148922-31(273),0,640,-60,-6,-39,-,0,0,SRV/REGISTERED,NORMAL_SERVICE,CONNECTED,CS_PS,23.4,-26,dfc44192,27.172.151.250,-60,4,4.50E+14,1227091531,598073,379532087,1287699918,23610,0,0,0,65535,20051
20220901T094407,2500,20500,RXTX,5,10,45005,1810,148922-31(273),0,640,-60,-6,-39,-,0,0,SRV/REGISTERED,NORMAL_SERVICE,CONNECTED,CS_PS,23.4,-24,dfc44192,27.172.151.250,-60,4,4.50E+14,1227091531,599737,379532086,1287699906,23620,0,0,0,65535,20069
20220901T094409,2500,20500,RXTX,5,10,45005,1810,148922-31(273),0,640,-60,-6,-39,-,0,0,SRV/REGISTERED,NORMAL_SERVICE,CONNECTED,CS_PS,20.4,-19,dfc44192,27.172.151.250,-60,4,4.50E+14,1227091531,602400,379532088,1287699918,23640,0,0,0,65535,20080
20220901T094411,2500,20500,RXTX,5,10,45005,1810,148922-31(273),0,640,-60,-6,-39,-,0,0,SRV/REGISTERED,NORMAL_SERVICE,CONNECTED,CS_PS,19.4,-20,dfc44192,27.172.151.250,-60,4,4.50E+14,1227091531,604400,379532086,1287699916,23630,0,0,0,65535,20077
20220901T094415,2500,20500,RXTX,5,10,45005,1810,148922-31(273),0,640,-60,-6,-39,-,0,0,SRV/REGISTERED,NORMAL_SERVICE,CONNECTED,CS_PS,19.4,0,dfc44192,27.172.151.250,-60,4,4.50E+14,1227091531,606735,379532084,1287699918,23760,0,0,0,65535,20202
20220901T094416,2500,20500,RXTX,5,10,45005,1810,148922-31(273),0,640,-60,-6,-39,-,0,0,SRV/REGISTERED,NORMAL_SERVICE,CONNECTED,CS_PS,13.8,-18,dfc44192,27.172.151.250,-60,4,4.50E+14,1227091531,608727,379531976,1287699919,25130,0,0,0,65535,21571
20220901T094418,2500,20500,RXTX,5,10,45005,1810,148922-31(273),0,640,-60,-6,-39,-,0,0,SRV/REGISTERED,NORMAL_SERVICE,CONNECTED,CS_PS,22.8,0,dfc44192,27.172.151.250,-60,4,4.50E+14,1227091531,610725,379531657,1287699929,29640,0,0,0,65535,26083
20220901T094420,2500,20500,RXTX,5,10,45005,1810,148922-31(273),0,640,-66,-6,-39,-,0,0,SRV/REGISTERED,NORMAL_SERVICE,CONNECTED,CS_PS,21.8,-23,dfc44192,27.172.151.250,-60,4,4.50E+14,1227091531,613058,379531232,1287699939,35480,0,0,0,65535,31923
20220901T094422,2500,20500,RXTX,5,10,45005,1810,148922-31(273),0,640,-66,-6,-39,-,0,0,SRV/REGISTERED,NORMAL_SERVICE,CONNECTED,CS_PS,21.8,-19,dfc44192,27.172.151.250,-60,4,4.50E+14,1227091531,615056,379530862,1287699944,40460,0,0,0,65535,36907
20220901T094424,2500,20500,RXTX,5,10,45005,1810,148922-31(273),0,640,-66,-6,-45,-,0,0,SRV/REGISTERED,NORMAL_SERVICE,CONNECTED,CS_PS,11,-2,dfc44192,27.172.151.250,-60,4,4.50E+14,1227091531,617385,379530442,1287699954,46230,0,0,0,65535,42677
20220901T094426,2500,20500,RXTX,5,10,45005,1810,148922-31(273),0,640,-71,-6,-45,-,0,0,SRV/REGISTERED,NORMAL_SERVICE,CONNECTED,CS_PS,18,-11,dfc44192,27.172.151.250,-60,4,4.50E+14,1227091531,619383,379530084,1287699963,51170,0,0,0,65535,47610
20220901T094428,2500,20500,RXTX,5,10,45005,1810,148922-31(273),0,640,-71,-6,-45,-,0,0,SRV/REGISTERED,NORMAL_SERVICE,CONNECTED,CS_PS,18,-11,dfc44192,27.172.151.250,-60,4,4.50E+14,1227091531,621715,379529659,1287699973,57060,0,0,0,65535,53500
20220901T094431,2500,20500,RXTX,5,10,45005,1810,148922-31(273),0,640,-71,-6,-45,-,0,0,SRV/REGISTERED,NORMAL_SERVICE,CONNECTED,CS_PS,17.8,-20,dfc44192,27.172.151.250,-60,4,4.50E+14,1227091531,623712,379529299,1287699975,62100,0,0,0,65535,58548
20220901T094433,2500,20500,RXTX,5,10,45005,1810,148922-31(273),0,640,-71,-6,-45,-,0,0,SRV/REGISTERED,NORMAL_SERVICE,CONNECTED,CS_PS,14.2,-20,dfc44192,27.172.151.250,-60,4,4.50E+14,1227091531,626043,379528871,1287699990,67920,0,0,0,65535,64365
20220901T094435,2500,20500,RXTX,5,10,45005,1810,148922-31(273),0,640,-71,-6,-45,-,0,0,SRV/REGISTERED,NORMAL_SERVICE,CONNECTED,CS_PS,11.4,0,dfc44192,27.172.151.250,-60,4,4.50E+14,1227091531,628043,379528513,1287699995,72890,0,0,0,65535,69331
20220901T094437,2500,20500,RXTX,5,10,45005,1810,148922-31(273),0,640,-71,-6,-45,-,0,0,SRV/REGISTERED,NORMAL_SERVICE,CONNECTED,CS_PS,11.4,-14,dfc44192,27.172.151.250,-68,4,4.50E+14,1227091531,630040,379528154,1287700002,77880,0,0,0,65535,74329
20220901T094439,2500,20500,RXTX,5,10,45005,1810,148922-31(273),0,640,-71,-6,-45,-,0,0,SRV/REGISTERED,NORMAL_SERVICE,CONNECTED,CS_PS,10.6,-16,dfc44192,27.172.151.250,-71,4,4.50E+14,1227091531,632370,379527728,1287700000,83810,0,0,0,65535,80254
20220901T094441,2500,20500,RXTX,5,10,45005,1810,148922-31(273),0,640,-71,-6,-45,-,0,0,SRV/REGISTERED,NORMAL_SERVICE,CONNECTED,CS_PS,10.2,-18,dfc44192,27.172.151.250,-71,4,4.50E+14,1227091531,634368,379527363,1287700017,88850,0,0,0,65535,85294
20220901T094443,2500,20500,RXTX,5,10,45005,1810,148922-31(273),0,640,-71,-6,-45,-,0,0,SRV/REGISTERED,NORMAL_SERVICE,CONNECTED,CS_PS,10.2,-8,dfc44192,27.172.151.250,-71,4,4.50E+14,1227091531,636700,379526938,1287700043,94600,0,0,0,65535,91044
20220901T094446,2500,20500,RXTX,5,10,45005,1810,148922-31(273),0,640,-71,-6,-45,-,0,0,SRV/REGISTERED,NORMAL_SERVICE,CONNECTED,CS_PS,13.6,-13,dfc44192,27.172.151.250,-71,4,4.50E+14,1227091531,638697,379526577,1287700043,99500,0,0,0,65535,95940
20220901T094448,2500,20500,RXTX,5,10,45005,1810,148922-31(273),0,640,-71,-11,-45,-,0,0,SRV/REGISTERED,NORMAL_SERVICE,CONNECTED,CS_PS,5.4,0,dfc44192,27.172.151.250,-71,4,4.50E+14,1227091531,641035,379526153,1287700046,105350,0,0,0,65535,101796
20220901T094450,2500,20500,RXTX,5,10,45005,1810,148922-31(273),0,640,-71,-11,-45,-,0,0,SRV/REGISTERED,NORMAL_SERVICE,CONNECTED,CS_PS,11.6,-15,dfc44192,27.172.151.250,-71,4,4.50E+14,1227091531,643027,379525792,1287700058,110360,0,0,0,65535,106804
20220901T094452,2500,20500,RXTX,5,10,45005,1810,148922-31(273),0,640,-71,-11,-45,-,0,0,SRV/REGISTERED,NORMAL_SERVICE,CONNECTED,CS_PS,11.6,0,dfc44192,27.172.151.250,-71,4,4.50E+14,1227091531,645025,379525432,1287700063,115290,0,0,0,65535,111730
20220901T094454,2500,20500,RXTX,5,10,45005,1810,148922-31(273),0,640,-76,-11,-45,-,0,0,SRV/REGISTERED,NORMAL_SERVICE,CONNECTED,CS_PS,7.2,-12,dfc44192,27.172.151.250,-71,4,4.50E+14,1227091531,647355,379525008,1287700074,121150,0,0,0,65535,117597
20220901T094456,2500,20500,RXTX,5,10,45005,1810,148922-31(273),0,640,-76,-11,-45,-,0,0,SRV/REGISTERED,NORMAL_SERVICE,CONNECTED,CS_PS,9.2,-8,dfc44192,27.172.151.250,-71,4,4.50E+14,1227091531,649355,379524646,1287700081,126140,0,0,0,65535,122583
20220901T094458,2500,20500,RXTX,5,10,45005,1810,148922-31(273),0,640,-76,-11,-45,-,0,0,SRV/REGISTERED,NORMAL_SERVICE,CONNECTED,CS_PS,9.2,-12,dfc44192,27.172.151.250,-72,4,4.50E+14,1227091531,651685,379524223,1287700092,131970,0,0,0,65535,128410
20220901T094501,2500,20500,RXTX,5,10,45005,1810,148922-31(273),0,640,-76,-11,-45,-,0,0,SRV/REGISTERED,NORMAL_SERVICE,CONNECTED,CS_PS,8.4,-9,dfc44192,27.172.151.250,-76,4,4.50E+14,1227091531,653683,379523862,1287700099,136980,0,0,0,65535,133423
20220901T094503,2500,20500,RXTX,5,10,45005,1810,149693-07(322),0,640,-76,-11,-52,-,0,0,SRV/REGISTERED,NORMAL_SERVICE,CONNECTED,CS_PS,4.8,0,dfc44192,27.172.151.250,-76,4,4.50E+14,1227091531,655680,379523501,1287700104,141970,0,0,0,65535,138411
20220901T094505,2500,20500,RXTX,5,10,45005,1810,148922-31(273),0,640,-76,-11,-52,-,0,0,SRV/REGISTERED,NORMAL_SERVICE,CONNECTED,CS_PS,3.6,0,dfc44192,27.172.151.250,-76,4,4.50E+14,1227091531,658012,379523077,1287700118,147810,0,0,0,65535,144258
20220901T094507,2500,20500,RXTX,5,10,45005,1810,149693-07(322),0,640,-76,-11,-52,-,0,0,SRV/REGISTERED,NORMAL_SERVICE,CONNECTED,CS_PS,3.6,0,dfc44192,27.172.151.250,-76,4,4.50E+14,1227091531,660010,379522716,1287700126,152790,0,0,0,65535,149237
20220901T094509,2500,20500,RXTX,5,10,45005,1810,148922-31(273),0,640,-76,-11,-52,-,0,0,SRV/REGISTERED,NORMAL_SERVICE,CONNECTED,CS_PS,5.4,8,dfc44192,27.172.151.250,-76,4,4.50E+14,1227091531,662340,379522292,1287700133,158560,0,0,0,65535,155000
20220901T094511,2500,20500,RXTX,5,10,45005,1810,148922-31(273),0,640,-76,-11,-52,-,0,0,SRV/REGISTERED,NORMAL_SERVICE,CONNECTED,CS_PS,4.6,3,dfc44192,27.172.151.250,-76,4,4.50E+14,1227091531,664340,379521927,1287700136,163560,0,0,0,65535,160005
20220901T094513,2500,20500,RXTX,5,10,45005,1810,148922-31(273),0,640,-76,-11,-52,-,0,0,SRV/REGISTERED,NORMAL_SERVICE,CONNECTED,CS_PS,4.6,0,dfc44192,27.172.151.250,-76,4,4.50E+14,1227091531,666337,379521569,1287700152,168630,0,0,0,65535,165078
20220901T094515,2500,20500,RXTX,5,10,45005,1810,148922-31(273),0,640,-76,-11,-52,-,0,0,SRV/REGISTERED,NORMAL_SERVICE,CONNECTED,CS_PS,8.4,-5,dfc44192,27.172.151.250,-76,4,4.50E+14,1227091531,668668,379521145,1287700160,174310,0,0,0,65535,170758
20220901T094518,2500,20500,RXTX,5,10,45005,1810,148922-31(273),0,640,-76,-11,-52,-,0,0,SRV/REGISTERED,NORMAL_SERVICE,CONNECTED,CS_PS,4.2,1,dfc44192,27.172.151.250,-76,4,4.50E+14,1227091531,670665,379520782,1287700162,179330,0,0,0,65535,175771
20220901T094520,2500,20500,RXTX,5,10,45005,1810,149693-07(322),0,640,-76,-11,-52,-,0,0,SRV/REGISTERED,NORMAL_SERVICE,CONNECTED,CS_PS,5,12,dfc44192,27.172.151.250,-76,4,4.50E+14,1227091531,672998,379520362,1287700177,185240,0,0,0,65535,181688
20220901T094522,2500,20500,RXTX,5,10,45005,1810,149693-07(322),0,640,-76,-11,-52,-,0,0,SRV/REGISTERED,NORMAL_SERVICE,CONNECTED,CS_PS,5,0,dfc44192,27.172.151.250,-76,4,4.50E+14,1227091531,674995,379519999,1287700185,190250,0,0,0,65535,186694
20220901T094524,2500,20500,RXTX,5,10,45005,1810,148922-31(273),0,640,-76,-11,-52,-,0,0,SRV/REGISTERED,NORMAL_SERVICE,CONNECTED,CS_PS,7.8,0,dfc44192,27.172.151.250,-76,4,4.50E+14,1227091531,676993,379519635,1287700190,195290,0,0,0,65535,191731
20220901T094526,2500,20500,RXTX,5,10,45005,1810,148922-31(273),0,640,-76,-11,-52,-,0,0,SRV/REGISTERED,NORMAL_SERVICE,CONNECTED,CS_PS,13,-3,dfc44192,27.172.151.250,-76,4,4.50E+14,1227091531,679325,379519212,1287700203,201070,0,0,0,65535,197513
20220901T094528,2500,20500,RXTX,5,10,45005,1810,148922-31(273),0,640,-76,-11,-52,-,0,0,SRV/REGISTERED,NORMAL_SERVICE,CONNECTED,CS_PS,13,0,dfc44192,27.172.151.250,-76,4,4.50E+14,1227091531,681324,379518854,1287700208,206040,0,0,0,65535,202486
20220901T094530,2500,20500,RXTX,5,10,45005,1810,148922-31(273),0,640,-76,-11,-52,-,0,0,SRV/REGISTERED,NORMAL_SERVICE,CONNECTED,CS_PS,5,0,dfc44192,27.172.151.250,-76,4,4.50E+14,1227091531,683652,379518664,1287700220,208470,0,0,0,65535,204919
20220901T094532,2500,20500,RXTX,5,10,45005,1810,148922-31(273),0,640,-76,-11,-52,-,0,0,SRV/REGISTERED,NORMAL_SERVICE,CONNECTED,CS_PS,9.2,-4,dfc44192,27.172.151.250,-76,4,4.50E+14,1227091531,685650,379518665,1287700289,208510,0,0,0,65535,204954
20220901T094536,2500,20500,RXTX,5,10,45005,1810,148922-31(273),0,640,-76,-11,-52,-,0,0,SRV/REGISTERED,NORMAL_SERVICE,CONNECTED,CS_PS,7,0,dfc44192,27.172.151.250,-76,4,4.50E+14,1227091531,687648,379518665,1287700739,208610,0,0,0,65535,205058
20220901T094537,2500,20500,RXTX,5,10,45005,1810,148922-31(273),0,640,-76,-11,-52,-,0,0,SRV/REGISTERED,NORMAL_SERVICE,CONNECTED,CS_PS,7,6,dfc44192,27.172.151.250,-76,4,4.50E+14,1227091531,689980,379518656,1287701444,208720,0,0,0,65535,205169
20220901T094539,2500,20500,RXTX,5,10,45005,1810,148922-31(273),0,640,-76,-11,-52,-,0,0,SRV/REGISTERED,NORMAL_SERVICE,CONNECTED,CS_PS,6.4,-1,dfc44192,27.172.151.250,-76,4,4.50E+14,1227091531,691977,379518624,1287702112,208620,0,0,0,65535,205060
20220901T094541,2500,20500,RXTX,5,10,45005,1810,148922-31(273),0,640,-76,-11,-52,-,0,0,SRV/REGISTERED,NORMAL_SERVICE,CONNECTED,CS_PS,1.2,-3,dfc44192,27.172.151.250,-76,4,4.50E+14,1227091531,694308,379518563,1287702929,208570,0,0,0,65535,205011
20220901T094543,2500,20500,RXTX,5,10,45005,1810,149693-07(322),0,640,-76,-11,-52,-,0,0,SRV/REGISTERED,NORMAL_SERVICE,CONNECTED,CS_PS,1.2,5,dfc44192,27.172.151.250,-76,4,4.50E+14,1227091531,696308,379518491,1287703652,208560,0,0,0,65535,205002
20220901T094545,2500,20500,RXTX,5,10,45005,1810,149693-07(322),0,640,-82,-11,-52,-,0,0,SRV/REGISTERED,NORMAL_SERVICE,CONNECTED,CS_PS,0,0,dfc44192,27.172.151.250,-76,4,4.50E+14,1227091531,698637,379518384,1287704516,208510,0,0,0,65535,204952
20220901T094547,2500,20500,RXTX,5,10,45005,1810,148922-31(273),0,640,-82,-11,-52,-,0,0,SRV/REGISTERED,NORMAL_SERVICE,CONNECTED,CS_PS,3.4,1,dfc44192,27.172.151.250,-76,4,4.50E+14,1227091531,700635,379518270,1287705265,208530,0,0,0,65535,204972
20220901T094550,2500,20500,RXTX,5,10,45005,1810,149695-03(324),0,640,-82,-11,-52,-,0,0,SRV/REGISTERED,NORMAL_SERVICE,CONNECTED,CS_PS,0.8,6,dfc44192,27.172.151.250,-76,4,4.50E+14,1227091531,702635,379518131,1287706016,208510,0,0,0,65535,204954
20220901T094552,2500,20500,RXTX,5,10,45005,1810,149693-07(322),0,640,-82,-11,-52,-,0,0,SRV/REGISTERED,NORMAL_SERVICE,CONNECTED,CS_PS,0.8,7,dfc44192,27.172.151.250,-76,4,4.50E+14,1227091531,704965,379517946,1287706891,208490,0,0,0,65535,204938
20220901T094554,2500,20500,RXTX,5,10,45005,1810,149695-03(324),0,640,-82,-11,-52,-,0,0,SRV/REGISTERED,NORMAL_SERVICE,CONNECTED,CS_PS,1,4,dfc44192,27.172.151.250,-76,4,4.50E+14,1227091531,706962,379517766,1287707634,208500,0,0,0,65535,204944
20220901T094556,2500,20500,RXTX,5,10,45005,1810,148922-31(273),0,640,-82,-11,-52,-,0,0,SRV/REGISTERED,NORMAL_SERVICE,CONNECTED,CS_PS,1,3,dfc44192,27.172.151.250,-76,4,4.50E+14,1227091531,709293,379517530,1287708503,208510,0,0,0,65535,204950
20220901T094558,2500,20500,RXTX,5,10,45005,1810,148922-31(273),0,640,-82,-11,-52,-,0,0,SRV/REGISTERED,NORMAL_SERVICE,CONNECTED,CS_PS,1,0,dfc44192,27.172.151.250,-76,4,4.50E+14,1227091531,711293,379517304,1287709231,208550,0,0,0,65535,204994
20220901T094600,2500,20500,RXTX,5,10,45005,1810,149691-27(321),0,640,-82,-11,-52,-,0,0,SRV/REGISTERED,NORMAL_SERVICE,CONNECTED,CS_PS,1.6,0,dfc44192,27.172.151.250,-76,4,4.50E+14,1227091531,713625,379517011,1287710079,208510,0,0,0,65535,204958
20220901T094602,2500,20500,RXTX,5,10,45005,1810,149691-27(321),0,640,-82,-11,-52,-,0,0,SRV/REGISTERED,NORMAL_SERVICE,CONNECTED,CS_PS,-2,3,dfc44192,27.172.151.250,-81,4,4.50E+14,1227091531,715620,379516743,1287710790,208530,0,0,0,65535,204972
20220901T094605,2500,20500,RXTX,5,10,45005,1810,149691-27(321),0,640,-82,-11,-52,-,0,0,SRV/REGISTERED,NORMAL_SERVICE,CONNECTED,CS_PS,-0.6,5,dfc44192,27.172.151.250,-82,4,4.50E+14,1227091531,717618,379516456,1287711492,208530,0,0,0,65535,204973
20220901T094607,2500,20500,RXTX,5,10,45005,1810,149691-27(321),0,640,-82,-11,-52,-,0,0,SRV/REGISTERED,NORMAL_SERVICE,CONNECTED,CS_PS,-0.6,-3,dfc44192,27.172.151.250,-82,4,4.50E+14,1227091531,719950,379516094,1287712293,208520,0,0,0,65535,204965
20220901T094609,2500,20500,RXTX,5,10,45005,1810,149691-27(321),0,640,-82,-11,-52,-,0,0,SRV/REGISTERED,NORMAL_SERVICE,CONNECTED,CS_PS,-1.4,0,dfc44192,27.172.151.250,-82,4,4.50E+14,1227091531,721948,379515765,1287712968,208560,0,0,0,65535,205001
20220901T094611,2500,20500,RXTX,5,10,45005,1810,149691-27(321),0,640,-82,-11,-52,-,0,0,SRV/REGISTERED,NORMAL_SERVICE,CONNECTED,CS_PS,0.6,-3,dfc44192,27.172.151.250,-82,4,4.50E+14,1227091531,724280,379515355,1287713733,208520,0,0,0,65535,204962
20220901T094613,2500,20500,RXTX,5,10,45005,1810,149691-27(321),0,640,-82,-11,-52,-,0,0,SRV/REGISTERED,NORMAL_SERVICE,CONNECTED,CS_PS,0.6,-2,dfc44192,27.172.151.250,-82,4,4.50E+14,1227091531,726277,379514987,1287714370,208540,0,0,0,65535,204988
20220901T094615,2500,20500,RXTX,5,10,45005,1810,149691-27(321),0,640,-82,-11,-52,-,0,0,SRV/REGISTERED,NORMAL_SERVICE,CONNECTED,CS_PS,0.8,0,dfc44192,27.172.151.250,-82,4,4.50E+14,1227091531,728275,379514600,1287714991,208520,0,0,0,65535,204968
20220901T094617,2500,20500,RXTX,5,10,45005,1810,149691-27(321),0,640,-82,-11,-52,-,0,0,SRV/REGISTERED,NORMAL_SERVICE,CONNECTED,CS_PS,0.8,-2,dfc44192,27.172.151.250,-82,4,4.50E+14,1227091531,730605,379514128,1287715698,208510,0,0,0,65535,204957
20220901T094620,2500,20500,RXTX,5,10,45005,1810,148922-31(273),0,640,-82,-11,-52,-,0,0,SRV/REGISTERED,NORMAL_SERVICE,CONNECTED,CS_PS,0.8,8,dfc44192,27.172.151.250,-82,4,4.50E+14,1227091531,732605,379513704,1287716283,208540,0,0,0,65535,204988
20220901T094622,2500,20500,RXTX,5,10,45005,1810,148922-31(273),0,640,-82,-11,-52,-,0,0,SRV/REGISTERED,NORMAL_SERVICE,CONNECTED,CS_PS,-1.8,11,dfc44192,27.172.151.250,-82,4,4.50E+14,1227091531,734935,379513191,1287716938,208560,0,0,0,65535,205007
