ct,frequency,band,bandwidth,cell_id,rsrp,rssi,rsrq,bler,tx_power,plmn,tac,drx,emm_state,rrc_state,net_op_mode,emm_cause,esm_cause,time_boot_ms,lat,lon,alt,relative_alt
20220901T080644,2600,5,10,247(0xf7),-106,81,-15,0,0,450f06,18640,1280,REGISTERED,CONNECTED,CS_PS_MODE1,18,0,211630,379869013,1287494565,6130,398
20220901T080648,2600,5,10,247(0xf7),-106,81,-15,0,16,450f06,18640,1280,REGISTERED,CONNECTED,CS_PS_MODE1,18,0,215630,379869002,1287494563,6170,433
20220901T080653,0,0,0,,0,0,0,0,0,,0,0,,,,0,,220622,379868982,1287494559,6210,472
20220901T080657,0,0,0,,0,0,0,0,0,,0,0,,,,0,,224617,379868968,1287494563,6220,488
20220901T080813,2600,5,10,138(0x8a),-104,72,-13,0,0,450f06,18640,1280,REGISTERED,CONNECTED,CS_PS_MODE1,18,0,300542,379868928,1287494561,6260,524
20220901T080817,2600,5,10,138(0x8a),-104,72,-13,0,23,450f06,18640,1280,REGISTERED,CONNECTED,CS_PS_MODE1,18,0,304537,379868928,1287494560,6320,584
20220901T080822,2600,5,10,138(0x8a),-104,72,-13,0,23,450f06,18640,1280,REGISTERED,CONNECTED,CS_PS_MODE1,18,0,309532,379868923,1287494551,6340,603
20220901T080826,0,0,0,,0,0,0,0,0,,0,0,,,,0,,313527,379868921,1287494544,6340,608
20220901T080830,0,0,0,,0,0,0,0,0,,0,0,,,,0,,317524,379868918,1287494538,6340,604
20220901T080835,0,0,0,,0,0,0,0,0,,0,0,,,,0,,322520,379868915,1287494533,6340,605
20220901T080839,2600,5,10,138(0x8a),-104,72,-13,0,23,450f06,18640,1280,REGISTERED,CONNECTED,CS_PS_MODE1,18,0,326514,379868914,1287494533,6340,602
20220901T080843,0,0,0,,0,0,0,0,0,,0,0,,,,0,,330510,379868914,1287494529,6320,586
20220901T080848,2600,5,10,138(0x8a),-104,72,-13,0,23,450f06,18640,1280,REGISTERED,CONNECTED,CS_PS_MODE1,18,0,335507,379868911,1287494524,6370,638
20220901T080852,2600,5,10,138(0x8a),-104,72,-13,0,23,450f06,18640,1280,REGISTERED,CONNECTED,CS_PS_MODE1,18,0,339502,379868910,1287494519,6330,590
20220901T080856,2600,5,10,138(0x8a),-104,72,-13,0,23,450f06,18640,1280,REGISTERED,CONNECTED,CS_PS_MODE1,18,0,343497,379868905,1287494514,6410,677
20220901T080901,0,0,0,,0,0,0,0,0,,0,0,,,,0,,348827,379868899,1287494503,6340,602
20220901T080907,0,0,0,,0,0,0,0,0,,0,0,,,,0,,354819,379868902,1287494497,6340,608
20220901T080912,2600,5,10,138(0x8a),-104,72,-14,0,0,450f06,18640,1280,REGISTERED,CONNECTED,CS_PS_MODE1,18,0,359483,379868912,1287494495,6290,556
20220901T080918,2600,5,10,138(0x8a),-104,72,-14,0,0,450f06,18640,1280,REGISTERED,CONNECTED,CS_PS_MODE1,18,0,365475,379868920,1287494492,6280,544
20220901T080922,2600,5,10,138(0x8a),-104,78,-9,0,13,450f06,18640,1280,REGISTERED,CONNECTED,CS_PS_MODE1,18,0,369472,379868925,1287494494,6340,609
20220901T080927,2600,5,10,138(0x8a),-104,78,-9,0,13,450f06,18640,1280,REGISTERED,CONNECTED,CS_PS_MODE1,18,0,375132,379868935,1287494496,6360,620
20220901T080931,0,0,0,,0,0,0,0,0,,0,0,,,,0,,379129,379868944,1287494494,6370,637
20220901T080935,0,0,0,,0,0,0,0,0,,0,0,,,,0,,383127,379868944,1287494494,6340,608
20220901T080940,0,0,0,,0,0,0,0,0,,0,0,,,,0,,387454,379868941,1287494497,6340,605
20220901T080944,0,0,0,,0,0,0,0,0,,0,0,,,,0,,391449,379868944,1287494497,6330,596
20220901T080948,0,0,0,,0,0,0,0,0,,0,0,,,,0,,395445,379868954,1287494492,6300,562
20220901T080948,0,0,0,,0,0,0,0,0,,0,0,,,,0,,395445,379868954,1287494492,6300,562
20220901T080955,0,0,0,,0,0,0,0,0,,0,0,,,,0,,402439,379868955,1287494486,6290,559
20220901T080959,2600,5,10,247(0xf7),-103,76,-9,0,12,450f06,18640,1280,REGISTERED,CONNECTED,CS_PS_MODE1,18,0,406435,379868944,1287494488,6310,571
20220901T081003,2600,5,10,247(0xf7),-103,76,-9,0,12,450f06,18640,1280,REGISTERED,CONNECTED,CS_PS_MODE1,18,0,410432,379868927,1287494491,6320,583
20220901T081007,2600,5,10,247(0xf7),-103,76,-9,0,12,450f06,18640,1280,REGISTERED,CONNECTED,CS_PS_MODE1,18,0,414427,379868904,1287494494,6330,590
20220901T081012,2600,5,10,247(0xf7),-103,76,-9,0,12,450f06,18640,1280,REGISTERED,CONNECTED,CS_PS_MODE1,18,0,419422,379868874,1287494493,6260,520
20220901T081018,0,0,0,,0,0,0,0,0,,0,0,,,,0,,425417,379868845,1287494489,6300,564
20220901T081022,0,0,0,,0,0,0,0,0,,0,0,,,,0,,429412,379868819,1287494482,6290,554
20220901T081029,0,0,0,,0,0,0,0,0,,0,0,,,,0,,436404,379868789,1287494485,6360,620
20220901T081033,0,0,0,,0,0,0,0,0,,0,0,,,,0,,440402,379868781,1287494492,6400,663
20220901T081040,0,0,0,,0,0,0,0,0,,0,0,,,,0,,447727,379868797,1287494502,6330,591
20220901T081040,0,0,0,,0,0,0,0,0,,0,0,,,,0,,447727,379868797,1287494502,6330,591
20220901T081044,0,0,0,,0,0,0,0,0,,0,0,,,,0,,451722,379868817,1287494510,6290,554
20220901T081050,0,0,0,,0,0,0,0,0,,0,0,,,,0,,457717,379868835,1287494526,6360,626
20220901T081055,0,0,0,,0,0,0,0,0,,0,0,,,,0,,462380,379868847,1287494537,6320,583
20220901T081101,0,0,0,,0,0,0,0,0,,0,0,,,,0,,468374,379868853,1287494546,6230,-70
20220901T081105,2600,5,10,138(0x8a),-103,76,-14,0,6,450f06,18640,1280,REGISTERED,CONNECTED,CS_PS_MODE1,18,0,472369,379868862,1287494533,10760,4450
20220901T081110,2600,5,10,138(0x8a),-103,76,-14,0,6,450f06,18640,1280,REGISTERED,CONNECTED,CS_PS_MODE1,18,0,478031,379868856,1287494548,24810,18507
20220901T081114,0,0,0,,0,0,0,0,0,,0,0,,,,0,,482026,379868854,1287494544,34800,28494
20220901T081120,0,0,0,,0,0,0,0,0,,0,0,,,,0,,488019,379868853,1287494549,49760,43453
20220901T081125,2600,5,10,138(0x8a),-84,59,-9,0,-8,450f06,18640,1280,REGISTERED,CONNECTED,CS_PS_MODE1,18,0,492681,379868855,1287494555,61450,55144
20220901T081129,2600,5,10,138(0x8a),-84,59,-9,0,-11,450f06,18640,1280,REGISTERED,CONNECTED,CS_PS_MODE1,18,0,496679,379868853,1287494541,66580,60279
20220901T081133,2600,5,10,138(0x8a),-84,59,-9,0,4,450f06,18640,1280,REGISTERED,CONNECTED,CS_PS_MODE1,18,0,500674,379868860,1287494547,66340,60034
20220901T081138,2600,5,10,138(0x8a),-84,51,-9,0,8,450f06,18640,1280,REGISTERED,CONNECTED,CS_PS_MODE1,18,0,506336,379868999,1287494854,68810,62501
20220901T081144,0,0,0,,0,0,0,0,0,,0,0,,,,0,,512329,379870048,1287496959,75440,69139
20220901T081148,0,0,0,,0,0,0,0,0,,0,0,,,,0,,516326,379870359,1287497582,76400,70094
20220901T081153,0,0,0,,0,0,0,0,0,,0,0,,,,0,,520654,379870369,1287497600,76350,70041
20220901T081157,0,0,0,,0,0,0,0,0,,0,0,,,,0,,524651,379870368,1287497595,76480,70172
20220901T081201,0,0,0,,0,0,0,0,0,,0,0,,,,0,,528646,379870363,1287497606,76280,69974
20220901T081206,2600,5,10,138(0x8a),-84,52,-15,0,-2,450f06,18640,1280,REGISTERED,CONNECTED,CS_PS_MODE1,18,0,533641,379870365,1287497597,76400,70092
20220901T081210,0,0,0,,0,0,0,0,0,,0,0,,,,0,,537636,379870367,1287497599,76330,70027
20220901T081214,0,0,0,,0,0,0,0,0,,0,0,,,,0,,541634,379870364,1287497594,76360,70054
20220901T081221,0,0,0,,0,0,0,0,0,,0,0,,,,0,,548629,379870365,1287497606,76370,70060
20220901T081225,0,0,0,,0,0,0,0,0,,0,0,,,,0,,552621,379870366,1287497599,76370,70069
20220901T081229,0,0,0,,0,0,0,0,0,,0,0,,,,0,,556619,379870372,1287497599,76450,70143
20220901T081234,0,0,0,,0,0,0,0,0,,0,0,,,,0,,561614,379870369,1287497611,76280,69977
20220901T081238,2600,5,10,138(0x8a),-84,57,-11,0,-11,450f06,18640,1280,REGISTERED,CONNECTED,CS_PS_MODE1,18,0,565608,379870377,1287497602,71470,65164
20220901T081244,0,0,0,,0,0,0,0,0,,0,0,,,,0,,571605,379870371,1287497605,66260,59951
20220901T081249,0,0,0,,0,0,0,0,0,,0,0,,,,0,,576931,379870375,1287497605,66460,60158
20220901T081255,0,0,0,,0,0,0,0,0,,0,0,,,,0,,582926,379870365,1287497592,66340,60035
20220901T081259,0,0,0,,0,0,0,0,0,,0,0,,,,0,,586921,379870367,1287497589,66330,60029
20220901T081304,2600,5,10,138(0x8a),-84,58,-11,0,13,450f06,18640,1280,REGISTERED,CONNECTED,CS_PS_MODE1,18,0,591916,379870371,1287497605,66370,60061
20220901T081308,2600,5,10,138(0x8a),-84,58,-11,0,9,450f06,18640,1280,REGISTERED,CONNECTED,CS_PS_MODE1,18,0,595579,379870371,1287497601,66400,60099
20220901T081312,2600,5,10,138(0x8a),-84,58,-11,0,4,450f06,18640,1280,REGISTERED,CONNECTED,CS_PS_MODE1,18,0,599574,379870367,1287497595,66370,60064
20220901T081319,2600,5,10,138(0x8a),-84,58,-11,0,4,450f06,18640,1280,REGISTERED,CONNECTED,CS_PS_MODE1,18,0,607233,379870368,1287497598,66370,60064
20220901T081323,0,0,0,,0,0,0,0,0,,0,0,,,,0,,611229,379870371,1287497604,66340,60038
20220901T081329,0,0,0,,0,0,0,0,0,,0,0,,,,0,,617223,379870335,1287497571,66460,60156
20220901T081334,2600,5,10,247(0xf7),-84,52,-11,0,13,450f06,18640,1280,REGISTERED,CONNECTED,CS_PS_MODE1,18,0,621554,379869773,1287496415,66430,60128
20220901T081338,0,0,0,,0,0,0,0,0,,0,0,,,,0,,625548,379868978,1287494831,66450,60145
20220901T081342,2600,5,10,247(0xf7),-84,52,-11,0,13,450f06,18640,1280,REGISTERED,CONNECTED,CS_PS_MODE1,18,0,629546,379868848,1287494529,66420,60110
20220901T081347,0,0,0,,0,0,0,0,0,,0,0,,,,0,,634539,379868844,1287494537,66530,60229
20220901T081353,0,0,0,,0,0,0,0,0,,0,0,,,,0,,640534,379868847,1287494545,58770,52460
20220901T081357,2600,5,10,138(0x8a),-83,52,-11,0,-10,450f06,18640,1280,REGISTERED,CONNECTED,CS_PS_MODE1,18,0,644529,379868859,1287494560,52670,46362
20220901T081404,2600,5,10,138(0x8a),-83,52,-11,0,0,450f06,18640,1280,REGISTERED,CONNECTED,CS_PS_MODE1,18,0,651524,379868840,1287494530,42220,35912
20220901T081408,2600,5,10,138(0x8a),-83,52,-11,0,15,450f06,18640,1280,REGISTERED,CONNECTED,CS_PS_MODE1,18,0,655851,379868852,1287494554,35690,29385
20220901T081412,2600,5,10,138(0x8a),-83,52,-11,0,10,450f06,18640,1280,REGISTERED,CONNECTED,CS_PS_MODE1,18,0,659849,379868847,1287494535,29800,23492
20220901T081417,2600,5,10,138(0x8a),-83,52,-11,0,8,450f06,18640,1280,REGISTERED,CONNECTED,CS_PS_MODE1,18,0,664512,379868847,1287494532,22710,16408
20220901T081421,2600,5,10,138(0x8a),-83,52,-11,0,8,450f06,18640,1280,REGISTERED,CONNECTED,CS_PS_MODE1,18,0,668507,379868848,1287494539,16920,10619
20220901T081425,0,0,0,,0,0,0,0,0,,0,0,,,,0,,672501,379868848,1287494543,15350,9041
20220901T081430,0,0,0,,0,0,0,0,0,,0,0,,,,0,,677831,379868854,1287494547,13510,7209
20220901T081434,0,0,0,,0,0,0,0,0,,0,0,,,,0,,681826,379868847,1287494540,12120,5818
20220901T081438,0,0,0,,0,0,0,0,0,,0,0,,,,0,,686156,379868856,1287494548,10580,4275
20220901T081443,0,0,0,,0,0,0,0,0,,0,0,,,,0,,690483,379868857,1287494534,9100,2796
20220901T081449,0,0,0,,0,0,0,0,0,,0,0,,,,0,,696479,379868856,1287494537,6980,671
20220901T081453,0,0,0,,0,0,0,0,0,,0,0,,,,0,,700474,379868865,1287494548,6000,-303
20220901T081500,0,0,0,,0,0,0,0,0,,0,0,,,,0,,708134,379868888,1287494547,5920,-385
20220901T081504,2600,5,10,138(0x8a),-94,69,-10,0,8,450f06,18640,1280,REGISTERED,CONNECTED,CS_PS_MODE1,18,0,712129,379868900,1287494548,5910,-392
20220901T081510,0,0,0,,0,0,0,0,0,,0,0,,,,0,,718129,379868920,1287494553,5930,-377
20220901T081515,2600,5,10,138(0x8a),-94,69,-10,0,8,450f06,18640,1280,REGISTERED,CONNECTED,CS_PS_MODE1,18,0,722451,379868931,1287494557,5930,-372
20220901T081521,0,0,0,,0,0,0,0,0,,0,0,,,,0,,728446,379868940,1287494581,5940,-368
20220901T081525,2600,5,10,138(0x8a),-99,69,-10,0,0,450f06,18640,1280,REGISTERED,CONNECTED,CS_PS_MODE1,18,0,732441,379868945,1287494595,5940,-365
20220901T081530,0,0,0,,0,0,0,0,0,,0,0,,,,0,,737436,379868952,1287494610,5980,-329
20220901T081534,0,0,0,,0,0,0,0,0,,0,0,,,,0,,741433,379868947,1287494626,5980,-321
20220901T081538,2600,5,10,138(0x8a),-99,69,-10,0,23,450f06,18640,1280,REGISTERED,CONNECTED,CS_PS_MODE1,18,0,745429,379868939,1287494631,5970,-335
20220901T081543,2600,5,10,138(0x8a),-99,69,-10,0,22,450f06,18640,1280,REGISTERED,CONNECTED,CS_PS_MODE1,18,0,750424,379868929,1287494635,5970,-331
20220901T081549,0,0,0,,0,0,0,0,0,,0,0,,,,0,,756418,379868919,1287494638,5900,-43
20220901T081553,2600,5,10,138(0x8a),-99,69,-10,0,20,450f06,18640,1280,REGISTERED,CONNECTED,CS_PS_MODE1,18,0,761079,379868918,1287494635,7360,1410
20220901T081600,0,0,0,,0,0,0,0,0,,0,0,,,,0,,767407,379868914,1287494643,23160,17214
20220901T081604,2600,5,10,138(0x8a),-82,63,-10,0,-8,450f06,18640,1280,REGISTERED,CONNECTED,CS_PS_MODE1,18,0,771407,379868919,1287494641,33210,27264
20220901T081609,2600,5,10,138(0x8a),-82,63,-10,0,-8,450f06,18640,1280,REGISTERED,CONNECTED,CS_PS_MODE1,18,0,777064,379868915,1287494642,47290,41345
20220901T081613,2600,5,10,138(0x8a),-82,63,-10,0,-8,450f06,18640,1280,REGISTERED,CONNECTED,CS_PS_MODE1,18,0,781061,379868914,1287494650,57300,51357
20220901T081617,2600,5,10,138(0x8a),-82,63,-10,0,-8,450f06,18640,1280,REGISTERED,CONNECTED,CS_PS_MODE1,18,0,785056,379868914,1287494631,65270,59320
20220901T081621,0,0,0,,0,0,0,0,0,,0,0,,,,0,,789051,379868917,1287494631,66050,60104
20220901T081628,2600,5,10,138(0x8a),-82,63,-10,0,-8,450f06,18640,1280,REGISTERED,CONNECTED,CS_PS_MODE1,18,0,795378,379869252,1287495349,66090,60145
20220901T081634,2600,5,10,138(0x8a),-82,63,-10,0,-8,450f06,18640,1280,REGISTERED,CONNECTED,CS_PS_MODE1,18,0,801374,379870224,1287497308,65940,59993
20220901T081639,2600,5,10,138(0x8a),-82,63,-10,0,-8,450f06,18640,1280,REGISTERED,CONNECTED,CS_PS_MODE1,18,0,806368,379870368,1287497608,65970,60027
20220901T081645,0,0,0,,0,0,0,0,0,,0,0,,,,0,,812361,379870366,1287497595,66010,60068
20220901T081649,0,0,0,,0,0,0,0,0,,0,0,,,,0,,816358,379870369,1287497604,65980,60035
20220901T081654,0,0,0,,0,0,0,0,0,,0,0,,,,0,,821687,379870373,1287497600,66090,60144
20220901T081658,0,0,0,,0,0,0,0,0,,0,0,,,,0,,825681,379870366,1287497600,65980,60033
20220901T081704,2600,5,10,138(0x8a),-82,54,-10,0,0,450f06,18640,1280,REGISTERED,CONNECTED,CS_PS_MODE1,18,0,831676,379870368,1287497599,66020,60075
20220901T081708,2600,5,10,138(0x8a),-82,54,-10,0,-12,450f06,18640,1280,REGISTERED,CONNECTED,CS_PS_MODE1,18,0,835671,379870373,1287497599,66040,60092
20220901T081715,2600,5,10,138(0x8a),-82,54,-10,0,-12,450f06,18640,1280,REGISTERED,CONNECTED,CS_PS_MODE1,18,0,842666,379870370,1287497596,66010,60063
20220901T081719,0,0,0,,0,0,0,0,0,,0,0,,,,0,,846661,379870368,1287497595,66010,60060
20220901T081726,0,0,0,,0,0,0,0,0,,0,0,,,,0,,853986,379870367,1287497595,65960,60017
20220901T081730,2600,5,10,138(0x8a),-82,54,-10,0,-11,450f06,18640,1280,REGISTERED,CONNECTED,CS_PS_MODE1,18,0,857983,379870369,1287497596,66010,60067
20220901T081734,0,0,0,,0,0,0,0,0,,0,0,,,,0,,861724,379870370,1287497604,66080,60136
20220901T081738,0,0,0,,0,0,0,0,0,,0,0,,,,0,,866054,379870749,1287498519,66090,60146
20220901T081743,0,0,0,,0,0,0,0,0,,0,0,,,,0,,870381,379871637,1287500668,66000,60053
20220901T081747,0,0,0,,0,0,0,0,0,,0,0,,,,0,,874379,379872471,1287502691,66020,60074
20220901T081751,0,0,0,,0,0,0,0,0,,0,0,,,,0,,878374,379873300,1287504707,65950,60007
20220901T081756,0,0,0,,0,0,0,0,0,,0,0,,,,0,,884036,379874482,1287507575,65930,59984
20220901T081800,0,0,0,,0,0,0,0,0,,0,0,,,,0,,888031,379875316,1287509555,65930,59983
20220901T081804,2600,5,10,247(0xf7),-87,54,-15,0,21,450f06,18640,1280,REGISTERED,CONNECTED,CS_PS_MODE1,18,0,892026,379875371,1287510836,66050,60107
20220901T081808,0,0,0,,0,0,0,0,0,,0,0,,,,0,,896024,379874057,1287512057,66000,60052
20220901T081813,0,0,0,,0,0,0,0,0,,0,0,,,,0,,900684,379872368,1287513632,65930,59986
20220901T081817,2600,5,10,247(0xf7),-87,54,-15,0,14,450f06,18640,1280,REGISTERED,CONNECTED,CS_PS_MODE1,18,0,904681,379870920,1287514976,66010,60067
20220901T081823,0,0,0,,0,0,0,0,0,,0,0,,,,0,,910674,379868745,1287516986,65930,59986
20220901T081827,2600,5,10,427(0x1ab),-87,54,-15,0,4,450f06,18640,1280,REGISTERED,CONNECTED,CS_PS_MODE1,18,0,914671,379867302,1287518336,65960,60016
20220901T081832,0,0,0,,0,0,0,0,0,,0,0,,,,0,,920331,379865241,1287520237,65950,60001
20220901T081836,0,0,0,,0,0,0,0,0,,0,0,,,,0,,924329,379863795,1287521577,65910,59962
20220901T081843,0,0,0,,0,0,0,0,0,,0,0,,,,0,,930654,379861500,1287523704,65990,60048
20220901T081847,0,0,0,,0,0,0,0,0,,0,0,,,,0,,934651,379860054,1287525052,65940,59991
20220901T081853,0,0,0,,0,0,0,0,0,,0,0,,,,0,,940644,379857875,1287527063,65840,59895
20220901T081857,0,0,0,,0,0,0,0,0,,0,0,,,,0,,944641,379856590,1287528281,65730,59788
20220901T081904,0,0,0,,0,0,0,0,0,,0,0,,,,0,,951634,379857557,1287530739,65930,59985
20220901T081908,0,0,0,,0,0,0,0,0,,0,0,,,,0,,955629,379858658,1287532559,65930,59982
20220901T081912,0,0,0,,0,0,0,0,0,,0,0,,,,0,,959626,379859739,1287534371,65910,59962
20220901T081919,0,0,0,,0,0,0,0,0,,0,0,,,,0,,966951,379861731,1287537689,65770,59823
20220901T081923,2600,5,10,427(0x1ab),-82,54,-10,0,8,450f06,18640,1280,REGISTERED,CONNECTED,CS_PS_MODE1,18,0,970949,379862757,1287539397,65850,59900
20220901T081929,0,0,0,,0,0,0,0,0,,0,0,,,,0,,976941,379864302,1287538898,65810,59868
20220901T081934,0,0,0,,0,0,0,0,0,,0,0,,,,0,,981604,379866028,1287537352,65990,60040
20220901T081938,2600,5,10,427(0x1ab),-87,61,-10,0,11,450f06,18640,1280,REGISTERED,CONNECTED,CS_PS_MODE1,18,0,985600,379867490,1287536050,65980,60036
20220901T081944,0,0,0,,0,0,0,0,0,,0,0,,,,0,,991594,379869688,1287534085,65910,59969
20220901T081949,2600,5,10,427(0x1ab),-87,55,-10,0,-1,450f06,18640,1280,REGISTERED,CONNECTED,CS_PS_MODE1,18,0,997257,379871771,1287532218,65930,59983
20220901T081953,0,0,0,,0,0,0,0,0,,0,0,,,,0,,1001251,379873233,1287530914,65940,59993
20220901T081959,0,0,0,,0,0,0,0,0,,0,0,,,,0,,1007244,379875434,1287528946,65980,60034
20220901T082004,2600,5,10,247(0xf7),-87,63,-10,0,0,450f06,18640,1280,REGISTERED,CONNECTED,CS_PS_MODE1,18,0,1011574,379877021,1287527524,65940,59991
20220901T082010,0,0,0,,0,0,0,0,0,,0,0,,,,0,,1017569,379879231,1287525557,65930,59980
20220901T082016,2600,5,10,247(0xf7),-92,63,-10,0,18,450f06,18640,1280,REGISTERED,CONNECTED,CS_PS_MODE1,18,0,1023561,379881421,1287523592,65910,59969
20220901T082023,0,0,0,,0,0,0,0,0,,0,0,,,,0,,1030556,379883992,1287521292,65920,59974
20220901T082027,0,0,0,,0,0,0,0,0,,0,0,,,,0,,1034551,379885458,1287519984,65940,59996
20220901T082031,0,0,0,,0,0,0,0,0,,0,0,,,,0,,1038546,379886920,1287518677,65950,60005
20220901T082036,2600,5,10,247(0xf7),-92,63,-15,0,12,450f06,18640,1280,REGISTERED,CONNECTED,CS_PS_MODE1,18,0,1043541,379888757,1287517033,66000,60056
20220901T082042,0,0,0,,0,0,0,0,0,,0,0,,,,0,,1049536,379890962,1287515063,65930,59984
20220901T082046,0,0,0,,0,0,0,0,0,,0,0,,,,0,,1053531,379892426,1287513745,65910,59964
20220901T082053,0,0,0,,0,0,0,0,0,,0,0,,,,0,,1060526,379895004,1287511448,65940,59992
20220901T082057,0,0,0,,0,0,0,0,0,,0,0,,,,0,,1064521,379896472,1287510139,65960,60016
20220901T082103,0,0,0,,0,0,0,0,0,,0,0,,,,0,,1070516,379898672,1287508170,65970,60027
20220901T082108,0,0,0,,0,0,0,0,0,,0,0,,,,0,,1075844,379900633,1287506417,65920,59977
20220901T082112,0,0,0,,0,0,0,0,0,,0,0,,,,0,,1079839,379901819,1287505288,65960,60010
20220901T082116,0,0,0,,0,0,0,0,0,,0,0,,,,0,,1083836,379901445,1287503994,66140,60190
20220901T082121,0,0,0,,0,0,0,0,0,,0,0,,,,0,,1088496,379900269,1287501780,65880,59936
20220901T082127,0,0,0,,0,0,0,0,0,,0,0,,,,0,,1094492,379898772,1287498949,65880,59931
20220901T082146,2600,5,10,138(0x8a),-93,62,-11,0,0,450f06,18640,1280,REGISTERED,CONNECTED,CS_PS_MODE1,18,0,1114139,379895357,1287492472,65910,59969
20220901T082150,2600,5,10,138(0x8a),-93,62,-11,0,0,450f06,18640,1280,REGISTERED,CONNECTED,CS_PS_MODE1,18,0,1118133,379895359,1287492466,65860,59915
20220901T082157,0,0,0,,0,0,0,0,0,,0,0,,,,0,,1124461,379894581,1287493184,66040,60096
20220901T082203,2600,5,10,138(0x8a),-93,62,-11,0,0,450f06,18640,1280,REGISTERED,CONNECTED,CS_PS_MODE1,18,0,1130454,379892393,1287495190,65860,59914
20220901T082207,2600,5,10,138(0x8a),-93,62,-11,0,0,450f06,18640,1280,REGISTERED,CONNECTED,CS_PS_MODE1,18,0,1134451,379890949,1287496536,65910,59969
20220901T082213,0,0,0,,0,0,0,0,0,,0,0,,,,0,,1140446,379888758,1287498533,65910,59960
20220901T082213,0,0,0,,0,0,0,0,0,,0,0,,,,0,,1140446,379888758,1287498533,65910,59960
20220901T082220,0,0,0,,0,0,0,0,0,,0,0,,,,0,,1147439,379886215,1287500875,66020,60072
20220901T082224,0,0,0,,0,0,0,0,0,,0,0,,,,0,,1151433,379884762,1287502211,65800,59853
20220901T082230,2600,5,10,247(0xf7),-93,61,-11,0,2,450f06,18640,1280,REGISTERED,CONNECTED,CS_PS_MODE1,18,0,1157429,379882582,1287504212,65870,59927
20220901T082235,2600,5,10,427(0x1ab),-93,61,-11,0,19,450f06,18640,1280,REGISTERED,CONNECTED,CS_PS_MODE1,18,0,1162756,379880648,1287505992,65980,60036
20220901T082239,2600,5,10,427(0x1ab),-93,61,-11,0,18,450f06,18640,1280,REGISTERED,CONNECTED,CS_PS_MODE1,18,0,1166751,379879188,1287507329,65980,60033
20220901T082243,2600,5,10,427(0x1ab),-93,61,-11,0,18,450f06,18640,1280,REGISTERED,CONNECTED,CS_PS_MODE1,18,0,1170748,379877740,1287508667,65920,59970
20220901T082251,0,0,0,,0,0,0,0,0,,0,0,,,,0,,1178741,379875801,1287510440,65980,60035
20220901T082256,2600,5,10,247(0xf7),-93,61,-11,0,23,450f06,18640,1280,REGISTERED,CONNECTED,CS_PS_MODE1,18,0,1183403,379875710,1287510537,65870,59920
20220901T082302,2600,5,10,247(0xf7),-88,61,-11,0,0,450f06,18640,1280,REGISTERED,CONNECTED,CS_PS_MODE1,18,0,1189397,379875718,1287510523,66760,60816
20220901T082306,2600,5,10,247(0xf7),-88,61,-11,0,0,450f06,18640,1280,REGISTERED,CONNECTED,CS_PS_MODE1,18,0,1193391,379875716,1287510529,75910,69963
20220901T082311,0,0,0,,0,0,0,0,0,,0,0,,,,0,,1199054,379875711,1287510531,90130,84184
20220901T082315,0,0,0,,0,0,0,0,0,,0,0,,,,0,,1203049,379875715,1287510532,100100,94152
20220901T082319,0,0,0,,0,0,0,0,0,,0,0,,,,0,,1207046,379875713,1287510528,110150,104202
20220901T082324,0,0,0,,0,0,0,0,0,,0,0,,,,0,,1211374,379875707,1287510532,116040,110096
20220901T082330,0,0,0,,0,0,0,0,0,,0,0,,,,0,,1217369,379875707,1287510527,115840,109892
20220901T082337,0,0,0,,0,0,0,0,0,,0,0,,,,0,,1225316,379875457,1287510763,115980,110031
20220901T082337,0,0,0,,0,0,0,0,0,,0,0,,,,0,,1225316,379875457,1287510763,115980,110031
20220901T082341,0,0,0,,0,0,0,0,0,,0,0,,,,0,,1229313,379874245,1287511890,115870,109926
20220901T082345,0,0,0,,0,0,0,0,0,,0,0,,,,0,,1233309,379872793,1287513238,115930,109983
20220901T082352,0,0,0,,0,0,0,0,0,,0,0,,,,0,,1239636,379870500,1287515365,115880,109935
20220901T082356,2600,5,10,427(0x1ab),-84,54,-11,0,-4,450f06,18640,1280,REGISTERED,CONNECTED,CS_PS_MODE1,18,0,1243631,379869052,1287516702,115910,109963
20220901T082400,0,0,0,,0,0,0,0,0,,0,0,,,,0,,1247629,379867597,1287518052,115920,109975
20220901T082404,2600,5,10,427(0x1ab),-84,54,-11,0,0,450f06,18640,1280,REGISTERED,CONNECTED,CS_PS_MODE1,18,0,1251624,379866148,1287519397,115940,109998
20220901T082411,0,0,0,,0,0,0,0,0,,0,0,,,,0,,1258616,379863617,1287521749,115980,110031
20220901T082415,0,0,0,,0,0,0,0,0,,0,0,,,,0,,1262613,379862168,1287523094,115870,109929
20220901T082419,0,0,0,,0,0,0,0,0,,0,0,,,,0,,1266609,379860721,1287524431,115890,109942
20220901T082428,2600,5,10,427(0x1ab),-84,54,-11,0,0,450f06,18640,1280,REGISTERED,CONNECTED,CS_PS_MODE1,18,0,1275601,379857465,1287527456,115930,109985
20220901T082431,2600,5,10,427(0x1ab),-84,54,-11,0,0,450f06,18640,1280,REGISTERED,CONNECTED,CS_PS_MODE1,18,0,1278598,379856556,1287528313,115770,109822
20220901T082435,0,0,0,,0,0,0,0,0,,0,0,,,,0,,1282594,379856793,1287529485,115890,109945
20220901T082438,0,0,0,,0,0,0,0,0,,0,0,,,,0,,1285591,379857634,1287530864,115920,109975
20220901T082441,2600,5,10,427(0x1ab),-84,54,-11,0,6,450f06,18640,1280,REGISTERED,CONNECTED,CS_PS_MODE1,18,0,1288586,379858614,1287532496,115900,109951
20220901T082444,0,0,0,,0,0,0,0,0,,0,0,,,,0,,1291916,379859696,1287534311,115810,109864
20220901T082448,2600,5,10,427(0x1ab),-84,54,-11,0,6,450f06,18640,1280,REGISTERED,CONNECTED,CS_PS_MODE1,18,0,1295913,379861010,1287536486,115840,109896
20220901T082451,0,0,0,,0,0,0,0,0,,0,0,,,,0,,1298576,379861879,1287537932,115840,109895
20220901T082454,0,0,0,,0,0,0,0,0,,0,0,,,,0,,1301908,379862787,1287539441,115860,109918
20220901T082458,0,0,0,,0,0,0,0,0,,0,0,,,,0,,1305909,379863666,1287539483,115710,109762
20220901T082501,0,0,0,,0,0,0,0,0,,0,0,,,,0,,1308566,379864673,1287538565,115860,109912
20220901T082504,0,0,0,,0,0,0,0,0,,0,0,,,,0,,1311898,379866151,1287537248,116080,110135
20220901T082508,0,0,0,,0,0,0,0,0,,0,0,,,,0,,1315894,379867909,1287535671,115960,110014
20220901T082511,0,0,0,,0,0,0,0,0,,0,0,,,,0,,1318557,379869081,1287534628,115900,109957
20220901T082514,0,0,0,,0,0,0,0,0,,0,0,,,,0,,1321886,379870546,1287533314,115970,110025
20220901T082518,0,0,0,,0,0,0,0,0,,0,0,,,,0,,1326216,379872453,1287531609,115940,109999
20220901T082521,0,0,0,,0,0,0,0,0,,0,0,,,,0,,1328546,379873478,1287530688,115930,109988
20220901T082524,0,0,0,,0,0,0,0,0,,0,0,,,,0,,1332209,379875097,1287529247,115930,109982
20220901T082528,0,0,0,,0,0,0,0,0,,0,0,,,,0,,1336209,379876854,1287527675,116000,110053
20220901T082531,0,0,0,,0,0,0,0,0,,0,0,,,,0,,1338536,379877885,1287526760,115980,110030
20220901T082534,0,0,0,,0,0,0,0,0,,0,0,,,,0,,1342203,379879495,1287525305,115860,109918
20220901T082537,2600,5,10,427(0x1ab),-84,60,-11,0,0,450f06,18640,1280,REGISTERED,CONNECTED,CS_PS_MODE1,18,0,1344531,379880525,1287524400,115910,109962
20220901T082542,2600,5,10,427(0x1ab),-84,60,-11,0,0,450f06,18640,1280,REGISTERED,CONNECTED,CS_PS_MODE1,18,0,1350191,379883014,1287522173,115970,110029
20220901T082546,2600,5,10,427(0x1ab),-84,60,-11,0,0,450f06,18640,1280,REGISTERED,CONNECTED,CS_PS_MODE1,18,0,1354188,379884777,1287520596,115970,110023
20220901T082550,2600,5,10,427(0x1ab),-84,60,-11,0,0,450f06,18640,1280,REGISTERED,CONNECTED,CS_PS_MODE1,18,0,1357519,379886239,1287519284,115980,110038
20220901T082557,0,0,0,,0,0,0,0,0,,0,0,,,,0,,1364511,379889321,1287516533,115950,110007
20220901T082601,2600,5,10,427(0x1ab),-90,60,-11,0,0,450f06,18640,1280,REGISTERED,CONNECTED,CS_PS_MODE1,18,0,1368508,379891084,1287514959,115950,110000
20220901T082605,0,0,0,,0,0,0,0,0,,0,0,,,,0,,1372505,379892847,1287513382,115950,110009
20220901T082612,0,0,0,,0,0,0,0,0,,0,0,,,,0,,1379498,379895924,1287510623,115990,110040
20220901T082616,0,0,0,,0,0,0,0,0,,0,0,,,,0,,1383491,379897689,1287509052,115990,110048
20220901T082622,0,0,0,,0,0,0,0,0,,0,0,,,,0,,1389487,379900335,1287506686,115900,109954
20220901T082627,2600,5,10,247(0xf7),-95,60,-11,0,9,450f06,18640,1280,REGISTERED,CONNECTED,CS_PS_MODE1,18,0,1394814,379901884,1287505080,115840,109894
20220901T082631,0,0,0,,0,0,0,0,0,,0,0,,,,0,,1398809,379901225,1287503593,116110,110160
20220901T082637,2600,5,10,247(0xf7),-95,60,-11,0,0,450f06,18640,1280,REGISTERED,CONNECTED,CS_PS_MODE1,18,0,1404803,379899421,1287500176,115890,109941
20220901T082642,2600,5,10,247(0xf7),-95,60,-11,0,10,450f06,18640,1280,REGISTERED,CONNECTED,CS_PS_MODE1,18,0,1409466,379898024,1287497527,115900,109951
20220901T082646,2600,5,10,247(0xf7),-95,60,-11,0,10,450f06,18640,1280,REGISTERED,CONNECTED,CS_PS_MODE1,18,0,1413461,379896826,1287495262,115920,109973
20220901T082652,0,0,0,,0,0,0,0,0,,0,0,,,,0,,1419457,379895448,1287492635,115980,110037
20220901T082656,2600,5,10,138(0x8a),-95,60,-16,0,3,450f06,18640,1280,REGISTERED,CONNECTED,CS_PS_MODE1,18,0,1423451,379895349,1287492468,115950,110006
20220901T082703,2600,5,10,138(0x8a),-95,60,-16,0,3,450f06,18640,1280,REGISTERED,CONNECTED,CS_PS_MODE1,18,0,1431111,379894700,1287493073,115940,109994
20220901T082707,2600,5,10,247(0xf7),-95,60,-11,0,7,450f06,18640,1280,REGISTERED,CONNECTED,CS_PS_MODE1,18,0,1435109,379893065,1287494580,115890,109943
20220901T082711,2600,5,10,247(0xf7),-95,60,-11,0,17,450f06,18640,1280,REGISTERED,CONNECTED,CS_PS_MODE1,18,0,1439105,379891310,1287496181,115980,110030
20220901T082715,0,0,0,,0,0,0,0,0,,0,0,,,,0,,1443100,379889569,1287497788,115950,110005
20220901T082722,0,0,0,,0,0,0,0,0,,0,0,,,,0,,1449426,379886810,1287500322,115970,110028
20220901T082726,0,0,0,,0,0,0,0,0,,0,0,,,,0,,1453421,379885067,1287501933,115860,109910
20220901T082732,0,0,0,,0,0,0,0,0,,0,0,,,,0,,1459416,379882452,1287504338,115990,110041
20220901T082736,0,0,0,,0,0,0,0,0,,0,0,,,,0,,1463411,379880704,1287505942,115900,109952
20220901T082743,0,0,0,,0,0,0,0,0,,0,0,,,,0,,1470405,379877690,1287508720,115950,110003
20220901T082747,0,0,0,,0,0,0,0,0,,0,0,,,,0,,1474401,379876434,1287509862,115870,109920
20220901T082753,0,0,0,,0,0,0,0,0,,0,0,,,,0,,1480394,379875709,1287510540,115920,109976
20220901T082758,2600,5,10,427(0x1ab),-89,60,-11,0,4,450f06,18640,1280,REGISTERED,CONNECTED,CS_PS_MODE1,18,0,1485391,379875713,1287510527,116020,110075
20220901T082802,2600,5,10,427(0x1ab),-89,60,-11,0,4,450f06,18640,1280,REGISTERED,CONNECTED,CS_PS_MODE1,18,0,1489719,379875710,1287510527,124460,118519
20220901T082806,0,0,0,,0,0,0,0,0,,0,0,,,,0,,1493716,379875715,1287510528,134550,128601
20220901T082811,0,0,0,,0,0,0,0,0,,0,0,,,,0,,1498376,379875713,1287510528,146250,140301
20220901T082817,2600,5,10,427(0x1ab),-89,60,-11,0,4,450f06,18640,1280,REGISTERED,CONNECTED,CS_PS_MODE1,18,0,1504371,379875712,1287510530,161170,155225
20220901T082821,2600,5,10,427(0x1ab),-95,60,-16,0,0,450f06,18640,1280,REGISTERED,CONNECTED,CS_PS_MODE1,18,0,1508366,379875712,1287510528,165950,160004
20220901T082828,2600,5,10,427(0x1ab),-95,60,-16,0,0,450f06,18640,1280,REGISTERED,CONNECTED,CS_PS_MODE1,18,0,1515694,379875713,1287510528,165980,160031
20220901T082832,2600,5,10,427(0x1ab),-95,60,-16,0,0,450f06,18640,1280,REGISTERED,CONNECTED,CS_PS_MODE1,18,0,1519829,379875677,1287510568,166010,160064
20220901T082836,0,0,0,,0,0,0,0,0,,0,0,,,,0,,1523826,379874886,1287511292,166190,160249
20220901T082841,0,0,0,,0,0,0,0,0,,0,0,,,,0,,1528486,379872916,1287513119,165960,160018
20220901T082845,0,0,0,,0,0,0,0,0,,0,0,,,,0,,1532482,379871175,1287514738,165860,159911
20220901T082851,0,0,0,,0,0,0,0,0,,0,0,,,,0,,1538476,379868568,1287517159,165980,160035
20220901T082856,0,0,0,,0,0,0,0,0,,0,0,,,,0,,1543806,379866248,1287519304,165900,159957
20220901T082900,0,0,0,,0,0,0,0,0,,0,0,,,,0,,1547802,379864508,1287520922,165920,159977
20220901T082904,0,0,0,,0,0,0,0,0,,0,0,,,,0,,1552129,379862626,1287522665,165870,159925
20220901T082909,0,0,0,,0,0,0,0,0,,0,0,,,,0,,1556458,379860743,1287524417,165910,159963
20220901T082913,0,0,0,,0,0,0,0,0,,0,0,,,,0,,1560454,379859003,1287526021,166040,160091
20220901T082919,0,0,0,,0,0,0,0,0,,0,0,,,,0,,1566448,379856656,1287528200,165900,159952
20220901T082924,0,0,0,,0,0,0,0,0,,0,0,,,,0,,1572109,379857113,1287530005,165910,159969
20220901T082930,0,0,0,,0,0,0,0,0,,0,0,,,,0,,1577439,379858855,1287532903,165930,159984
20220901T082934,2600,5,10,427(0x1ab),-90,60,-11,0,0,450f06,18640,1280,REGISTERED,CONNECTED,CS_PS_MODE1,18,0,1581434,379860164,1287535068,165920,159977
20220901T082941,0,0,0,,0,0,0,0,0,,0,0,,,,0,,1588426,379862419,1287538824,165870,159924
20220901T082945,2600,5,10,427(0x1ab),-90,60,-11,0,0,450f06,18640,1280,REGISTERED,CONNECTED,CS_PS_MODE1,18,0,1592423,379863279,1287539763,165920,159978
20220901T082952,0,0,0,,0,0,0,0,0,,0,0,,,,0,,1599416,379865884,1287537481,166140,160194
20220901T082956,0,0,0,,0,0,0,0,0,,0,0,,,,0,,1603411,379867642,1287535906,165960,160015
20220901T083000,2600,5,10,427(0x1ab),-90,60,-11,0,0,450f06,18640,1280,REGISTERED,CONNECTED,CS_PS_MODE1,18,0,1607409,379869406,1287534341,165930,159988
20220901T083007,0,0,0,,0,0,0,0,0,,0,0,,,,0,,1614734,379872632,1287531452,165970,160028
20220901T083011,2600,5,10,427(0x1ab),-90,60,-11,0,13,450f06,18640,1280,REGISTERED,CONNECTED,CS_PS_MODE1,18,0,1618731,379874395,1287529882,165930,159983
20220901T083017,0,0,0,,0,0,0,0,0,,0,0,,,,0,,1624723,379877033,1287527515,165970,160021
20220901T083021,0,0,0,,0,0,0,0,0,,0,0,,,,0,,1628721,379878798,1287525940,165980,160038
20220901T083028,0,0,0,,0,0,0,0,0,,0,0,,,,0,,1635379,379881724,1287523322,165940,159993
20220901T083032,2600,5,10,182(0xb6),-90,60,-11,0,22,450f06,18640,1280,REGISTERED,CONNECTED,CS_PS_MODE1,18,0,1639376,379883490,1287521744,165950,160001
20220901T083038,0,0,0,,0,0,0,0,0,,0,0,,,,0,,1645371,379886125,1287519390,165920,159973
20220901T083043,2600,5,10,427(0x1ab),-90,60,-11,0,20,450f06,18640,1280,REGISTERED,CONNECTED,CS_PS_MODE1,18,0,1651031,379888617,1287517157,165970,160022
20220901T083047,2600,5,10,427(0x1ab),-90,60,-11,0,20,450f06,18640,1280,REGISTERED,CONNECTED,CS_PS_MODE1,18,0,1655026,379890379,1287515582,165950,160005
20220901T083051,2600,5,10,427(0x1ab),-90,60,-11,0,20,450f06,18640,1280,REGISTERED,CONNECTED,CS_PS_MODE1,18,0,1659024,379892142,1287514006,165950,160002
20220901T083056,0,0,0,,0,0,0,0,0,,0,0,,,,0,,1663351,379894048,1287512302,165910,159966
20220901T083100,0,0,0,,0,0,0,0,0,,0,0,,,,0,,1667349,379895814,1287510727,165950,160006
20220901T083104,0,0,0,,0,0,0,0,0,,0,0,,,,0,,1671344,379897574,1287509151,165970,160029
20220901T083111,0,0,0,,0,0,0,0,0,,0,0,,,,0,,1679336,379901074,1287506028,165960,160014
20220901T083115,2600,5,10,247(0xf7),-98,60,-16,0,12,450f06,18640,1280,REGISTERED,CONNECTED,CS_PS_MODE1,18,0,1683331,379901886,1287504966,165820,159870
20220901T083121,0,0,0,,0,0,0,0,0,,0,0,,,,0,,1689326,379900507,1287502228,166060,160111
20220901T083126,0,0,0,,0,0,0,0,0,,0,0,,,,0,,1693654,379899200,1287499765,165930,159988
20220901T083130,0,0,0,,0,0,0,0,0,,0,0,,,,0,,1697651,379898005,1287497491,165920,159978
20220901T083130,0,0,0,,0,0,0,0,0,,0,0,,,,0,,1697651,379898005,1287497491,165920,159978
20220901T083143,2600,5,10,138(0x8a),-98,60,-16,0,0,450f06,18640,1280,REGISTERED,CONNECTED,CS_PS_MODE1,18,0,1711303,379895349,1287492470,165840,159897
20220901T083149,0,0,0,,0,0,0,0,0,,0,0,,,,0,,1716631,379895131,1287492684,166080,160139
20220901T083155,0,0,0,,0,0,0,0,0,,0,0,,,,0,,1722628,379892945,1287494681,165950,160006
20220901T083159,0,0,0,,0,0,0,0,0,,0,0,,,,0,,1726621,379891203,1287496290,165870,159928
20220901T083206,0,0,0,,0,0,0,0,0,,0,0,,,,0,,1733614,379888149,1287499096,165990,160041
20220901T083210,0,0,0,,0,0,0,0,0,,0,0,,,,0,,1737611,379886402,1287500691,166030,160088
20220901T083217,0,0,0,,0,0,0,0,0,,0,0,,,,0,,1744603,379883355,1287503505,166040,160099
20220901T083221,2600,5,10,427(0x1ab),-98,60,-16,0,8,450f06,18640,1280,REGISTERED,CONNECTED,CS_PS_MODE1,18,0,1748602,379881606,1287505105,166010,160065
20220901T083227,2600,5,10,427(0x1ab),-98,60,-16,0,8,450f06,18640,1280,REGISTERED,CONNECTED,CS_PS_MODE1,18,0,1754594,379878994,1287507511,166020,160078
20220901T083231,0,0,0,,0,0,0,0,0,,0,0,,,,0,,1758591,379877340,1287509026,165870,159924
20220901T083238,2600,5,10,427(0x1ab),-98,60,-16,0,8,450f06,18640,1280,REGISTERED,CONNECTED,CS_PS_MODE1,18,0,1765916,379875770,1287510471,165920,159971
20220901T083242,0,0,0,,0,0,0,0,0,,0,0,,,,0,,1769911,379875710,1287510534,165900,159952
20220901T083246,2600,5,10,427(0x1ab),-98,60,-16,0,8,450f06,18640,1280,REGISTERED,CONNECTED,CS_PS_MODE1,18,0,1773908,379875710,1287510529,174300,168352
20220901T083253,0,0,0,,0,0,0,0,0,,0,0,,,,0,,1780568,379875713,1287510524,191030,185084
20220901T083257,2600,5,10,427(0x1ab),-93,60,-16,0,6,450f06,18640,1280,REGISTERED,CONNECTED,CS_PS_MODE1,18,0,1784564,379875712,1287510528,201030,195083
20220901T083304,0,0,0,,0,0,0,0,0,,0,0,,,,0,,1792223,379875712,1287510528,215910,209966
20220901T083308,0,0,0,,0,0,0,0,0,,0,0,,,,0,,1796219,379875710,1287510528,216010,210065
20220901T083312,2600,5,10,427(0x1ab),-93,60,-16,0,6,450f06,18640,1280,REGISTERED,CONNECTED,CS_PS_MODE1,18,0,1800214,379875712,1287510525,216010,210062
20220901T083316,2600,5,10,427(0x1ab),-93,60,-16,0,6,450f06,18640,1280,REGISTERED,CONNECTED,CS_PS_MODE1,18,0,1803979,379875711,1287510527,215990,210049
20220901T083321,0,0,0,,0,0,0,0,0,,0,0,,,,0,,1808649,379875523,1287510705,216030,210080
20220901T083325,0,0,0,,0,0,0,0,0,,0,0,,,,0,,1812644,379874338,1287511793,216270,210324
20220901T083329,0,0,0,,0,0,0,0,0,,0,0,,,,0,,1816641,379872603,1287513414,215860,209917
20220901T083334,0,0,0,,0,0,0,0,0,,0,0,,,,0,,1822303,379870137,1287515698,215900,209957
20220901T083338,2600,5,10,203(0xcb),-93,60,-16,0,7,450f06,18640,1280,REGISTERED,CONNECTED,CS_PS_MODE1,18,0,1826297,379868403,1287517308,215870,209925
20220901T083347,0,0,0,,0,0,0,0,0,,0,0,,,,0,,1834631,379864777,1287520674,215900,209954
20220901T083350,0,0,0,,0,0,0,0,0,,0,0,,,,0,,1838287,379863182,1287522144,215910,209965
20220901T083354,2600,5,10,203(0xcb),-93,60,-16,0,16,450f06,18640,1280,REGISTERED,CONNECTED,CS_PS_MODE1,18,0,1841616,379861734,1287523488,215940,209992
20220901T083402,0,0,0,,0,0,0,0,0,,0,0,,,,0,,1849608,379858260,1287526716,216070,210121
20220901T083406,2600,5,10,427(0x1ab),-93,60,-16,0,0,450f06,18640,1280,REGISTERED,CONNECTED,CS_PS_MODE1,18,0,1853605,379856730,1287528137,215870,209925
20220901T083413,0,0,0,,0,0,0,0,0,,0,0,,,,0,,1860596,379857448,1287530559,216110,210166
20220901T083417,0,0,0,,0,0,0,0,0,,0,0,,,,0,,1864594,379858767,1287532745,216010,210064
20220901T083423,2600,5,10,427(0x1ab),-93,60,-16,0,0,450f06,18640,1280,REGISTERED,CONNECTED,CS_PS_MODE1,18,0,1870586,379860722,1287536005,215960,210016
20220901T083423,0,0,0,,0,0,0,0,0,,0,0,,,,0,,1870586,379860722,1287536005,215960,210016
20220901T083428,2600,5,10,427(0x1ab),-93,60,-16,0,0,450f06,18640,1280,REGISTERED,CONNECTED,CS_PS_MODE1,18,0,1875581,379862338,1287538691,215980,210036
20220901T083432,0,0,0,,0,0,0,0,0,,0,0,,,,0,,1879579,379863217,1287539767,215830,209885
20220901T083438,0,0,0,,0,0,0,0,0,,0,0,,,,0,,1885571,379865317,1287537988,216130,210188
20220901T083442,0,0,0,,0,0,0,0,0,,0,0,,,,0,,1889569,379867082,1287536410,216050,210105
20220901T083447,0,0,0,,0,0,0,0,0,,0,0,,,,0,,1894896,379869426,1287534313,216030,210081
20220901T083453,0,0,0,,0,0,0,0,0,,0,0,,,,0,,1900889,379872070,1287531954,216070,210121
20220901T083457,2600,5,10,182(0xb6),-93,60,-16,0,12,450f06,18640,1280,REGISTERED,CONNECTED,CS_PS_MODE1,18,0,1904887,379873831,1287530384,215940,209990
20220901T083504,0,0,0,,0,0,0,0,0,,0,0,,,,0,,1911546,379876758,1287527751,215870,209922
20220901T083508,0,0,0,,0,0,0,0,0,,0,0,,,,0,,1915541,379878527,1287526189,215970,210026
20220901T083512,0,0,0,,0,0,0,0,0,,0,0,,,,0,,1919538,379880285,1287524613,215910,209962
20220901T083519,0,0,0,,0,0,0,0,0,,0,0,,,,0,,1927201,379883660,1287521592,215980,210033
20220901T083519,0,0,0,,0,0,0,0,0,,0,0,,,,0,,1927201,379883660,1287521592,215980,210033
20220901T083525,0,0,0,,0,0,0,0,0,,0,0,,,,0,,1933191,379886293,1287519233,215970,210026
20220901T083530,0,0,0,,0,0,0,0,0,,0,0,,,,0,,1937521,379888209,1287517530,215950,210002
20220901T083536,0,0,0,,0,0,0,0,0,,0,0,,,,0,,1943514,379890839,1287515171,215950,210009
20220901T083536,0,0,0,,0,0,0,0,0,,0,0,,,,0,,1943514,379890839,1287515171,215950,210009
20220901T083542,0,0,0,,0,0,0,0,0,,0,0,,,,0,,1949509,379893490,1287512804,215950,210002
20220901T083547,0,0,0,,0,0,0,0,0,,0,0,,,,0,,1954505,379895692,1287510844,215970,210026
20220901T083553,0,0,0,,0,0,0,0,0,,0,0,,,,0,,1960501,379898334,1287508478,215950,210005
20220901T083557,2600,5,10,182(0xb6),-98,60,-16,0,0,450f06,18640,1280,REGISTERED,CONNECTED,CS_PS_MODE1,18,0,1964494,379900096,1287506893,215890,209948
20220901T083604,2600,5,10,203(0xcb),-98,60,-16,0,11,450f06,18640,1280,REGISTERED,CONNECTED,CS_PS_MODE1,18,0,1971818,379901802,1287504656,215950,210007
20220901T083608,2600,5,10,203(0xcb),-98,60,-16,0,0,450f06,18640,1280,REGISTERED,CONNECTED,CS_PS_MODE1,18,0,1975814,379900788,1287502766,216000,210056
20220901T083614,2600,5,10,203(0xcb),-98,60,-16,0,9,450f06,18640,1280,REGISTERED,CONNECTED,CS_PS_MODE1,18,0,1981809,379898986,1287499346,215960,210013
20220901T083619,2600,5,10,203(0xcb),-93,60,-16,0,6,450f06,18640,1280,REGISTERED,CONNECTED,CS_PS_MODE1,18,0,1986471,379897588,1287496699,215930,209987
20220901T083625,2600,5,10,203(0xcb),-93,60,-16,0,6,450f06,18640,1280,REGISTERED,CONNECTED,CS_PS_MODE1,18,0,1992466,379895851,1287493423,215870,209921
20220901T083629,2600,5,10,203(0xcb),-93,60,-16,0,6,450f06,18640,1280,REGISTERED,CONNECTED,CS_PS_MODE1,18,0,1996461,379895368,1287492471,216050,210100
20220901T083636,0,0,0,,0,0,0,0,0,,0,0,,,,0,,2003786,379895180,1287492630,215840,209895
20220901T083640,2600,5,10,203(0xcb),-93,60,-16,0,6,450f06,18640,1280,REGISTERED,CONNECTED,CS_PS_MODE1,18,0,2008116,379893812,1287493890,215930,209983
20220901T083644,0,0,0,,0,0,0,0,0,,0,0,,,,0,,2012111,379892072,1287495499,215820,209876
20220901T083651,0,0,0,,0,0,0,0,0,,0,0,,,,0,,2018438,379889307,1287498028,215840,209895
20220901T083655,0,0,0,,0,0,0,0,0,,0,0,,,,0,,2022436,379887564,1287499635,215810,209869
20220901T083701,2600,5,10,203(0xcb),-93,60,-16,0,5,450f06,18640,1280,REGISTERED,CONNECTED,CS_PS_MODE1,18,0,2028429,379885101,1287501911,215590,209642
20220901T083705,0,0,0,,0,0,0,0,0,,0,0,,,,0,,2032424,379884696,1287502288,215530,209587
20220901T083709,2600,5,10,203(0xcb),-93,60,-16,0,5,450f06,18640,1280,REGISTERED,CONNECTED,CS_PS_MODE1,18,0,2036421,379884586,1287502256,215380,209439
20220901T083715,2600,5,10,203(0xcb),-93,60,-16,0,5,450f06,18640,1280,REGISTERED,CONNECTED,CS_PS_MODE1,18,0,2042416,379882789,1287501399,215570,209623
20220901T083720,2600,5,10,203(0xcb),-93,60,-16,0,5,450f06,18640,1280,REGISTERED,CONNECTED,"CS_P_OE,EMCas",18,0,2047411,379880686,1287500369,215560,209610
20220901T083724,2600,5,10,203(0xcb),-93,60,-16,0,5,450f06,18640,1280,REGISTERED,CONNECTED,"CS_P_OE,EMCas",18,0,2051409,379879017,1287499553,215590,209649
20220901T083731,2600,5,10,203(0xcb),-93,60,-16,0,5,450f06,18640,1280,REGISTERED,CONNECTED,"CS_P_OE,EMCas",18,0,2058400,379876083,1287498124,215550,209603
20220901T083735,2600,5,10,203(0xcb),-93,60,-16,0,7,450f06,18640,1280,REGISTERED,CONNECTED,CS_PS_MODE1,18,0,2062396,379874408,1287497309,215550,209607
20220901T083741,0,0,0,,0,0,0,0,0,,0,0,,,,0,,2068389,379871894,1287496085,215580,209638
20220901T083745,2600,5,10,203(0xcb),-93,60,-16,0,20,450f06,18640,1280,REGISTERED,CONNECTED,CS_PS_MODE1,18,0,2072386,379870220,1287495272,215550,209604
20220901T083752,2600,5,10,203(0xcb),-93,60,-16,0,9,450f06,18640,1280,REGISTERED,CONNECTED,CS_PS_MODE1,18,0,2079379,379868913,1287494638,215530,209581
20220901T083756,2600,5,10,427(0x1ab),-93,60,-16,0,0,450f06,18640,1280,REGISTERED,CONNECTED,CS_PS_MODE1,18,0,2083373,379868928,1287494631,215560,209618
20220901T083802,2600,5,10,427(0x1ab),-93,60,-16,0,0,450f06,18640,1280,REGISTERED,CONNECTED,CS_PS_MODE1,18,0,2089369,379868923,1287494637,208410,202461
20220901T083807,0,0,0,,0,0,0,0,0,,0,0,,,,0,,2094696,379868923,1287494640,200240,194297
20220901T083813,0,0,0,,0,0,0,0,0,,0,0,,,,0,,2100689,379868925,1287494637,191220,185274
20220901T083817,0,0,0,,0,0,0,0,0,,0,0,,,,0,,2104686,379868924,1287494635,185270,179326
20220901T083824,2600,5,10,427(0x1ab),-93,60,-16,0,0,450f06,18640,1280,REGISTERED,CONNECTED,CS_PS_MODE1,18,0,2111346,379868921,1287494646,175270,169326
20220901T083828,2600,5,10,427(0x1ab),-93,60,-16,0,0,450f06,18640,1280,REGISTERED,CONNECTED,CS_PS_MODE1,18,0,2115676,379868924,1287494632,168730,162782
20220901T083834,0,0,0,,0,0,0,0,0,,0,0,,,,0,,2121669,379868927,1287494632,159790,153849
20220901T083839,0,0,0,,0,0,0,0,0,,0,0,,,,0,,2127001,379868928,1287494643,151790,145848
20220901T083845,2600,5,10,427(0x1ab),-93,60,-16,0,0,450f06,18640,1280,REGISTERED,CONNECTED,CS_PS_MODE1,18,0,2132991,379868926,1287494640,142720,136777
20220901T083849,2600,5,10,427(0x1ab),-88,60,-11,0,0,450f06,18640,1280,REGISTERED,CONNECTED,CS_PS_MODE1,18,0,2136986,379868927,1287494638,136790,130846
20220901T083856,0,0,0,,0,0,0,0,0,,0,0,,,,0,,2143647,379868927,1287494645,126840,120890
20220901T083900,2600,5,10,427(0x1ab),-88,60,-11,0,0,450f06,18640,1280,REGISTERED,CONNECTED,CS_PS_MODE1,18,0,2147644,379868927,1287494632,120850,114900
20220901T083907,2600,5,10,427(0x1ab),-88,60,-11,0,0,450f06,18640,1280,REGISTERED,CONNECTED,CS_PS_MODE1,18,0,2155301,379868917,1287494641,109370,103425
20220901T083911,2600,5,10,427(0x1ab),-88,60,-11,0,0,450f06,18640,1280,REGISTERED,CONNECTED,CS_PS_MODE1,18,0,2159301,379868926,1287494638,103320,97373
20220901T083917,0,0,0,,0,0,0,0,0,,0,0,,,,0,,2165291,379868921,1287494628,94370,88428
20220901T083921,2600,5,10,138(0x8a),-88,59,-11,0,0,450f06,18640,1280,REGISTERED,CONNECTED,CS_PS_MODE1,18,0,2169287,379868920,1287494629,88280,82331
20220901T083929,2600,5,10,138(0x8a),-88,59,-11,0,0,450f06,18640,1280,REGISTERED,CONNECTED,CS_PS_MODE1,18,0,2176614,379868929,1287494646,77400,71457
20220901T083934,2600,5,10,138(0x8a),-88,59,-11,0,0,450f06,18640,1280,REGISTERED,CONNECTED,CS_PS_MODE1,18,0,2181609,379868922,1287494629,69900,63952
20220901T083938,2600,5,10,138(0x8a),-88,59,-11,0,9,450f06,18640,1280,REGISTERED,CONNECTED,CS_PS_MODE1,18,0,2185605,379868925,1287494639,63870,57921
20220901T083942,2600,5,10,138(0x8a),-88,59,-11,0,9,450f06,18640,1280,REGISTERED,CONNECTED,CS_PS_MODE1,18,0,2189601,379868927,1287494639,57900,51952
20220901T083947,0,0,0,,0,0,0,0,0,,0,0,,,,0,,2194597,379868926,1287494640,50340,44394
20220901T083951,0,0,0,,0,0,0,0,0,,0,0,,,,0,,2198591,379868917,1287494620,44440,38495
20220901T083955,0,0,0,,0,0,0,0,0,,0,0,,,,0,,2202589,379868931,1287494643,38470,32524
20220901T084000,2600,5,10,138(0x8a),-88,59,-11,0,9,450f06,18640,1280,REGISTERED,CONNECTED,CS_PS_MODE1,18,0,2207583,379868920,1287494643,30950,25006
20220901T084006,0,0,0,,0,0,0,0,0,,0,0,,,,0,,2213909,379868922,1287494627,21450,15505
20220901T084010,0,0,0,,0,0,0,0,0,,0,0,,,,0,,2217908,379868937,1287494644,16250,10303
20220901T084016,0,0,0,,0,0,0,0,0,,0,0,,,,0,,2223902,379868923,1287494625,14110,8162
20220901T084021,0,0,0,,0,0,0,0,0,,0,0,,,,0,,2228561,379868926,1287494628,12510,6564
20220901T084025,0,0,0,,0,0,0,0,0,,0,0,,,,0,,2232558,379868923,1287494641,11110,5168
20220901T084029,0,0,0,,0,0,0,0,0,,0,0,,,,0,,2236554,379868923,1287494630,9760,3811
20220901T084036,0,0,0,,0,0,0,0,0,,0,0,,,,0,,2244214,379868919,1287494636,7010,1069
20220901T084040,0,0,0,,0,0,0,0,0,,0,0,,,,0,,2248208,379868926,1287494632,5620,-324
20220901T084044,0,0,0,,0,0,0,0,0,,0,0,,,,0,,2252208,379868925,1287494640,4220,-1725