ct,frequency,band,bandwidth,cell_id,rsrp,rssi,rsrq,bler,tx_power,plmn,tac,drx,emm_state,rrc_state,net_op_mode,emm_cause,esm_cause,time_boot_ms,lat,lon,alt,relative_alt
20220901T093548,2600,5,10,413(0x19d),-71,50,-8,0,-5,450f06,18640,1280,REGISTERED,CONNECTED,CS_PS_MODE1,18,0,100179,379531167,1287700860,7340,-534
20220901T093550,2600,5,10,413(0x19d),-71,50,-8,0,-7,450f06,18640,1280,REGISTERED,CONNECTED,CS_PS_MODE1,18,0,102176,379531165,1287700861,7340,-531
20220901T093553,2600,5,10,413(0x19d),-71,50,-8,0,-15,450f06,18640,1280,REGISTERED,CONNECTED,CS_PS_MODE1,18,0,105838,379531162,1287700862,7540,-332
20220901T093555,2600,5,10,413(0x19d),-71,50,-8,0,-6,450f06,18640,1280,REGISTERED,CONNECTED,CS_PS_MODE1,18,0,107836,379531157,1287700858,7580,-291
20220901T093557,2600,5,10,413(0x19d),-71,50,-8,0,-5,450f06,18640,1280,REGISTERED,CONNECTED,CS_PS_MODE1,18,0,109834,379531153,1287700853,7640,-232
20220901T093559,2600,5,10,413(0x19d),-71,50,-8,0,-11,450f06,18640,1280,REGISTERED,CONNECTED,CS_PS_MODE1,18,0,111834,379531163,1287700853,7740,-136
20220901T093601,2600,5,10,413(0x19d),-71,50,-8,0,-17,450f06,18640,1280,REGISTERED,CONNECTED,CS_PS_MODE1,18,0,113831,379531164,1287700852,7770,-100
20220901T093603,2600,5,10,413(0x19d),-65,42,-8,0,-5,450f06,18640,1280,REGISTERED,CONNECTED,CS_PS_MODE1,18,0,115829,379531156,1287700851,7820,-55
20220901T093605,2600,5,10,413(0x19d),-65,42,-8,0,-3,450f06,18640,1280,REGISTERED,CONNECTED,CS_PS_MODE1,18,0,117826,379531162,1287700849,7840,-31
20220901T093607,2600,5,10,413(0x19d),-65,42,-8,0,-20,450f06,18640,1280,REGISTERED,CONNECTED,CS_PS_MODE1,18,0,119824,379531332,1287700925,8340,467
20220901T093610,2600,5,10,413(0x19d),-65,42,-8,0,-25,450f06,18640,1280,REGISTERED,CONNECTED,CS_PS_MODE1,18,0,122156,379531361,1287700936,7920,47
20220901T093612,2600,5,10,413(0x19d),-65,42,-8,0,-13,450f06,18640,1280,REGISTERED,CONNECTED,CS_PS_MODE1,18,0,124486,379531517,1287700878,8360,484
20220901T093614,2600,5,10,413(0x19d),-65,42,-8,0,-14,450f06,18640,1280,REGISTERED,CONNECTED,CS_PS_MODE1,18,0,126484,379531509,1287700884,8120,245
20220901T093616,2600,5,10,413(0x19d),-65,42,-8,0,-17,450f06,18640,1280,REGISTERED,CONNECTED,CS_PS_MODE1,18,0,128482,379531516,1287700882,8150,272
20220901T093618,2600,5,10,413(0x19d),-65,42,-8,0,-20,450f06,18640,1280,REGISTERED,CONNECTED,CS_PS_MODE1,18,0,130482,379531514,1287700875,8170,297
20220901T093620,2600,5,10,413(0x19d),-65,42,-8,0,-5,450f06,18640,1280,REGISTERED,CONNECTED,CS_PS_MODE1,18,0,132479,379531515,1287700877,8120,248
20220901T093622,2600,5,10,413(0x19d),-65,42,-8,0,0,450f06,18640,1280,REGISTERED,CONNECTED,CS_PS_MODE1,18,0,134476,379531517,1287700876,8160,281
20220901T093624,2600,5,10,413(0x19d),-65,42,-8,0,-14,450f06,18640,1280,REGISTERED,CONNECTED,CS_PS_MODE1,18,0,136476,379531518,1287700874,8110,232
20220901T093627,2600,5,10,413(0x19d),-65,42,-8,0,4,450f06,18640,1280,REGISTERED,CONNECTED,CS_PS_MODE1,18,0,140138,379531521,1287700870,8120,243
20220901T093629,2600,5,10,413(0x19d),-65,42,-8,0,-20,450f06,18640,1280,REGISTERED,CONNECTED,CS_PS_MODE1,18,0,142136,379531523,1287700864,8110,236
20220901T093631,2600,5,10,413(0x19d),-65,42,-8,0,-23,450f06,18640,1280,REGISTERED,CONNECTED,CS_PS_MODE1,18,0,144134,379531526,1287700860,8150,273
20220901T093633,2600,5,10,413(0x19d),-65,42,-8,0,-20,450f06,18640,1280,REGISTERED,CONNECTED,CS_PS_MODE1,18,0,145466,379531529,1287700859,8130,254
20220901T093635,2600,5,10,413(0x19d),-65,42,-8,0,-24,450f06,18640,1280,REGISTERED,CONNECTED,CS_PS_MODE1,18,0,147463,379531530,1287700856,8140,264
20220901T093637,2600,5,10,413(0x19d),-65,42,-8,0,-24,450f06,18640,1280,REGISTERED,CONNECTED,CS_PS_MODE1,18,0,149461,379531530,1287700848,8130,250
20220901T093639,2600,5,10,413(0x19d),-65,42,-8,0,-19,450f06,18640,1280,REGISTERED,CONNECTED,CS_PS_MODE1,18,0,151459,379531530,1287700841,8100,225
20220901T093641,2600,5,10,413(0x19d),-65,42,-8,0,-20,450f06,18640,1280,REGISTERED,CONNECTED,CS_PS_MODE1,18,0,153459,379531531,1287700836,8170,298
20220901T093644,2600,5,10,413(0x19d),-65,42,-8,0,-14,450f06,18640,1280,REGISTERED,CONNECTED,CS_PS_MODE1,18,0,156454,379531537,1287700832,8250,374
20220901T093646,2600,5,10,413(0x19d),-65,42,-8,0,-14,450f06,18640,1280,REGISTERED,CONNECTED,CS_PS_MODE1,18,0,158454,379531539,1287700828,8220,348
20220901T093648,2600,5,10,413(0x19d),-65,42,-8,0,-23,450f06,18640,1280,REGISTERED,CONNECTED,CS_PS_MODE1,18,0,160451,379531539,1287700824,8210,336
20220901T093650,2600,5,10,413(0x19d),-65,42,-8,0,3,450f06,18640,1280,REGISTERED,CONNECTED,CS_PS_MODE1,18,0,162448,379531540,1287700819,8190,319
20220901T093652,2600,5,10,413(0x19d),-65,42,-8,0,-14,450f06,18640,1280,REGISTERED,CONNECTED,CS_PS_MODE1,18,0,164446,379531544,1287700815,8180,306
20220901T093654,2600,5,10,413(0x19d),-65,42,-8,0,-14,450f06,18640,1280,REGISTERED,CONNECTED,CS_PS_MODE1,18,0,166444,379531549,1287700811,8170,292
20220901T093656,2600,5,10,413(0x19d),-65,42,-8,0,0,450f06,18640,1280,REGISTERED,CONNECTED,CS_PS_MODE1,18,0,168444,379531556,1287700802,8140,262
20220901T093658,2600,5,10,413(0x19d),-65,42,-8,0,-23,450f06,18640,1280,REGISTERED,CONNECTED,CS_PS_MODE1,18,0,170441,379531562,1287700791,8170,296
20220901T093701,2600,5,10,413(0x19d),-65,42,-8,0,-9,450f06,18640,1280,REGISTERED,CONNECTED,CS_PS_MODE1,18,0,173438,379531573,1287700775,8190,313
20220901T093703,2600,5,10,413(0x19d),-65,42,-8,0,-7,450f06,18640,1280,REGISTERED,CONNECTED,CS_PS_MODE1,18,0,175436,379531578,1287700765,8160,287
20220901T093705,2600,5,10,413(0x19d),-65,36,-8,0,0,450f06,18640,1280,REGISTERED,CONNECTED,CS_PS_MODE1,18,0,177434,379531579,1287700756,8170,291
20220901T093707,2600,5,10,413(0x19d),-65,43,-8,0,-9,450f06,18640,1280,REGISTERED,CONNECTED,CS_PS_MODE1,18,0,179431,379531581,1287700752,8180,303
20220901T093709,2600,5,10,413(0x19d),-65,43,-8,0,-20,450f06,18640,1280,REGISTERED,CONNECTED,CS_PS_MODE1,18,0,181429,379531581,1287700749,8160,280
20220901T093711,2600,5,10,413(0x19d),-65,43,-8,0,-9,450f06,18640,1280,REGISTERED,CONNECTED,CS_PS_MODE1,18,0,183429,379531580,1287700749,8200,326
20220901T093713,2600,5,10,413(0x19d),-65,43,-8,0,-20,450f06,18640,1280,REGISTERED,CONNECTED,CS_PS_MODE1,18,0,185426,379531580,1287700749,8180,308
20220901T093716,2600,5,10,413(0x19d),-65,43,-8,0,-23,450f06,18640,1280,REGISTERED,CONNECTED,CS_PS_MODE1,18,0,188756,379531581,1287700751,8210,334
20220901T093718,2600,5,10,413(0x19d),-65,43,-8,0,-20,450f06,18640,1280,REGISTERED,CONNECTED,CS_PS_MODE1,18,0,190754,379531581,1287700747,8150,272
20220901T093720,2600,5,10,413(0x19d),-65,43,-8,0,-15,450f06,18640,1280,REGISTERED,CONNECTED,CS_PS_MODE1,18,0,192751,379531579,1287700741,8140,267
20220901T093722,2600,5,10,413(0x19d),-65,43,-8,0,-9,450f06,18640,1280,REGISTERED,CONNECTED,CS_PS_MODE1,18,0,194751,379531581,1287700742,8200,325
20220901T093724,2600,5,10,413(0x19d),-65,43,-8,0,-10,450f06,18640,1280,REGISTERED,CONNECTED,CS_PS_MODE1,18,0,196748,379531584,1287700739,8240,366
20220901T093726,2600,5,10,413(0x19d),-65,43,-8,0,-23,450f06,18640,1280,REGISTERED,CONNECTED,CS_PS_MODE1,18,0,198746,379531585,1287700733,8210,334
20220901T093728,2600,5,10,413(0x19d),-65,43,-8,0,-20,450f06,18640,1280,REGISTERED,CONNECTED,CS_PS_MODE1,18,0,200744,379531589,1287700735,8190,316
20220901T093730,2600,5,10,413(0x19d),-65,43,-8,0,-24,450f06,18640,1280,REGISTERED,CONNECTED,CS_PS_MODE1,18,0,202741,379531592,1287700737,8180,309
20220901T093733,2600,5,10,413(0x19d),-65,43,-8,0,-23,450f06,18640,1280,REGISTERED,CONNECTED,CS_PS_MODE1,18,0,205406,379531594,1287700738,8150,277
20220901T093735,2600,5,10,413(0x19d),-65,43,-8,0,-9,450f06,18640,1280,REGISTERED,CONNECTED,CS_PS_MODE1,18,0,207404,379531595,1287700742,8120,249
20220901T093737,2600,5,10,413(0x19d),-65,43,-8,0,-19,450f06,18640,1280,REGISTERED,CONNECTED,CS_PS_MODE1,18,0,209401,379531599,1287700746,8200,328
20220901T093739,2600,5,10,413(0x19d),-65,43,-8,0,0,450f06,18640,1280,REGISTERED,CONNECTED,CS_PS_MODE1,18,0,211401,379531601,1287700751,8170,298
20220901T093741,2600,5,10,413(0x19d),-65,43,-8,0,-20,450f06,18640,1280,REGISTERED,CONNECTED,CS_PS_MODE1,18,0,213398,379531603,1287700758,8210,335
20220901T093743,2600,5,10,413(0x19d),-65,36,-8,0,-25,450f06,18640,1280,REGISTERED,CONNECTED,CS_PS_MODE1,18,0,215396,379531601,1287700758,8230,351
20220901T093745,2600,5,10,413(0x19d),-65,43,-8,0,-15,450f06,18640,1280,REGISTERED,CONNECTED,CS_PS_MODE1,18,0,217394,379531600,1287700760,8190,318
20220901T093748,2600,5,10,413(0x19d),-65,43,-8,0,-20,450f06,18640,1280,REGISTERED,CONNECTED,CS_PS_MODE1,18,0,221056,379531596,1287700766,8180,308
20220901T093750,2600,5,10,413(0x19d),-65,43,-8,0,1,450f06,18640,1280,REGISTERED,CONNECTED,CS_PS_MODE1,18,0,223054,379531592,1287700768,8160,286
20220901T093752,2600,5,10,413(0x19d),-65,43,-8,0,-20,450f06,18640,1280,REGISTERED,CONNECTED,CS_PS_MODE1,18,0,225054,379531589,1287700771,8190,316
20220901T093754,2600,5,10,413(0x19d),-65,43,-8,0,-23,450f06,18640,1280,REGISTERED,CONNECTED,CS_PS_MODE1,18,0,227051,379531588,1287700773,8180,300
20220901T093756,2600,5,10,413(0x19d),-65,43,-8,0,-23,450f06,18640,1280,REGISTERED,CONNECTED,CS_PS_MODE1,18,0,229048,379531585,1287700772,8100,222
20220901T093758,2600,5,10,413(0x19d),-65,43,-8,0,-15,450f06,18640,1280,REGISTERED,CONNECTED,CS_PS_MODE1,18,0,230381,379531585,1287700773,8090,218
20220901T093800,2600,5,10,413(0x19d),-65,43,-8,0,-20,450f06,18640,1280,REGISTERED,CONNECTED,CS_PS_MODE1,18,0,232379,379531585,1287700773,8100,221
20220901T093802,2600,5,10,413(0x19d),-65,43,-8,0,-9,450f06,18640,1280,REGISTERED,CONNECTED,CS_PS_MODE1,18,0,234376,379531587,1287700777,8100,224
20220901T093805,2600,5,10,413(0x19d),-65,43,-8,0,3,450f06,18640,1280,REGISTERED,CONNECTED,CS_PS_MODE1,18,0,237373,379531589,1287700783,8190,316
20220901T093807,2600,5,10,413(0x19d),-65,43,-8,0,-15,450f06,18640,1280,REGISTERED,CONNECTED,CS_PS_MODE1,18,0,239371,379531589,1287700786,8200,320
20220901T093809,2600,5,10,413(0x19d),-65,43,-8,0,-23,450f06,18640,1280,REGISTERED,CONNECTED,CS_PS_MODE1,18,0,241369,379531591,1287700789,8160,287
20220901T093811,2600,5,10,413(0x19d),-65,43,-8,0,-8,450f06,18640,1280,REGISTERED,CONNECTED,CS_PS_MODE1,18,0,243369,379531591,1287700792,8250,375
20220901T093813,2600,5,10,413(0x19d),-65,43,-8,0,0,450f06,18640,1280,REGISTERED,CONNECTED,CS_PS_MODE1,18,0,245366,379531593,1287700795,8220,340
20220901T093815,2600,5,10,413(0x19d),-65,43,-8,0,-8,450f06,18640,1280,REGISTERED,CONNECTED,CS_PS_MODE1,18,0,247363,379531594,1287700796,8190,310
20220901T093817,2600,5,10,413(0x19d),-65,43,-8,0,-21,450f06,18640,1280,REGISTERED,CONNECTED,CS_PS_MODE1,18,0,249361,379531594,1287700798,8150,273
20220901T093819,2600,5,10,413(0x19d),-65,43,-8,0,-14,450f06,18640,1280,REGISTERED,CONNECTED,CS_PS_MODE1,18,0,251359,379531594,1287700798,8110,237
20220901T093822,2600,5,10,413(0x19d),-65,43,-8,0,-23,450f06,18640,1280,REGISTERED,CONNECTED,CS_PS_MODE1,18,0,254356,379531595,1287700799,8150,275
20220901T093824,2600,5,10,413(0x19d),-65,43,-8,0,-24,450f06,18640,1280,REGISTERED,CONNECTED,CS_PS_MODE1,18,0,256354,379531597,1287700801,8150,272
20220901T093826,2600,5,10,413(0x19d),-65,43,-8,0,-1,450f06,18640,1280,REGISTERED,CONNECTED,CS_PS_MODE1,18,0,258354,379531596,1287700799,8150,279
20220901T093828,2600,5,10,413(0x19d),-65,43,-8,0,-13,450f06,18640,1280,REGISTERED,CONNECTED,CS_PS_MODE1,18,0,260351,379531593,1287700793,8090,216
20220901T093830,2600,5,10,413(0x19d),-65,43,-8,0,-19,450f06,18640,1280,REGISTERED,CONNECTED,CS_PS_MODE1,18,0,262348,379531591,1287700791,8120,244
20220901T093832,2600,5,10,413(0x19d),-65,43,-8,0,-8,450f06,18640,1280,REGISTERED,CONNECTED,CS_PS_MODE1,18,0,264346,379531589,1287700787,8140,268
20220901T093834,2600,5,10,413(0x19d),-65,43,-8,0,-9,450f06,18640,1280,REGISTERED,CONNECTED,CS_PS_MODE1,18,0,266344,379531589,1287700787,8130,250
20220901T093837,2600,5,10,413(0x19d),-65,43,-8,0,4,450f06,18640,1280,REGISTERED,CONNECTED,CS_PS_MODE1,18,0,269676,379531583,1287700785,8140,262
20220901T093839,2600,5,10,413(0x19d),-65,43,-8,0,-20,450f06,18640,1280,REGISTERED,CONNECTED,CS_PS_MODE1,18,0,271674,379531583,1287700785,8120,240
20220901T093841,2600,5,10,413(0x19d),-65,43,-8,0,-8,450f06,18640,1280,REGISTERED,CONNECTED,CS_PS_MODE1,18,0,273671,379531581,1287700784,8090,218
20220901T093843,2600,5,10,413(0x19d),-65,43,-8,0,-22,450f06,18640,1280,REGISTERED,CONNECTED,CS_PS_MODE1,18,0,275669,379531585,1287700789,8100,220
20220901T093845,2600,5,10,413(0x19d),-65,43,-8,0,-13,450f06,18640,1280,REGISTERED,CONNECTED,CS_PS_MODE1,18,0,277666,379531588,1287700794,8110,238
20220901T093847,2600,5,10,413(0x19d),-65,43,-8,0,-21,450f06,18640,1280,REGISTERED,CONNECTED,CS_PS_MODE1,18,0,279666,379531588,1287700795,8150,274
20220901T093849,2600,5,10,413(0x19d),-65,43,-8,0,-12,450f06,18640,1280,REGISTERED,CONNECTED,CS_PS_MODE1,18,0,281663,379531588,1287700796,8140,265
20220901T093851,2600,5,10,413(0x19d),-65,43,-8,0,-7,450f06,18640,1280,REGISTERED,CONNECTED,CS_PS_MODE1,18,0,283661,379531589,1287700792,8080,202
20220901T093854,2600,5,10,413(0x19d),-65,43,-8,0,-14,450f06,18640,1280,REGISTERED,CONNECTED,CS_PS_MODE1,18,0,286326,379531583,1287700786,8100,220
20220901T093856,2600,5,10,413(0x19d),-65,43,-8,0,-22,450f06,18640,1280,REGISTERED,CONNECTED,CS_PS_MODE1,18,0,288324,379531577,1287700782,8090,214
20220901T093858,2600,5,10,413(0x19d),-65,43,-8,0,-13,450f06,18640,1280,REGISTERED,CONNECTED,CS_PS_MODE1,18,0,290321,379531571,1287700777,8100,223
20220901T093900,2600,5,10,413(0x19d),-65,43,-8,0,-24,450f06,18640,1280,REGISTERED,CONNECTED,CS_PS_MODE1,18,0,292319,379531564,1287700775,8080,209
20220901T093902,2600,5,10,413(0x19d),-65,43,-8,0,-23,450f06,18640,1280,REGISTERED,CONNECTED,CS_PS_MODE1,18,0,294316,379531558,1287700772,8070,197
20220901T093904,2600,5,10,413(0x19d),-65,43,-8,0,0,450f06,18640,1280,REGISTERED,CONNECTED,CS_PS_MODE1,18,0,296314,379531555,1287700766,8110,237
20220901T093906,2600,5,10,413(0x19d),-65,43,-8,0,-10,450f06,18640,1280,REGISTERED,CONNECTED,CS_PS_MODE1,18,0,298314,379531549,1287700763,8080,201
20220901T093908,2600,5,10,413(0x19d),-65,43,-8,0,-12,450f06,18640,1280,REGISTERED,CONNECTED,CS_PS_MODE1,18,0,300311,379531543,1287700763,8070,193
20220901T093911,2600,5,10,413(0x19d),-65,43,-8,0,-19,450f06,18640,1280,REGISTERED,CONNECTED,CS_PS_MODE1,18,0,303973,379531531,1287700758,8070,196
20220901T093913,2600,5,10,413(0x19d),-65,43,-8,0,-14,450f06,18640,1280,REGISTERED,CONNECTED,CS_PS_MODE1,18,0,305971,379531527,1287700759,8070,191
20220901T093915,2600,5,10,413(0x19d),-65,43,-8,0,-19,450f06,18640,1280,REGISTERED,CONNECTED,CS_PS_MODE1,18,0,307969,379531522,1287700758,8080,208
20220901T093917,2600,5,10,413(0x19d),-65,43,-8,0,-19,450f06,18640,1280,REGISTERED,CONNECTED,CS_PS_MODE1,18,0,309969,379531515,1287700752,8060,188
20220901T093919,2600,5,10,413(0x19d),-65,43,-8,0,-14,450f06,18640,1280,REGISTERED,CONNECTED,CS_PS_MODE1,18,0,311966,379531508,1287700748,8010,133
20220901T093921,2600,5,10,413(0x19d),-65,43,-8,0,-19,450f06,18640,1280,REGISTERED,CONNECTED,CS_PS_MODE1,18,0,313963,379531505,1287700745,8000,129
20220901T093923,2600,5,10,413(0x19d),-65,43,-8,0,-15,450f06,18640,1280,REGISTERED,CONNECTED,CS_PS_MODE1,18,0,315296,379531546,1287700755,8650,775
20220901T093925,2600,5,10,413(0x19d),-65,43,-8,0,-12,450f06,18640,1280,REGISTERED,CONNECTED,CS_PS_MODE1,18,0,317294,379531763,1287700516,8860,986
20220901T093928,2600,5,10,413(0x19d),-65,43,-8,0,0,450f06,18640,1280,REGISTERED,CONNECTED,CS_PS_MODE1,18,0,320291,379532025,1287700258,8940,1063
20220901T093930,2600,5,10,413(0x19d),-65,43,-8,0,-15,450f06,18640,1280,REGISTERED,CONNECTED,CS_PS_MODE1,18,0,322288,379532267,1287700245,8960,1085
20220901T093932,2600,5,10,413(0x19d),-74,52,-8,0,-2,450f06,18640,1280,REGISTERED,CONNECTED,CS_PS_MODE1,18,0,324286,379532389,1287700267,8230,355
20220901T093934,2600,5,10,413(0x19d),-69,46,-8,0,5,450f06,18640,1280,REGISTERED,CONNECTED,CS_PS_MODE1,18,0,326284,379532394,1287700279,8150,275
20220901T093936,2600,5,10,413(0x19d),-69,46,-8,0,-13,450f06,18640,1280,REGISTERED,CONNECTED,CS_PS_MODE1,18,0,328282,379532404,1287700293,8130,257
20220901T093938,2600,5,10,413(0x19d),-69,46,-8,0,-14,450f06,18640,1280,REGISTERED,CONNECTED,CS_PS_MODE1,18,0,330282,379532413,1287700301,8140,268
20220901T093940,2600,5,10,413(0x19d),-69,46,-8,0,-17,450f06,18640,1280,REGISTERED,CONNECTED,CS_PS_MODE1,18,0,332279,379532417,1287700300,8140,262
20220901T093943,2600,5,10,413(0x19d),-69,46,-8,0,-3,450f06,18640,1280,REGISTERED,CONNECTED,CS_PS_MODE1,18,0,335276,379532425,1287700299,8140,269
20220901T093945,2600,5,10,413(0x19d),-69,46,-8,0,6,450f06,18640,1280,REGISTERED,CONNECTED,CS_PS_MODE1,18,0,337274,379532427,1287700298,8080,206
20220901T093947,2600,5,10,413(0x19d),-69,46,-8,0,-5,450f06,18640,1280,REGISTERED,CONNECTED,CS_PS_MODE1,18,0,339271,379532428,1287700294,8070,197
20220901T093949,2600,5,10,413(0x19d),-69,46,-8,0,-17,450f06,18640,1280,REGISTERED,CONNECTED,CS_PS_MODE1,18,0,341269,379532431,1287700287,8060,186
20220901T093951,2600,5,10,413(0x19d),-69,46,-8,0,-14,450f06,18640,1280,REGISTERED,CONNECTED,CS_PS_MODE1,18,0,343269,379532435,1287700284,8110,233
20220901T093953,2600,5,10,413(0x19d),-69,46,-8,0,-2,450f06,18640,1280,REGISTERED,CONNECTED,CS_PS_MODE1,18,0,345269,379532439,1287700279,8150,275
20220901T093955,2600,5,10,413(0x19d),-69,46,-8,0,-14,450f06,18640,1280,REGISTERED,CONNECTED,CS_PS_MODE1,18,0,347269,379532444,1287700276,8090,213
20220901T093957,2600,5,10,413(0x19d),-69,46,-8,0,-17,450f06,18640,1280,REGISTERED,CONNECTED,CS_PS_MODE1,18,0,349269,379532450,1287700277,8090,217
20220901T094000,2600,5,10,413(0x19d),-69,46,-8,0,-2,450f06,18640,1280,REGISTERED,CONNECTED,CS_PS_MODE1,18,0,352591,379532461,1287700280,8080,204
20220901T094002,2600,5,10,413(0x19d),-69,46,-8,0,-14,450f06,18640,1280,REGISTERED,CONNECTED,CS_PS_MODE1,18,0,354591,379532466,1287700288,8100,228
20220901T094004,2600,5,10,413(0x19d),-69,46,-8,0,3,450f06,18640,1280,REGISTERED,CONNECTED,CS_PS_MODE1,18,0,356588,379532475,1287700292,8090,216
20220901T094006,2600,5,10,413(0x19d),-69,46,-8,0,0,450f06,18640,1280,REGISTERED,CONNECTED,CS_PS_MODE1,18,0,358586,379532481,1287700292,8120,249
20220901T094008,2600,5,10,413(0x19d),-69,46,-8,0,-14,450f06,18640,1280,REGISTERED,CONNECTED,CS_PS_MODE1,18,0,360584,379532490,1287700299,8100,220
20220901T094010,2600,5,10,413(0x19d),-69,46,-8,0,-8,450f06,18640,1280,REGISTERED,CONNECTED,CS_PS_MODE1,18,0,362581,379532498,1287700305,8110,235
20220901T094012,2600,5,10,413(0x19d),-69,46,-8,0,-2,450f06,18640,1280,REGISTERED,CONNECTED,CS_PS_MODE1,18,0,364579,379532504,1287700311,8110,233
20220901T094015,2600,5,10,413(0x19d),-69,46,-8,0,-14,450f06,18640,1280,REGISTERED,CONNECTED,CS_PS_MODE1,18,0,367244,379532509,1287700319,8140,266
20220901T094017,2600,5,10,413(0x19d),-69,46,-8,0,-9,450f06,18640,1280,REGISTERED,CONNECTED,CS_PS_MODE1,18,0,369241,379532512,1287700324,8160,283
20220901T094019,2600,5,10,413(0x19d),-69,46,-8,0,-7,450f06,18640,1280,REGISTERED,CONNECTED,CS_PS_MODE1,18,0,371241,379532516,1287700325,8090,214
20220901T094021,2600,5,10,413(0x19d),-69,46,-8,0,-13,450f06,18640,1280,REGISTERED,CONNECTED,CS_PS_MODE1,18,0,373238,379532518,1287700324,8070,198
20220901T094023,2600,5,10,413(0x19d),-69,46,-8,0,0,450f06,18640,1280,REGISTERED,CONNECTED,CS_PS_MODE1,18,0,375236,379532517,1287700322,8100,221
20220901T094025,2600,5,10,413(0x19d),-69,46,-8,0,0,450f06,18640,1280,REGISTERED,CONNECTED,CS_PS_MODE1,18,0,377234,379532516,1287700318,8100,222
20220901T094027,2600,5,10,413(0x19d),-69,46,-8,0,-18,450f06,18640,1280,REGISTERED,CONNECTED,CS_PS_MODE1,18,0,379231,379532513,1287700316,8090,217
20220901T094029,2600,5,10,413(0x19d),-69,46,-8,0,-1,450f06,18640,1280,REGISTERED,CONNECTED,CS_PS_MODE1,18,0,381229,379532507,1287700314,8050,170
20220901T094032,2600,5,10,413(0x19d),-69,46,-8,0,-17,450f06,18640,1280,REGISTERED,CONNECTED,CS_PS_MODE1,18,0,384894,379532370,1287700076,8820,943
20220901T094034,2600,5,10,413(0x19d),-69,46,-8,0,0,450f06,18640,1280,REGISTERED,CONNECTED,CS_PS_MODE1,18,0,386891,379532279,1287699975,8730,857
20220901T094036,2600,5,10,413(0x19d),-69,46,-8,0,-5,450f06,18640,1280,REGISTERED,CONNECTED,CS_PS_MODE1,18,0,388888,379532228,1287700011,8200,322
20220901T094038,2600,5,10,413(0x19d),-69,46,-8,0,-13,450f06,18640,1280,REGISTERED,CONNECTED,CS_PS_MODE1,18,0,390886,379532219,1287700009,8160,281
20220901T094040,2600,5,10,413(0x19d),-79,56,-8,0,-11,450f06,18640,1280,REGISTERED,CONNECTED,CS_PS_MODE1,18,0,392884,379532221,1287700010,8080,209
20220901T094042,2600,5,10,413(0x19d),-79,56,-8,0,-2,450f06,18640,1280,REGISTERED,CONNECTED,CS_PS_MODE1,18,0,394882,379532223,1287700010,8080,203
20220901T094044,2600,5,10,413(0x19d),-79,56,-8,0,-3,450f06,18640,1280,REGISTERED,CONNECTED,CS_PS_MODE1,18,0,396882,379532231,1287700013,8130,253
20220901T094046,2600,5,10,413(0x19d),-79,56,-8,0,-12,450f06,18640,1280,REGISTERED,CONNECTED,CS_PS_MODE1,18,0,398214,379532235,1287700014,8120,247
20220901T094049,2600,5,10,413(0x19d),-79,56,-8,0,-8,450f06,18640,1280,REGISTERED,CONNECTED,CS_PS_MODE1,18,0,401209,379532245,1287700022,8100,220
20220901T094051,2600,5,10,413(0x19d),-79,56,-8,0,-13,450f06,18640,1280,REGISTERED,CONNECTED,CS_PS_MODE1,18,0,403209,379532253,1287700030,8090,219
20220901T094053,2600,5,10,413(0x19d),-79,56,-8,0,-12,450f06,18640,1280,REGISTERED,CONNECTED,CS_PS_MODE1,18,0,405206,379532263,1287700037,8100,221
20220901T094055,2600,5,10,413(0x19d),-79,56,-8,0,-15,450f06,18640,1280,REGISTERED,CONNECTED,CS_PS_MODE1,18,0,407204,379532271,1287700040,8140,263
20220901T094057,2600,5,10,413(0x19d),-79,56,-8,0,-3,450f06,18640,1280,REGISTERED,CONNECTED,CS_PS_MODE1,18,0,409201,379532183,1287700189,8840,963
20220901T094059,2600,5,10,413(0x19d),-79,56,-8,0,-14,450f06,18640,1280,REGISTERED,CONNECTED,CS_PS_MODE1,18,0,411201,379532021,1287700373,8760,889
20220901T094101,2600,5,10,413(0x19d),-71,45,-8,0,-3,450f06,18640,1280,REGISTERED,CONNECTED,CS_PS_MODE1,18,0,413198,379531925,1287700622,8610,733
20220901T094104,2600,5,10,413(0x19d),-65,38,-8,0,0,450f06,18640,1280,REGISTERED,CONNECTED,CS_PS_MODE1,18,0,416194,379531914,1287700729,7900,27
20220901T094106,2600,5,10,413(0x19d),-65,38,-8,0,-8,450f06,18640,1280,REGISTERED,CONNECTED,CS_PS_MODE1,18,0,418194,379531918,1287700729,8000,121
20220901T094108,2600,5,10,413(0x19d),-72,49,-8,0,-9,450f06,18640,1280,REGISTERED,CONNECTED,CS_PS_MODE1,18,0,420191,379531916,1287700718,8040,167
20220901T094110,2600,5,10,413(0x19d),-67,49,-8,0,-21,450f06,18640,1280,REGISTERED,CONNECTED,CS_PS_MODE1,18,0,422188,379531914,1287700712,8070,199
20220901T094112,2600,5,10,413(0x19d),-67,49,-8,0,-10,450f06,18640,1280,REGISTERED,CONNECTED,CS_PS_MODE1,18,0,424186,379531912,1287700702,8080,209
20220901T094114,2600,5,10,413(0x19d),-67,49,-8,0,-6,450f06,18640,1280,REGISTERED,CONNECTED,CS_PS_MODE1,18,0,426184,379531910,1287700694,8110,233
20220901T094116,2600,5,10,413(0x19d),-67,49,-8,0,-21,450f06,18640,1280,REGISTERED,CONNECTED,CS_PS_MODE1,18,0,428184,379531910,1287700681,8120,247
20220901T094118,2600,5,10,413(0x19d),-67,49,-8,0,0,450f06,18640,1280,REGISTERED,CONNECTED,CS_PS_MODE1,18,0,430181,379531907,1287700670,8160,280
20220901T094121,2600,5,10,413(0x19d),-67,49,-8,0,-3,450f06,18640,1280,REGISTERED,CONNECTED,CS_PS_MODE1,18,0,433511,379531902,1287700648,8100,225
20220901T094123,2600,5,10,413(0x19d),-73,49,-8,0,-3,450f06,18640,1280,REGISTERED,CONNECTED,CS_PS_MODE1,18,0,435509,379531897,1287700634,8060,186
20220901T094125,2600,5,10,413(0x19d),-73,49,-8,0,6,450f06,18640,1280,REGISTERED,CONNECTED,CS_PS_MODE1,18,0,437506,379531893,1287700625,8080,201
20220901T094127,2600,5,10,413(0x19d),-73,39,-8,0,-17,450f06,18640,1280,REGISTERED,CONNECTED,CS_PS_MODE1,18,0,439504,379531885,1287700619,8100,227
20220901T094129,2600,5,10,413(0x19d),-73,39,-8,0,-4,450f06,18640,1280,REGISTERED,CONNECTED,CS_PS_MODE1,18,0,441504,379531878,1287700615,8090,217
20220901T094131,2600,5,10,413(0x19d),-73,48,-8,0,-22,450f06,18640,1280,REGISTERED,CONNECTED,CS_PS_MODE1,18,0,443501,379531869,1287700613,8120,244
20220901T094133,2600,5,10,413(0x19d),-67,48,-8,0,-15,450f06,18640,1280,REGISTERED,CONNECTED,CS_PS_MODE1,18,0,445498,379531862,1287700615,8120,242
20220901T094135,2600,5,10,413(0x19d),-67,48,-8,0,-23,450f06,18640,1280,REGISTERED,CONNECTED,CS_PS_MODE1,18,0,447496,379531856,1287700618,8140,261
20220901T094138,2600,5,10,413(0x19d),-67,48,-8,0,-12,450f06,18640,1280,REGISTERED,CONNECTED,CS_PS_MODE1,18,0,450494,379531846,1287700623,8140,269
20220901T094140,2600,5,10,413(0x19d),-67,48,-8,0,-8,450f06,18640,1280,REGISTERED,CONNECTED,CS_PS_MODE1,18,0,452491,379531842,1287700624,8140,263
20220901T094142,2600,5,10,413(0x19d),-67,48,-8,0,-19,450f06,18640,1280,REGISTERED,CONNECTED,CS_PS_MODE1,18,0,454491,379531835,1287700628,8100,228
20220901T094144,2600,5,10,413(0x19d),-67,48,-8,0,-13,450f06,18640,1280,REGISTERED,CONNECTED,CS_PS_MODE1,18,0,456488,379531826,1287700634,8100,225
20220901T094146,2600,5,10,413(0x19d),-67,48,-8,0,-13,450f06,18640,1280,REGISTERED,CONNECTED,CS_PS_MODE1,18,0,458486,379531814,1287700635,8120,244
20220901T094148,2600,5,10,413(0x19d),-67,48,-8,0,-22,450f06,18640,1280,REGISTERED,CONNECTED,CS_PS_MODE1,18,0,460484,379531806,1287700642,8180,303
20220901T094150,2600,5,10,413(0x19d),-67,48,-8,0,-12,450f06,18640,1280,REGISTERED,CONNECTED,CS_PS_MODE1,18,0,462482,379531801,1287700651,8160,284
20220901T094153,2600,5,10,413(0x19d),-67,48,-8,0,-22,450f06,18640,1280,REGISTERED,CONNECTED,CS_PS_MODE1,18,0,465811,379531791,1287700661,8160,283
20220901T094155,2600,5,10,413(0x19d),-67,48,-8,0,-21,450f06,18640,1280,REGISTERED,CONNECTED,CS_PS_MODE1,18,0,467809,379531784,1287700665,8170,297
20220901T094157,2600,5,10,413(0x19d),-67,48,-8,0,-23,450f06,18640,1280,REGISTERED,CONNECTED,CS_PS_MODE1,18,0,469809,379531781,1287700672,8190,317
20220901T094159,2600,5,10,413(0x19d),-67,41,-8,0,-12,450f06,18640,1280,REGISTERED,CONNECTED,CS_PS_MODE1,18,0,471806,379531780,1287700676,8200,329
20220901T094201,2600,5,10,413(0x19d),-67,41,-8,0,-8,450f06,18640,1280,REGISTERED,CONNECTED,CS_PS_MODE1,18,0,473804,379531777,1287700684,8170,291
20220901T094203,2600,5,10,413(0x19d),-67,41,-8,0,0,450f06,18640,1280,REGISTERED,CONNECTED,CS_PS_MODE1,18,0,475801,379531776,1287700693,8180,302
20220901T094205,2600,5,10,413(0x19d),-67,41,-8,0,-23,450f06,18640,1280,REGISTERED,CONNECTED,CS_PS_MODE1,18,0,477801,379531775,1287700700,8170,290
20220901T094207,2600,5,10,413(0x19d),-67,41,-8,0,-8,450f06,18640,1280,REGISTERED,CONNECTED,CS_PS_MODE1,18,0,479798,379531776,1287700705,8110,238
20220901T094210,2600,5,10,413(0x19d),-67,41,-8,0,-24,450f06,18640,1280,REGISTERED,CONNECTED,CS_PS_MODE1,18,0,482461,379531782,1287700718,8190,310
20220901T094212,2600,5,10,413(0x19d),-67,41,-8,0,-14,450f06,18640,1280,REGISTERED,CONNECTED,CS_PS_MODE1,18,0,484459,379531785,1287700730,8210,332
20220901T094214,2600,5,10,413(0x19d),-67,41,-8,0,-23,450f06,18640,1280,REGISTERED,CONNECTED,CS_PS_MODE1,18,0,486459,379531788,1287700739,8210,334
20220901T094216,2600,5,10,413(0x19d),-67,41,-8,0,-21,450f06,18640,1280,REGISTERED,CONNECTED,CS_PS_MODE1,18,0,488456,379531790,1287700750,8260,385
20220901T094218,2600,5,10,413(0x19d),-67,41,-8,0,-22,450f06,18640,1280,REGISTERED,CONNECTED,CS_PS_MODE1,18,0,490454,379531791,1287700757,8210,335
20220901T094220,2600,5,10,413(0x19d),-67,41,-8,0,-9,450f06,18640,1280,REGISTERED,CONNECTED,CS_PS_MODE1,18,0,492451,379531793,1287700763,8230,353
20220901T094222,2600,5,10,413(0x19d),-67,41,-8,0,-11,450f06,18640,1280,REGISTERED,CONNECTED,CS_PS_MODE1,18,0,494451,379531796,1287700769,8240,367
20220901T094224,2600,5,10,413(0x19d),-67,41,-8,0,-11,450f06,18640,1280,REGISTERED,CONNECTED,CS_PS_MODE1,18,0,496447,379531796,1287700772,8250,21
20220901T094227,2600,5,10,413(0x19d),-67,41,-8,0,-22,450f06,18640,1280,REGISTERED,CONNECTED,CS_PS_MODE1,18,0,500112,379531800,1287700782,8270,45
20220901T094229,2600,5,10,413(0x19d),-67,41,-8,0,-25,450f06,18640,1280,REGISTERED,CONNECTED,CS_PS_MODE1,18,0,502109,379531796,1287700787,8300,72
20220901T094231,2600,5,10,413(0x19d),-67,41,-8,0,-22,450f06,18640,1280,REGISTERED,CONNECTED,CS_PS_MODE1,18,0,504106,379531801,1287700788,12180,3959
20220901T094233,2600,5,10,413(0x19d),-67,48,-8,0,-15,450f06,18640,1280,REGISTERED,CONNECTED,CS_PS_MODE1,18,0,506106,379531802,1287700786,17090,8864
20220901T094235,2600,5,10,413(0x19d),-67,48,-8,0,-2,450f06,18640,1280,REGISTERED,CONNECTED,CS_PS_MODE1,18,0,508107,379531802,1287700777,22110,13882
20220901T094237,2600,5,10,413(0x19d),-67,41,-8,0,0,450f06,18640,1280,REGISTERED,CONNECTED,CS_PS_MODE1,18,0,510107,379531802,1287700786,26260,18030
20220901T094239,2600,5,10,413(0x19d),-62,59,-8,0,-8,450f06,18640,1280,REGISTERED,CONNECTED,CS_PS_MODE1,18,0,511432,379531799,1287700789,27760,19534
20220901T094242,2600,5,10,413(0x19d),-62,59,-8,0,-24,450f06,18640,1280,REGISTERED,CONNECTED,CS_PS_MODE1,18,0,514430,379531795,1287700785,28260,20032
20220901T094244,2600,5,10,413(0x19d),-62,41,-8,0,-26,450f06,18640,1280,REGISTERED,CONNECTED,CS_PS_MODE1,18,0,516427,379531797,1287700772,28310,20080
20220901T094246,2600,5,10,413(0x19d),-62,41,-8,0,-16,450f06,18640,1280,REGISTERED,CONNECTED,CS_PS_MODE1,18,0,518425,379531801,1287700775,28330,20101
20220901T094248,2600,5,10,413(0x19d),-62,41,-8,0,-26,450f06,18640,1280,REGISTERED,CONNECTED,CS_PS_MODE1,18,0,520425,379531801,1287700779,28380,20152
20220901T094250,2600,5,10,413(0x19d),-62,41,-8,0,-19,450f06,18640,1280,REGISTERED,CONNECTED,CS_PS_MODE1,18,0,522422,379531795,1287700767,28350,20126
20220901T094252,2600,5,10,413(0x19d),-62,41,-8,0,-27,450f06,18640,1280,REGISTERED,CONNECTED,CS_PS_MODE1,18,0,524419,379531797,1287700800,28330,20109
20220901T094254,2600,5,10,413(0x19d),-62,41,-8,0,-25,450f06,18640,1280,REGISTERED,CONNECTED,CS_PS_MODE1,18,0,526417,379531801,1287700794,28350,20120
20220901T094256,2600,5,10,413(0x19d),-62,41,-8,0,-9,450f06,18640,1280,REGISTERED,CONNECTED,CS_PS_MODE1,18,0,528415,379531789,1287700774,28370,20146
20220901T094259,2600,5,10,413(0x19d),-62,41,-8,0,-6,450f06,18640,1280,REGISTERED,CONNECTED,CS_PS_MODE1,18,0,532080,379531788,1287700803,28330,20109
20220901T094301,2600,5,10,413(0x19d),-62,41,-8,0,-9,450f06,18640,1280,REGISTERED,CONNECTED,CS_PS_MODE1,18,0,533412,379531798,1287700790,28340,20113
20220901T094303,2600,5,10,413(0x19d),-62,41,-8,0,-25,450f06,18640,1280,REGISTERED,CONNECTED,CS_PS_MODE1,18,0,535409,379531798,1287700782,28280,20059
20220901T094305,2600,5,10,413(0x19d),-70,41,-8,0,-6,450f06,18640,1280,REGISTERED,CONNECTED,CS_PS_MODE1,18,0,537406,379531798,1287700786,28290,20066
20220901T094307,2600,5,10,413(0x19d),-65,41,-8,0,-26,450f06,18640,1280,REGISTERED,CONNECTED,CS_PS_MODE1,18,0,539406,379531796,1287700792,28320,20092
20220901T094309,2600,5,10,413(0x19d),-65,41,-8,0,-16,450f06,18640,1280,REGISTERED,CONNECTED,CS_PS_MODE1,18,0,541403,379531795,1287700785,28280,20057
20220901T094311,2600,5,10,413(0x19d),-65,41,-8,0,0,450f06,18640,1280,REGISTERED,CONNECTED,CS_PS_MODE1,18,0,543406,379531796,1287700785,28240,20017
20220901T094313,2600,5,10,413(0x19d),-65,41,-8,0,0,450f06,18640,1280,REGISTERED,CONNECTED,CS_PS_MODE1,18,0,545401,379531799,1287700790,28230,20004
20220901T094316,2600,5,10,413(0x19d),-65,41,-8,0,-25,450f06,18640,1280,REGISTERED,CONNECTED,CS_PS_MODE1,18,0,548397,379531794,1287700784,28300,20072
20220901T094318,2600,5,10,413(0x19d),-71,41,-8,0,-16,450f06,18640,1280,REGISTERED,CONNECTED,CS_PS_MODE1,18,0,550394,379531803,1287700787,28270,20049
20220901T094320,2600,5,10,413(0x19d),-71,41,-8,0,0,450f06,18640,1280,REGISTERED,CONNECTED,CS_PS_MODE1,18,0,552392,379531793,1287700788,28300,20072
20220901T094322,2600,5,10,413(0x19d),-66,72,-8,0,-15,450f06,18640,1280,REGISTERED,CONNECTED,CS_PS_MODE1,18,0,554390,379531796,1287700788,28260,20034
20220901T094324,2600,5,10,413(0x19d),-66,41,-8,0,0,450f06,18640,1280,REGISTERED,CONNECTED,CS_PS_MODE1,18,0,556387,379531799,1287700797,28260,20035
20220901T094326,2600,5,10,413(0x19d),-66,41,-8,0,-6,450f06,18640,1280,REGISTERED,CONNECTED,CS_PS_MODE1,18,0,558387,379531795,1287700791,28300,20075
20220901T094328,2600,5,10,413(0x19d),-66,41,-8,0,-22,450f06,18640,1280,REGISTERED,CONNECTED,CS_PS_MODE1,18,0,560717,379531793,1287700780,28260,20037
20220901T094331,2600,5,10,413(0x19d),-66,41,-8,0,-25,450f06,18640,1280,REGISTERED,CONNECTED,CS_PS_MODE1,18,0,563380,379531802,1287700787,28290,20062
20220901T094333,2600,5,10,413(0x19d),-66,41,-8,0,-24,450f06,18640,1280,REGISTERED,CONNECTED,CS_PS_MODE1,18,0,565380,379531794,1287700797,28290,20063
20220901T094335,2600,5,10,413(0x19d),-66,41,-8,0,-15,450f06,18640,1280,REGISTERED,CONNECTED,CS_PS_MODE1,18,0,567377,379531796,1287700788,28280,20058
20220901T094337,2600,5,10,413(0x19d),-66,41,-8,0,-22,450f06,18640,1280,REGISTERED,CONNECTED,CS_PS_MODE1,18,0,569375,379531800,1287700766,28310,20088
20220901T094339,2600,5,10,413(0x19d),-66,41,-8,0,-13,450f06,18640,1280,REGISTERED,CONNECTED,CS_PS_MODE1,18,0,571372,379531805,1287700788,28280,20053
20220901T094341,2600,5,10,413(0x19d),-66,41,-8,0,0,450f06,18640,1280,REGISTERED,CONNECTED,CS_PS_MODE1,18,0,573372,379531793,1287700780,28280,20058
20220901T094343,2600,5,10,413(0x19d),-66,41,-8,0,-22,450f06,18640,1280,REGISTERED,CONNECTED,CS_PS_MODE1,18,0,575369,379531795,1287700790,28260,20033
20220901T094345,2600,5,10,413(0x19d),-66,41,-8,0,7,450f06,18640,1280,REGISTERED,CONNECTED,CS_PS_MODE1,18,0,577367,379531799,1287700783,28300,20074
20220901T094348,2600,5,10,413(0x19d),-66,41,-8,0,-14,450f06,18640,1280,REGISTERED,CONNECTED,CS_PS_MODE1,18,0,580697,379531797,1287700788,28270,20048
20220901T094350,2600,5,10,413(0x19d),-66,72,-8,0,-16,450f06,18640,1280,REGISTERED,CONNECTED,CS_PS_MODE1,18,0,582694,379531807,1287700785,28250,20029
20220901T094352,2600,5,10,413(0x19d),-66,41,-8,0,-17,450f06,18640,1280,REGISTERED,CONNECTED,CS_PS_MODE1,18,0,584692,379531806,1287700785,28250,20024
20220901T094354,2600,5,10,413(0x19d),-66,41,-8,0,-16,450f06,18640,1280,REGISTERED,CONNECTED,CS_PS_MODE1,18,0,587025,379531800,1287700792,28310,20089
20220901T094356,2600,5,10,413(0x19d),-66,41,-8,0,-16,450f06,18640,1280,REGISTERED,CONNECTED,CS_PS_MODE1,18,0,589022,379531798,1287700785,28300,20070
20220901T094358,2600,5,10,413(0x19d),-66,41,-8,0,-21,450f06,18640,1280,REGISTERED,CONNECTED,CS_PS_MODE1,18,0,591019,379531798,1287700783,28300,20073
20220901T094400,2600,5,10,413(0x19d),-66,41,-8,0,-15,450f06,18640,1280,REGISTERED,CONNECTED,CS_PS_MODE1,18,0,593017,379531800,1287700789,28270,20045
20220901T094403,2600,5,10,413(0x19d),-66,41,-8,0,-15,450f06,18640,1280,REGISTERED,CONNECTED,CS_PS_MODE1,18,0,595350,379531802,1287700779,28290,20066
20220901T094405,2600,5,10,413(0x19d),-66,41,-8,0,-20,450f06,18640,1280,REGISTERED,CONNECTED,CS_PS_MODE1,18,0,597347,379531801,1287700782,28310,20085
20220901T094407,2600,5,10,413(0x19d),-66,41,-8,0,-22,450f06,18640,1280,REGISTERED,CONNECTED,CS_PS_MODE1,18,0,599344,379531800,1287700786,28320,20097
20220901T094409,2600,5,10,413(0x19d),-66,41,-8,0,-22,450f06,18640,1280,REGISTERED,CONNECTED,CS_PS_MODE1,18,0,601342,379531796,1287700790,28310,20086
20220901T094411,2600,5,10,413(0x19d),-66,41,-8,0,0,450f06,18640,1280,REGISTERED,CONNECTED,CS_PS_MODE1,18,0,603340,379531799,1287700785,28320,20096
20220901T094413,2600,5,10,413(0x19d),-66,41,-8,0,-11,450f06,18640,1280,REGISTERED,CONNECTED,CS_PS_MODE1,18,0,605340,379531794,1287700789,28320,20097
20220901T094415,2600,5,10,413(0x19d),-66,41,-8,0,-10,450f06,18640,1280,REGISTERED,CONNECTED,CS_PS_MODE1,18,0,607337,379531792,1287700795,28320,20092
20220901T094417,2600,5,10,413(0x19d),-66,41,-8,0,0,450f06,18640,1280,REGISTERED,CONNECTED,CS_PS_MODE1,18,0,609334,379531796,1287700786,28270,20040
20220901T094420,2600,5,10,413(0x19d),-66,41,-8,0,-24,450f06,18640,1280,REGISTERED,CONNECTED,CS_PS_MODE1,18,0,612997,379531795,1287700795,28330,20100
20220901T094422,2600,5,10,413(0x19d),-66,41,-8,0,-21,450f06,18640,1280,REGISTERED,CONNECTED,CS_PS_MODE1,18,0,614997,379531797,1287700779,28320,20091
20220901T094424,2600,5,10,413(0x19d),-66,41,-8,0,-24,450f06,18640,1280,REGISTERED,CONNECTED,CS_PS_MODE1,18,0,616994,379531802,1287700794,28280,20058
20220901T094426,2600,5,10,413(0x19d),-66,72,-8,0,-26,450f06,18640,1280,REGISTERED,CONNECTED,CS_PS_MODE1,18,0,618325,379531806,1287700790,28310,20082
20220901T094428,2600,5,10,413(0x19d),-66,42,-8,0,-22,450f06,18640,1280,REGISTERED,CONNECTED,CS_PS_MODE1,18,0,620325,379531798,1287700790,28330,20108
20220901T094430,2600,5,10,413(0x19d),-66,42,-8,0,-13,450f06,18640,1280,REGISTERED,CONNECTED,CS_PS_MODE1,18,0,622322,379531802,1287700779,28330,20102
20220901T094432,2600,5,10,413(0x19d),-66,42,-8,0,-7,450f06,18640,1280,REGISTERED,CONNECTED,CS_PS_MODE1,18,0,624319,379531802,1287700786,28330,20104
20220901T094434,2600,5,10,413(0x19d),-66,42,-8,0,-16,450f06,18640,1280,REGISTERED,CONNECTED,CS_PS_MODE1,18,0,626317,379531797,1287700786,28320,20096
20220901T094437,2600,5,10,413(0x19d),-66,42,-8,0,-3,450f06,18640,1280,REGISTERED,CONNECTED,CS_PS_MODE1,18,0,629555,379531793,1287700787,28320,20096
20220901T094439,2600,5,10,413(0x19d),-66,42,-8,0,0,450f06,18640,1280,REGISTERED,CONNECTED,CS_PS_MODE1,18,0,631312,379531773,1287700799,28600,20378
20220901T094441,2600,5,10,413(0x19d),-66,42,-8,0,-4,450f06,18640,1280,REGISTERED,CONNECTED,CS_PS_MODE1,18,0,633312,379531571,1287700797,31410,23187
20220901T094443,2600,5,10,413(0x19d),-66,42,-8,0,-9,450f06,18640,1280,REGISTERED,CONNECTED,CS_PS_MODE1,18,0,635309,379531218,1287700778,36330,28108
20220901T094445,2600,5,10,413(0x19d),-66,42,-8,0,-6,450f06,18640,1280,REGISTERED,CONNECTED,CS_PS_MODE1,18,0,637306,379530846,1287700776,41260,33033
20220901T094447,2600,5,10,413(0x19d),-66,42,-8,0,-2,450f06,18640,1280,REGISTERED,CONNECTED,CS_PS_MODE1,18,0,639306,379530478,1287700768,46250,38028
20220901T094449,2600,5,10,413(0x19d),-72,42,-8,0,0,450f06,18640,1280,REGISTERED,CONNECTED,CS_PS_MODE1,18,0,641307,379530112,1287700744,51240,43013
20220901T094452,2600,5,10,413(0x19d),-78,54,-8,0,-13,450f06,18640,1280,REGISTERED,CONNECTED,CS_PS_MODE1,18,0,644306,379529567,1287700718,58740,50519
20220901T094454,2600,5,10,413(0x19d),-78,54,-8,0,-2,450f06,18640,1280,REGISTERED,CONNECTED,CS_PS_MODE1,18,0,646297,379529204,1287700713,63740,55516
20220901T094456,2600,5,10,413(0x19d),-78,54,-8,0,0,450f06,18640,1280,REGISTERED,CONNECTED,CS_PS_MODE1,18,0,648297,379528838,1287700708,68760,60533
20220901T094458,2600,5,10,413(0x19d),-84,54,-8,0,2,450f06,18640,1280,REGISTERED,CONNECTED,CS_PS_MODE1,18,0,650295,379528471,1287700684,73710,65481
20220901T094500,2600,5,10,413(0x19d),-84,54,-8,0,0,450f06,18640,1280,REGISTERED,CONNECTED,CS_PS_MODE1,18,0,652292,379528106,1287700666,78790,70565
20220901T094502,2600,5,10,413(0x19d),-84,54,-8,0,0,450f06,18640,1280,REGISTERED,CONNECTED,CS_PS_MODE1,18,0,654290,379527737,1287700657,83750,75527
20220901T094504,2600,5,10,204(0xcc),-84,54,-8,0,-4,450f06,18640,1280,REGISTERED,CONNECTED,CS_PS_MODE1,18,0,656288,379527375,1287700644,88740,80518
20220901T094506,2600,5,10,204(0xcc),-84,54,-8,0,11,450f06,18640,1280,REGISTERED,CONNECTED,CS_PS_MODE1,18,0,658287,379527009,1287700632,93720,85492
20220901T094509,2600,5,10,204(0xcc),-84,54,-8,0,-5,450f06,18640,1280,REGISTERED,CONNECTED,CS_PS_MODE1,18,0,661282,379526464,1287700612,101250,93027
20220901T094511,2600,5,10,204(0xcc),-84,54,-8,0,8,450f06,18640,1280,REGISTERED,CONNECTED,CS_PS_MODE1,18,0,663615,379526040,1287700601,107110,98889
20220901T094513,2600,5,10,401(0x191),-84,48,-8,0,-16,450f06,18640,1280,REGISTERED,CONNECTED,CS_PS_MODE1,18,0,665280,379525738,1287700587,111280,103051
20220901T094515,2600,5,10,401(0x191),-84,48,-8,0,-11,450f06,18640,1280,REGISTERED,CONNECTED,CS_PS_MODE1,18,0,667277,379525366,1287700580,116170,107943
20220901T094517,2600,5,10,401(0x191),-84,48,-8,0,10,450f06,18640,1280,REGISTERED,CONNECTED,CS_PS_MODE1,18,0,669275,379525000,1287700562,121150,112920
20220901T094519,2600,5,10,401(0x191),-84,54,-8,0,14,450f06,18640,1280,REGISTERED,CONNECTED,CS_PS_MODE1,18,0,671272,379524638,1287700528,126120,117898
20220901T094521,2600,5,10,401(0x191),-79,54,-8,0,7,450f06,18640,1280,REGISTERED,CONNECTED,CS_PS_MODE1,18,0,673272,379524282,1287700542,131130,122909
20220901T094523,2600,5,10,401(0x191),-79,54,-8,0,11,450f06,18640,1280,REGISTERED,CONNECTED,CS_PS_MODE1,18,0,675269,379523908,1287700535,136160,127934
20220901T094526,2600,5,10,401(0x191),-79,48,-8,0,-17,450f06,18640,1280,REGISTERED,CONNECTED,CS_PS_MODE1,18,0,678265,379523359,1287700505,143660,135439
20220901T094528,2600,5,10,401(0x191),-79,48,-8,0,5,450f06,18640,1280,REGISTERED,CONNECTED,CS_PS_MODE1,18,0,680269,379522998,1287700491,148650,140425
20220901T094530,2600,5,10,401(0x191),-79,48,-8,0,15,450f06,18640,1280,REGISTERED,CONNECTED,CS_PS_MODE1,18,0,682265,379522629,1287700467,153700,145475
20220901T094532,2600,5,10,401(0x191),-79,48,-8,0,-14,450f06,18640,1280,REGISTERED,CONNECTED,CS_PS_MODE1,18,0,684259,379522264,1287700465,158660,150437
20220901T094534,2600,5,10,401(0x191),-79,48,-8,0,-14,450f06,18640,1280,REGISTERED,CONNECTED,CS_PS_MODE1,18,0,686257,379521900,1287700453,163580,155351
20220901T094536,2600,5,10,401(0x191),-79,54,-8,0,-16,450f06,18640,1280,REGISTERED,CONNECTED,CS_PS_MODE1,18,0,688590,379521472,1287700435,169430,161203
20220901T094538,2600,5,10,401(0x191),-79,54,-8,0,0,450f06,18640,1280,REGISTERED,CONNECTED,CS_PS_MODE1,18,0,690587,379521108,1287700425,174470,166242
20220901T094541,2600,5,10,401(0x191),-79,45,-13,0,-17,450f06,18640,1280,REGISTERED,CONNECTED,CS_PS_MODE1,18,0,693250,379520622,1287700402,181130,172903
20220901T094543,2600,5,10,401(0x191),-79,52,-13,0,-16,450f06,18640,1280,REGISTERED,CONNECTED,CS_PS_MODE1,18,0,695250,379520252,1287700384,186130,177904
20220901T094545,2600,5,10,401(0x191),-79,52,-13,0,10,450f06,18640,1280,REGISTERED,CONNECTED,CS_PS_MODE1,18,0,697247,379519888,1287700375,191070,182848
20220901T094547,2600,5,10,401(0x191),-79,52,-13,0,-20,450f06,18640,1280,REGISTERED,CONNECTED,CS_PS_MODE1,18,0,699244,379519527,1287700370,196100,187871
20220901T094549,2600,5,10,401(0x191),-79,52,-13,0,-15,450f06,18640,1280,REGISTERED,CONNECTED,CS_PS_MODE1,18,0,701242,379519162,1287700359,201050,192822
20220901T094551,2600,5,10,401(0x191),-79,52,-13,0,-2,450f06,18640,1280,REGISTERED,CONNECTED,CS_PS_MODE1,18,0,703240,379518805,1287700344,205970,197749
20220901T094553,2600,5,10,401(0x191),-79,52,-13,0,7,450f06,18640,1280,REGISTERED,CONNECTED,CS_PS_MODE1,18,0,705240,379518628,1287700327,208200,199969
20220901T094555,2600,5,10,401(0x191),-79,52,-13,0,-19,450f06,18640,1280,REGISTERED,CONNECTED,CS_PS_MODE1,18,0,707237,379518620,1287700346,208220,199990
20220901T094558,2600,5,10,401(0x191),-79,52,-13,0,-19,450f06,18640,1280,REGISTERED,CONNECTED,CS_PS_MODE1,18,0,710567,379518605,1287701115,208450,200222
20220901T094600,2600,5,10,401(0x191),-79,52,-13,0,-3,450f06,18640,1280,REGISTERED,CONNECTED,CS_PS_MODE1,18,0,712565,379518565,1287701764,208480,200259
20220901T094602,2600,5,10,401(0x191),-79,52,-13,0,-18,450f06,18640,1280,REGISTERED,CONNECTED,CS_PS_MODE1,18,0,714562,379518493,1287702458,208310,200087
20220901T094604,2600,5,10,401(0x191),-79,52,-13,0,0,450f06,18640,1280,REGISTERED,CONNECTED,CS_PS_MODE1,18,0,716562,379518409,1287703168,208370,200143
20220901T094606,2600,5,10,401(0x191),-79,52,-13,0,8,450f06,18640,1280,REGISTERED,CONNECTED,CS_PS_MODE1,18,0,718559,379518309,1287703897,208300,200077
20220901T094608,2600,5,10,401(0x191),-79,52,-13,0,-2,450f06,18640,1280,REGISTERED,CONNECTED,CS_PS_MODE1,18,0,720890,379518169,1287704767,208310,200086
20220901T094610,2600,5,10,401(0x191),-79,52,-13,0,-18,450f06,18640,1280,REGISTERED,CONNECTED,CS_PS_MODE1,18,0,722888,379518021,1287705512,208270,200042
20220901T094613,2600,5,10,401(0x191),-79,52,-13,0,-16,450f06,18640,1280,REGISTERED,CONNECTED,CS_PS_MODE1,18,0,725219,379517825,1287706371,208270,200040
20220901T094615,2600,5,10,401(0x191),-79,52,-13,0,2,450f06,18640,1280,REGISTERED,CONNECTED,CS_PS_MODE1,18,0,727217,379517633,1287707121,208310,200089
20220901T094617,2600,5,10,401(0x191),-79,52,-13,0,6,450f06,18640,1280,REGISTERED,CONNECTED,CS_PS_MODE1,18,0,729215,379517426,1287707852,208290,200068
20220901T094619,2600,5,10,401(0x191),-79,52,-13,0,-15,450f06,18640,1280,REGISTERED,CONNECTED,CS_PS_MODE1,18,0,731212,379517193,1287708584,208340,200116
20220901T094621,2600,5,10,401(0x191),-79,52,-13,0,-18,450f06,18640,1280,REGISTERED,CONNECTED,CS_PS_MODE1,18,0,733212,379516939,1287709295,208320,200096
20220901T094623,2600,5,10,401(0x191),-79,52,-13,0,-16,450f06,18640,1280,REGISTERED,CONNECTED,CS_PS_MODE1,18,0,735209,379516665,1287710010,208310,200088
20220901T094625,2600,5,10,401(0x191),-86,52,-13,0,-16,450f06,18640,1280,REGISTERED,CONNECTED,CS_PS_MODE1,18,0,737206,379516369,1287710713,208320,200091
20220901T094627,2600,5,10,401(0x191),-86,52,-13,0,-16,450f06,18640,1280,REGISTERED,CONNECTED,CS_PS_MODE1,18,0,739206,379516057,1287711393,208290,200063
20220901T094630,2600,5,10,401(0x191),-86,52,-13,0,0,450f06,18640,1280,REGISTERED,CONNECTED,CS_PS_MODE1,18,0,742868,379515439,1287712620,208320,200095
20220901T094632,2600,5,10,401(0x191),-86,52,-13,0,-13,450f06,18640,1280,REGISTERED,CONNECTED,CS_PS_MODE1,18,0,744201,379515198,1287713052,208320,200094
20220901T094634,2600,5,10,401(0x191),-86,52,-13,0,-13,450f06,18640,1280,REGISTERED,CONNECTED,CS_PS_MODE1,18,0,746197,379514826,1287713684,208310,200081
20220901T094636,2600,5,10,401(0x191),-86,52,-13,0,-14,450f06,18640,1280,REGISTERED,CONNECTED,CS_PS_MODE1,18,0,748197,379514438,1287714298,208330,200102
20220901T094638,2600,5,10,401(0x191),-86,52,-13,0,-15,450f06,18640,1280,REGISTERED,CONNECTED,CS_PS_MODE1,18,0,750194,379514027,1287714901,208290,200069
20220901T094640,2600,5,10,401(0x191),-81,52,-13,0,3,450f06,18640,1280,REGISTERED,CONNECTED,CS_PS_MODE1,18,0,752192,379513598,1287715481,208310,200084
20220901T094642,2600,5,10,401(0x191),-81,52,-13,0,-12,450f06,18640,1280,REGISTERED,CONNECTED,CS_PS_MODE1,18,0,754190,379513158,1287716040,208320,200099
20220901T094644,2600,5,10,401(0x191),-81,52,-13,0,0,450f06,18640,1280,REGISTERED,CONNECTED,CS_PS_MODE1,18,0,756187,379512710,1287716582,208340,200117
20220901T094647,2600,5,10,401(0x191),-81,52,-13,0,-15,450f06,18640,1280,REGISTERED,CONNECTED,CS_PS_MODE1,18,0,759184,379511995,1287717358,208290,200068
20220901T094649,2600,5,10,401(0x191),-81,52,-13,0,18,450f06,18640,1280,REGISTERED,CONNECTED,CS_PS_MODE1,18,0,761182,379511508,1287717845,208300,200078
20220901T094651,2600,5,10,401(0x191),-81,52,-13,0,-14,450f06,18640,1280,REGISTERED,CONNECTED,CS_PS_MODE1,18,0,763180,379510995,1287718312,208320,200098
20220901T094653,2600,5,10,401(0x191),-81,52,-13,0,9,450f06,18640,1280,REGISTERED,CONNECTED,CS_PS_MODE1,18,0,765180,379510480,1287718759,208300,200078
20220901T094655,2600,5,10,401(0x191),-81,52,-13,0,-11,450f06,18640,1280,REGISTERED,CONNECTED,CS_PS_MODE1,18,0,767177,379509950,1287719180,208290,200065
20220901T094657,2600,5,10,401(0x191),-81,52,-13,0,-12,450f06,18640,1280,REGISTERED,CONNECTED,CS_PS_MODE1,18,0,769175,379509410,1287719585,208280,200055
20220901T094659,2600,5,10,401(0x191),-81,52,-13,0,12,450f06,18640,1280,REGISTERED,CONNECTED,CS_PS_MODE1,18,0,771172,379508850,1287719958,208310,200081
20220901T094702,2600,5,10,401(0x191),-81,52,-13,0,-8,450f06,18640,1280,REGISTERED,CONNECTED,CS_PS_MODE1,18,0,774507,379507917,1287720528,208300,200077
20220901T094704,2600,5,10,401(0x191),-81,52,-13,0,4,450f06,18640,1280,REGISTERED,CONNECTED,CS_PS_MODE1,18,0,776506,379507342,1287720822,208280,200059
20220901T094706,2600,5,10,401(0x191),-81,52,-13,0,12,450f06,18640,1280,REGISTERED,CONNECTED,CS_PS_MODE1,18,0,778832,379506660,1287721150,208270,200043
20220901T094708,2600,5,10,401(0x191),-81,52,-13,0,-1,450f06,18640,1280,REGISTERED,CONNECTED,CS_PS_MODE1,18,0,781162,379505972,1287721446,208310,200081
20220901T094710,2600,5,10,401(0x191),-81,52,-13,0,-4,450f06,18640,1280,REGISTERED,CONNECTED,CS_PS_MODE1,18,0,783162,379505370,1287721671,208280,200054
20220901T094712,2600,5,10,401(0x191),-86,52,-13,0,-6,450f06,18640,1280,REGISTERED,CONNECTED,CS_PS_MODE1,18,0,784825,379504855,1287721829,208230,200000
20220901T094714,2600,5,10,401(0x191),-86,52,-13,0,15,450f06,18640,1280,REGISTERED,CONNECTED,CS_PS_MODE1,18,0,787157,379504149,1287722029,208230,200005
20220901T094716,2600,5,10,401(0x191),-86,52,-13,0,-7,450f06,18640,1280,REGISTERED,CONNECTED,CS_PS_MODE1,18,0,789155,379503536,1287722170,208250,200027
20220901T094719,2600,5,10,401(0x191),-86,52,-13,0,-11,450f06,18640,1280,REGISTERED,CONNECTED,CS_PS_MODE1,18,0,791488,379502804,1287722302,208320,200093
20220901T094721,2600,5,10,53(0x35),-86,52,-13,0,6,450f06,61446,1280,REGISTERED,CONNECTED,CS_PS_MODE1,0,0,793484,379502186,1287722375,208340,200119
20220901T094723,2600,5,10,53(0x35),-86,52,-13,0,16,450f06,61446,1280,REGISTERED,CONNECTED,CS_PS_MODE1,0,0,795482,379501559,1287722431,208320,200094
20220901T094725,2600,5,10,53(0x35),-91,52,-13,0,15,450f06,61446,1280,REGISTERED,CONNECTED,CS_PS_MODE1,0,0,797480,379500932,1287722461,208300,200073
20220901T094727,2600,5,10,53(0x35),-91,52,-13,0,0,450f06,61446,1280,REGISTERED,CONNECTED,CS_PS_MODE1,0,0,799477,379500314,1287722448,208260,200039
20220901T094729,2600,5,10,53(0x35),-91,52,-13,0,21,450f06,61446,1280,REGISTERED,CONNECTED,CS_PS_MODE1,0,0,801475,379499689,1287722425,208260,200033
20220901T094731,2600,5,10,53(0x35),-91,52,-13,0,-1,450f06,61446,1280,REGISTERED,CONNECTED,CS_PS_MODE1,0,0,803475,379499057,1287722362,208220,199996
20220901T094734,2600,5,10,53(0x35),-91,52,-13,0,2,450f06,61446,1280,REGISTERED,CONNECTED,CS_PS_MODE1,0,0,807137,379497918,1287722197,208330,200101
20220901T094736,2600,5,10,53(0x35),-91,52,-13,0,11,450f06,61446,1280,REGISTERED,CONNECTED,CS_PS_MODE1,0,0,809134,379497306,1287722061,208230,200000
20220901T094738,2600,5,10,94(0x5e),-91,59,-13,0,-1,450f06,61446,1280,REGISTERED,CONNECTED,CS_PS_MODE1,0,0,811132,379496695,1287721896,208270,200046
20220901T094740,2600,5,10,94(0x5e),-91,59,-19,0,0,450f06,61446,1280,REGISTERED,CONNECTED,CS_PS_MODE1,0,0,813130,379496091,1287721710,208270,200042
20220901T094742,2600,5,10,41(0x29),-91,59,-19,0,4,450f06,61446,1280,REGISTERED,CONNECTED,CS_PS_MODE1,0,0,815130,379495488,1287721490,208360,200135
20220901T094744,2600,5,10,41(0x29),-91,59,-19,0,2,450f06,61446,1280,REGISTERED,CONNECTED,CS_PS_MODE1,0,0,816462,379495088,1287721329,208380,200153
20220901T094746,2600,5,10,401(0x191),-91,59,-19,0,16,450f06,18640,1280,REGISTERED,CONNECTED,CS_PS_MODE1,0,0,818460,379494495,1287721067,208340,200117
20220901T094748,2600,5,10,401(0x191),-91,59,-19,0,-8,450f06,18640,1280,REGISTERED,CONNECTED,CS_PS_MODE1,0,0,820457,379493910,1287720783,208240,200016
20220901T094751,2600,5,10,401(0x191),-91,59,-19,0,-4,450f06,18640,1280,REGISTERED,CONNECTED,CS_PS_MODE1,0,0,823455,379493056,1287720301,208290,200069
20220901T094753,2600,5,10,401(0x191),-91,59,-14,0,16,450f06,18640,1280,REGISTERED,CONNECTED,CS_PS_MODE1,0,0,825452,379492492,1287719959,208250,200029
20220901T094755,2600,5,10,401(0x191),-91,59,-14,0,-12,450f06,18640,1280,REGISTERED,CONNECTED,CS_PS_MODE1,0,0,827450,379491940,1287719584,208290,200065
20220901T094757,2600,5,10,401(0x191),-91,59,-14,0,-7,450f06,18640,1280,REGISTERED,CONNECTED,CS_PS_MODE1,0,0,829447,379491395,1287719186,208280,200055
20220901T094759,2600,5,10,401(0x191),-91,59,-14,0,-9,450f06,18640,1280,REGISTERED,CONNECTED,CS_PS_MODE1,0,0,831447,379490870,1287718767,208310,200085
20220901T094801,2600,5,10,401(0x191),-91,59,-14,0,-6,450f06,18640,1280,REGISTERED,CONNECTED,CS_PS_MODE1,0,0,833444,379490354,1287718318,208170,199947
20220901T094803,2600,5,10,401(0x191),-91,59,-14,0,-9,450f06,18640,1280,REGISTERED,CONNECTED,CS_PS_MODE1,0,0,835442,379489850,1287717848,208180,199950
20220901T094805,2600,5,10,204(0xcc),-91,59,-14,0,19,450f06,18640,1280,REGISTERED,CONNECTED,CS_PS_MODE1,0,0,837440,379489354,1287717368,208230,200003
20220901T094808,2600,5,10,413(0x19d),-91,59,-14,0,12,450f06,18640,1280,REGISTERED,CONNECTED,CS_PS_MODE1,0,0,840437,379488646,1287716588,208290,200061
20220901T094810,2600,5,10,413(0x19d),-91,59,-14,0,2,450f06,18640,1280,REGISTERED,CONNECTED,CS_PS_MODE1,0,0,842434,379488189,1287716045,208300,200070
20220901T094812,2600,5,10,413(0x19d),-91,59,-14,0,16,450f06,18640,1280,REGISTERED,CONNECTED,CS_PS_MODE1,0,0,844432,379487742,1287715485,208250,200027
20220901T094814,2600,5,10,413(0x19d),-91,59,-14,0,12,450f06,18640,1280,REGISTERED,CONNECTED,CS_PS_MODE1,0,0,846430,379487320,1287714905,208280,200057
20220901T094816,2600,5,10,413(0x19d),-91,59,-14,0,21,450f06,18640,1280,REGISTERED,CONNECTED,CS_PS_MODE1,0,0,848430,379486908,1287714297,208300,200074
20220901T094818,2600,5,10,413(0x19d),-91,59,-14,0,0,450f06,18640,1280,REGISTERED,CONNECTED,CS_PS_MODE1,0,0,850427,379486519,1287713686,208280,200056
20220901T094820,2600,5,10,413(0x19d),-91,59,-14,0,0,450f06,18640,1280,REGISTERED,CONNECTED,CS_PS_MODE1,0,0,852425,379486140,1287713056,208250,200028
20220901T094822,2600,5,10,208(0xd0),-91,59,-14,0,0,450f06,61446,1280,REGISTERED,CONNECTED,CS_PS_MODE1,0,0,854422,379485782,1287712400,208270,200044
20220901T094825,2600,5,10,208(0xd0),-91,59,-14,0,2,450f06,61446,1280,REGISTERED,CONNECTED,CS_PS_MODE1,0,0,857752,379485230,1287711290,208310,200084
20220901T094827,2600,5,10,208(0xd0),-91,59,-14,0,13,450f06,61446,1280,REGISTERED,CONNECTED,CS_PS_MODE1,0,0,859750,379484922,1287710592,208330,200108
20220901T094829,2600,5,10,208(0xd0),-91,59,-14,0,-1,450f06,61446,1280,REGISTERED,CONNECTED,CS_PS_MODE1,0,0,861750,379484630,1287709892,208300,200075
20220901T094831,2600,5,10,208(0xd0),-91,59,-14,0,21,450f06,61446,1280,REGISTERED,CONNECTED,CS_PS_MODE1,0,0,863747,379484361,1287709175,208260,200039
20220901T094833,2600,5,10,208(0xd0),-91,59,-14,0,15,450f06,61446,1280,REGISTERED,CONNECTED,CS_PS_MODE1,0,0,865744,379484112,1287708450,208300,200078
20220901T094835,2600,5,10,208(0xd0),-91,59,-14,0,-1,450f06,61446,1280,REGISTERED,CONNECTED,CS_PS_MODE1,0,0,867742,379483881,1287707713,208330,200101
20220901T094837,2600,5,10,208(0xd0),-91,59,-14,0,11,450f06,61446,1280,REGISTERED,CONNECTED,CS_PS_MODE1,0,0,869740,379483668,1287706969,208220,199991
20220901T094839,2600,5,10,208(0xd0),-91,59,-14,0,-2,450f06,61446,1280,REGISTERED,CONNECTED,CS_PS_MODE1,0,0,871740,379483482,1287706202,208300,200076
20220901T094842,2600,5,10,208(0xd0),-91,59,-14,0,-2,450f06,61446,1280,REGISTERED,CONNECTED,CS_PS_MODE1,0,0,874407,379483259,1287705186,208240,200014
20220901T094844,2600,5,10,208(0xd0),-91,59,-14,0,0,450f06,61446,1280,REGISTERED,CONNECTED,CS_PS_MODE1,0,0,876406,379483122,1287704411,208300,200074
20220901T094846,2600,5,10,208(0xd0),-91,59,-14,0,19,450f06,61446,1280,REGISTERED,CONNECTED,CS_PS_MODE1,0,0,878401,379483004,1287703627,208300,200071
20220901T094848,2600,5,10,208(0xd0),-91,59,-14,0,21,450f06,61446,1280,REGISTERED,CONNECTED,CS_PS_MODE1,0,0,880397,379482902,1287702851,208310,200087
20220901T094850,2600,5,10,208(0xd0),-91,59,-14,0,10,450f06,61446,1280,REGISTERED,CONNECTED,CS_PS_MODE1,0,0,882394,379482832,1287702057,208300,200075
20220901T094852,2600,5,10,208(0xd0),-91,59,-14,0,2,450f06,61446,1280,REGISTERED,CONNECTED,CS_PS_MODE1,0,0,884392,379482780,1287701269,208300,200078
20220901T094854,2600,5,10,208(0xd0),-91,59,-14,0,-2,450f06,61446,1280,REGISTERED,CONNECTED,CS_PS_MODE1,0,0,886390,379482746,1287700481,208260,200031
20220901T094857,2600,5,10,208(0xd0),-91,59,-14,0,8,450f06,61446,1280,REGISTERED,CONNECTED,CS_PS_MODE1,0,0,890055,379482741,1287699022,208210,199985
20220901T094859,2600,5,10,208(0xd0),-91,59,-14,0,0,450f06,61446,1280,REGISTERED,CONNECTED,CS_PS_MODE1,0,0,891387,379482758,1287698494,208280,200059
20220901T094901,2600,5,10,204(0xcc),-91,59,-14,0,0,450f06,18640,1280,REGISTERED,CONNECTED,CS_PS_MODE1,0,0,894080,379482790,1287697744,208190,199969
20220901T094903,2600,5,10,204(0xcc),-91,59,-14,0,20,450f06,18640,1280,REGISTERED,CONNECTED,CS_PS_MODE1,0,0,896080,379482790,1287697644,208180,199956
20220901T094905,2600,5,10,204(0xcc),-91,59,-14,0,0,450f06,18640,1280,REGISTERED,CONNECTED,CS_PS_MODE1,0,0,898077,379482790,1287697411,208110,199880
20220901T094907,2600,5,10,204(0xcc),-91,59,-14,0,7,450f06,18640,1280,REGISTERED,CONNECTED,CS_PS_MODE1,0,0,900075,379482857,1287696729,208340,200116
20220901T094909,2600,5,10,208(0xd0),-91,59,-14,0,23,450f06,61446,1280,REGISTERED,CONNECTED,CS_PS_MODE1,0,0,902072,379483001,1287695805,208520,200293
20220901T094911,2600,5,10,208(0xd0),-91,59,-14,0,12,450f06,61446,1280,REGISTERED,CONNECTED,CS_PS_MODE1,0,0,904072,379483182,1287694793,208320,200098
20220901T094914,2600,5,10,208(0xd0),-91,59,-14,0,21,450f06,61446,1280,REGISTERED,CONNECTED,CS_PS_MODE1,0,0,906403,379483458,1287693552,208270,200049
20220901T094916,2600,5,10,208(0xd0),-91,59,-14,0,1,450f06,61446,1280,REGISTERED,CONNECTED,CS_PS_MODE1,0,0,908401,379483741,1287692462,208220,199997
20220901T094918,2600,5,10,41(0x29),-91,59,-14,0,0,450f06,61446,1280,REGISTERED,CONNECTED,CS_PS_MODE1,0,0,910397,379484080,1287691358,208240,200018
20220901T094920,2600,5,10,41(0x29),-91,59,-14,0,-1,450f06,61446,1280,REGISTERED,CONNECTED,CS_PS_MODE1,0,0,912397,379484474,1287690247,208210,199981
20220901T094922,2600,5,10,204(0xcc),-91,59,-14,0,-2,450f06,18640,1280,REGISTERED,CONNECTED,CS_PS_MODE1,0,0,914395,379484927,1287689152,208140,199914
20220901T094924,2600,5,10,204(0xcc),-91,59,-14,0,-3,450f06,18640,1280,REGISTERED,CONNECTED,CS_PS_MODE1,0,0,916392,379485429,1287688055,208350,200128
20220901T094926,2600,5,10,204(0xcc),-91,59,-14,0,0,450f06,18640,1280,REGISTERED,CONNECTED,CS_PS_MODE1,0,0,918390,379485980,1287686991,208310,200087
20220901T094929,2600,5,10,204(0xcc),-91,59,-14,0,9,450f06,18640,1280,REGISTERED,CONNECTED,CS_PS_MODE1,0,0,921387,379486911,1287685449,208090,199865
20220901T094931,2600,5,10,204(0xcc),-91,59,-14,0,-5,450f06,18640,1280,REGISTERED,CONNECTED,CS_PS_MODE1,0,0,923384,379487594,1287684478,208280,200054
20220901T094933,2600,5,10,413(0x19d),-91,59,-14,0,18,450f06,18640,1280,REGISTERED,CONNECTED,CS_PS_MODE1,0,0,925382,379488318,1287683548,208410,200183
20220901T094935,2600,5,10,204(0xcc),-91,59,-14,0,0,450f06,18640,1280,REGISTERED,CONNECTED,CS_PS_MODE1,0,0,927380,379489088,1287682662,208270,200046
20220901T094937,2600,5,10,204(0xcc),-86,59,-14,0,1,450f06,18640,1280,REGISTERED,CONNECTED,CS_PS_MODE1,0,0,929380,379489906,1287681827,208240,200019
20220901T094939,2600,5,10,204(0xcc),-86,59,-14,0,-2,450f06,18640,1280,REGISTERED,CONNECTED,CS_PS_MODE1,0,0,931377,379490759,1287681066,208150,199923
20220901T094941,2600,5,10,204(0xcc),-86,59,-14,0,13,450f06,18640,1280,REGISTERED,CONNECTED,CS_PS_MODE1,0,0,933375,379491643,1287680355,208220,199996
20220901T094943,2600,5,10,413(0x19d),-86,59,-14,0,0,450f06,18640,1280,REGISTERED,CONNECTED,CS_PS_MODE1,0,0,935372,379492573,1287679718,208210,199985
20220901T094946,2600,5,10,204(0xcc),-86,59,-14,0,9,450f06,18640,1280,REGISTERED,CONNECTED,CS_PS_MODE1,0,0,938369,379494010,1287678889,208230,200007
20220901T094948,2600,5,10,204(0xcc),-86,59,-14,0,0,450f06,18640,1280,REGISTERED,CONNECTED,CS_PS_MODE1,0,0,940706,379495169,1287678347,208230,200004
20220901T094950,2600,5,10,41(0x29),-86,59,-14,0,16,450f06,61446,1280,REGISTERED,CONNECTED,CS_PS_MODE1,0,0,942706,379496179,1287677971,208320,200092
20220901T094952,2600,5,10,204(0xcc),-86,59,-14,0,21,450f06,18640,1280,REGISTERED,CONNECTED,CS_PS_MODE1,0,0,944697,379497222,1287677673,208230,200000
20220901T094954,2600,5,10,204(0xcc),-86,59,-14,0,0,450f06,18640,1280,REGISTERED,CONNECTED,CS_PS_MODE1,0,0,946694,379498251,1287677447,208190,199966
20220901T094956,2600,5,10,401(0x191),-86,59,-14,0,0,450f06,18640,1280,REGISTERED,CONNECTED,CS_PS_MODE1,0,0,948692,379499307,1287677308,208190,199962
20220901T094958,2600,5,10,204(0xcc),-91,59,-14,0,2,450f06,18640,1280,REGISTERED,CONNECTED,CS_PS_MODE1,0,0,950690,379500359,1287677247,208230,200007
20220901T095000,2600,5,10,413(0x19d),-91,59,-14,0,0,450f06,18640,1280,REGISTERED,CONNECTED,CS_PS_MODE1,0,0,952688,379501422,1287677270,208360,200133
20220901T095003,2600,5,10,413(0x19d),-91,59,-14,0,22,450f06,18640,1280,REGISTERED,CONNECTED,CS_PS_MODE1,0,0,955352,379502835,1287677416,208190,199960
20220901T095005,2600,5,10,204(0xcc),-91,59,-14,0,18,450f06,18640,1280,REGISTERED,CONNECTED,CS_PS_MODE1,0,0,957350,379503879,1287677622,208280,200055
20220901T095007,2600,5,10,41(0x29),-91,59,-14,0,0,450f06,61446,1280,REGISTERED,CONNECTED,CS_PS_MODE1,0,0,959350,379504923,1287677901,208260,200033
20220901T095009,2600,5,10,401(0x191),-91,59,-14,0,0,450f06,18640,1280,REGISTERED,CONNECTED,CS_PS_MODE1,0,0,961347,379505942,1287678269,208250,200027
