ct,earfcn_dl,earfcn_ul,rf_state,band,bandwidth,plmn,tac,cell_id,esm_cause,drx,rsrp,rsrq,rssi,l2w,ri,cqi,status,sub_status,rrc,svc,sinr,tx_pwr,tmsi,ip,avg_rsrp,antbar,imsi,missdn,time_boot_ms,lat,lon,alt,vx,vy,vz,hdg,relative_alt
20220831T042728,1350,19350,RXTX,3,20,45005,6454,4377-55(447),0,640,-60,-7,-32,-,0,0,SRV/REGISTERED,NORMAL_SERVICE,CONNECTED,CS_PS,24,0,e038356d,27.177.169.226,-60,4,4.50E+14,1227091531,39686,377452515,1273504718,255340,0,0,0,65535,-82
20220831T042730,1350,19350,RXTX,3,20,45005,6454,4377-55(447),0,640,-60,-7,-32,-,0,0,SRV/REGISTERED,NORMAL_SERVICE,CONNECTED,CS_PS,27.6,-15,e038356d,27.177.169.226,-60,4,4.50E+14,1227091531,42015,377452513,1273504709,255160,0,0,0,65535,-129
20220831T042733,1350,19350,RXTX,3,20,45005,6454,4377-55(447),0,640,-60,-7,-32,-,0,0,SRV/REGISTERED,NORMAL_SERVICE,CONNECTED,CS_PS,27.6,-25,e038356d,27.177.169.226,-60,4,4.50E+14,1227091531,44013,377452511,1273504701,254970,0,0,0,65535,-180
20220831T042735,1350,19350,RXTX,3,20,45005,6454,4377-55(447),0,640,-60,-7,-32,-,0,0,SRV/REGISTERED,NORMAL_SERVICE,CONNECTED,CS_PS,27.6,-26,e038356d,27.177.169.226,-60,4,4.50E+14,1227091531,46345,377452510,1273504691,254770,0,0,0,65535,-162
20220831T042737,1350,19350,RXTX,3,20,45005,6454,4377-55(447),0,640,-60,-7,-32,-,0,0,SRV/REGISTERED,NORMAL_SERVICE,CONNECTED,CS_PS,28.6,-23,e038356d,27.177.169.226,-60,4,4.50E+14,1227091531,48343,377452505,1273504682,254620,0,0,0,65535,-175
20220831T042739,1350,19350,RXTX,3,20,45005,6454,4377-55(447),0,640,-65,-7,-39,-,0,0,SRV/REGISTERED,NORMAL_SERVICE,CONNECTED,CS_PS,28.6,-28,e038356d,27.177.169.226,-60,4,4.50E+14,1227091531,50673,377452499,1273504678,255950,0,0,0,65535,-159
20220831T042741,1350,19350,RXTX,3,20,45005,6454,4377-55(447),0,640,-59,-7,-33,-,0,0,SRV/REGISTERED,NORMAL_SERVICE,CONNECTED,CS_PS,29.8,-14,e038356d,27.177.169.226,-60,4,4.50E+14,1227091531,52671,377452495,1273504674,255910,0,0,0,65535,-193
20220831T042743,1350,19350,RXTX,3,20,45005,6454,4377-55(447),0,640,-59,-7,-33,-,0,0,SRV/REGISTERED,NORMAL_SERVICE,CONNECTED,CS_PS,29.8,-26,e038356d,27.177.169.226,-60,4,4.50E+14,1227091531,54671,377452485,1273504671,255880,0,0,0,65535,-220
20220831T042745,1350,19350,RXTX,3,20,45005,6454,4377-55(447),0,640,-59,-7,-33,-,0,0,SRV/REGISTERED,NORMAL_SERVICE,CONNECTED,CS_PS,29.4,-25,e038356d,27.177.169.226,-60,4,4.50E+14,1227091531,57000,377452472,1273504667,255880,0,0,0,65535,-227
20220831T042747,1350,19350,RXTX,3,20,45005,6454,4377-55(447),0,640,-59,-7,-33,-,0,0,SRV/REGISTERED,NORMAL_SERVICE,CONNECTED,CS_PS,29.8,-24,e038356d,27.177.169.226,-60,4,4.50E+14,1227091531,58998,377452462,1273504662,255890,0,0,0,65535,-218
20220831T042750,1350,19350,RXTX,3,20,45005,6454,4377-55(447),0,640,-59,-7,-33,-,0,0,SRV/REGISTERED,NORMAL_SERVICE,CONNECTED,CS_PS,29.8,-24,e038356d,27.177.169.226,-59,4,4.50E+14,1227091531,61331,377452451,1273504660,255840,0,0,0,65535,-262
20220831T042752,1350,19350,RXTX,3,20,45005,6454,4377-55(447),0,640,-59,-7,-33,-,0,0,SRV/REGISTERED,NORMAL_SERVICE,CONNECTED,CS_PS,29.4,-26,e038356d,27.177.169.226,-59,4,4.50E+14,1227091531,63328,377452443,1273504657,255830,0,0,0,65535,-270
20220831T042754,1350,19350,RXTX,3,20,45005,6454,4377-55(447),0,640,-59,-7,-33,-,0,0,SRV/REGISTERED,NORMAL_SERVICE,CONNECTED,CS_PS,25.2,-25,e038356d,27.177.169.226,-59,4,4.50E+14,1227091531,65658,377452432,1273504655,255810,0,0,0,65535,-291
20220831T042756,1350,19350,RXTX,3,20,45005,6454,4377-55(447),0,640,-59,-7,-33,-,0,0,SRV/REGISTERED,NORMAL_SERVICE,CONNECTED,CS_PS,26.8,-15,e038356d,27.177.169.226,-59,4,4.50E+14,1227091531,67656,377452424,1273504656,255810,0,0,0,65535,-295
20220831T042758,1350,19350,RXTX,3,20,45005,6454,4377-55(447),0,640,-59,-7,-33,-,0,0,SRV/REGISTERED,NORMAL_SERVICE,CONNECTED,CS_PS,26.8,-24,e038356d,27.177.169.226,-59,4,4.50E+14,1227091531,69656,377452418,1273504657,255810,0,0,0,65535,-297
20220831T042800,1350,19350,RXTX,3,20,45005,6454,4377-55(447),0,640,-59,-7,-33,-,0,0,SRV/REGISTERED,NORMAL_SERVICE,CONNECTED,CS_PS,23.4,-25,e038356d,27.177.169.226,-59,4,4.50E+14,1227091531,71985,377452411,1273504660,255800,0,0,0,65535,-300
20220831T042803,1350,19350,RXTX,3,20,45005,6454,4377-55(447),0,640,-59,-7,-33,-,0,0,SRV/REGISTERED,NORMAL_SERVICE,CONNECTED,CS_PS,26.8,-22,e038356d,27.177.169.226,-59,4,4.50E+14,1227091531,73983,377452408,1273504662,255820,0,0,0,65535,-281
20220831T042805,1350,19350,RXTX,3,20,45005,6454,4377-55(447),0,640,-59,-7,-33,-,0,0,SRV/REGISTERED,NORMAL_SERVICE,CONNECTED,CS_PS,26.8,-26,e038356d,27.177.169.226,-59,4,4.50E+14,1227091531,76316,377452409,1273504664,255840,0,0,0,65535,-260
20220831T042807,1350,19350,RXTX,3,20,45005,6454,4377-55(447),0,640,-59,-7,-33,-,0,0,SRV/REGISTERED,NORMAL_SERVICE,CONNECTED,CS_PS,22.6,-25,e038356d,27.177.169.226,-59,4,4.50E+14,1227091531,78313,377452413,1273504664,255850,0,0,0,65535,-259
20220831T042809,1350,19350,RXTX,3,20,45005,6454,4377-55(447),0,640,-59,-7,-33,-,0,0,SRV/REGISTERED,NORMAL_SERVICE,CONNECTED,CS_PS,24.4,-21,e038356d,27.177.169.226,-59,4,4.50E+14,1227091531,80643,377452416,1273504663,255800,0,0,0,65535,-301
20220831T042811,1350,19350,RXTX,3,20,45005,6454,4377-55(447),0,640,-59,-7,-33,-,0,0,SRV/REGISTERED,NORMAL_SERVICE,CONNECTED,CS_PS,29.4,-38,e038356d,27.177.169.226,-59,4,4.50E+14,1227091531,82641,377452418,1273504663,255800,0,0,0,65535,-308
20220831T042813,1350,19350,RXTX,3,20,45005,6454,4377-55(447),0,640,-59,-7,-33,-,0,0,SRV/REGISTERED,NORMAL_SERVICE,CONNECTED,CS_PS,29.4,-26,e038356d,27.177.169.226,-59,4,4.50E+14,1227091531,84641,377452419,1273504662,255820,0,0,0,65535,-287
20220831T042815,1350,19350,RXTX,3,20,45005,6454,4377-55(447),0,640,-59,-7,-33,-,0,0,SRV/REGISTERED,NORMAL_SERVICE,CONNECTED,CS_PS,29.6,-26,e038356d,27.177.169.226,-59,4,4.50E+14,1227091531,86971,377452419,1273504663,255800,0,0,0,65535,-308
20220831T042817,1350,19350,RXTX,3,20,45005,6454,4377-55(447),0,640,-59,-7,-33,-,0,0,SRV/REGISTERED,NORMAL_SERVICE,CONNECTED,CS_PS,24.4,-25,e038356d,27.177.169.226,-59,4,4.50E+14,1227091531,88968,377452419,1273504664,255790,0,0,0,65535,-317
20220831T042820,1350,19350,RXTX,3,20,45005,6454,4377-55(447),0,640,-59,-7,-33,-,0,0,SRV/REGISTERED,NORMAL_SERVICE,CONNECTED,CS_PS,24.4,-25,e038356d,27.177.169.226,-59,4,4.50E+14,1227091531,91300,377452417,1273504669,255790,0,0,0,65535,-312
20220831T042822,1350,19350,RXTX,3,20,45005,6454,4377-55(447),0,640,-59,-7,-33,-,0,0,SRV/REGISTERED,NORMAL_SERVICE,CONNECTED,CS_PS,27.4,-25,e038356d,27.177.169.226,-59,4,4.50E+14,1227091531,93298,377452415,1273504673,255770,0,0,0,65535,-339
20220831T042824,1350,19350,RXTX,3,20,45005,6454,4377-55(447),0,640,-59,-7,-33,-,0,0,SRV/REGISTERED,NORMAL_SERVICE,CONNECTED,CS_PS,29,-27,e038356d,27.177.169.226,-59,4,4.50E+14,1227091531,95629,377452414,1273504679,255740,0,0,0,65535,-366
20220831T042826,1350,19350,RXTX,3,20,45005,6454,4377-55(447),0,640,-59,-7,-33,-,0,0,SRV/REGISTERED,NORMAL_SERVICE,CONNECTED,CS_PS,29,-26,e038356d,27.177.169.226,-59,4,4.50E+14,1227091531,97628,377452414,1273504683,255700,0,0,0,65535,-409
20220831T042828,1350,19350,RXTX,3,20,45005,6454,4377-55(447),0,640,-59,-7,-33,-,0,0,SRV/REGISTERED,NORMAL_SERVICE,CONNECTED,CS_PS,29,-26,e038356d,27.177.169.226,-59,4,4.50E+14,1227091531,99625,377452418,1273504686,255700,0,0,0,65535,-401
20220831T042830,1350,19350,RXTX,3,20,45005,6454,4377-55(447),0,640,-59,-7,-33,-,0,0,SRV/REGISTERED,NORMAL_SERVICE,CONNECTED,CS_PS,28.4,-25,e038356d,27.177.169.226,-59,4,4.50E+14,1227091531,101955,377452420,1273504687,255690,0,0,0,65535,-417
20220831T042833,1350,19350,RXTX,3,20,45005,6454,4377-55(447),0,640,-59,-7,-33,-,0,0,SRV/REGISTERED,NORMAL_SERVICE,CONNECTED,CS_PS,26,-13,e038356d,27.177.169.226,-59,4,4.50E+14,1227091531,103953,377452424,1273504687,255670,0,0,0,65535,-434
20220831T042835,1350,19350,RXTX,3,20,45005,6454,4377-55(447),0,640,-59,-7,-33,-,0,0,SRV/REGISTERED,NORMAL_SERVICE,CONNECTED,CS_PS,26,-26,e038356d,27.177.169.226,-59,4,4.50E+14,1227091531,106286,377452429,1273504686,255640,0,0,0,65535,-462
20220831T042837,1350,19350,RXTX,3,20,45005,6454,4377-55(447),0,640,-59,-7,-33,-,0,0,SRV/REGISTERED,NORMAL_SERVICE,CONNECTED,CS_PS,29,-25,e038356d,27.177.169.226,-59,4,4.50E+14,1227091531,108283,377452435,1273504685,255620,0,0,0,65535,-484
20220831T042839,1350,19350,RXTX,3,20,45005,6454,4377-55(447),0,640,-59,-7,-33,-,0,0,SRV/REGISTERED,NORMAL_SERVICE,CONNECTED,CS_PS,29.4,-26,e038356d,27.177.169.226,-59,4,4.50E+14,1227091531,110613,377452441,1273504684,255630,0,0,0,65535,-477
20220831T042841,1350,19350,RXTX,3,20,45005,6454,4377-55(447),0,640,-59,-7,-33,-,0,0,SRV/REGISTERED,NORMAL_SERVICE,CONNECTED,CS_PS,24.6,-40,e038356d,27.177.169.226,-59,4,4.50E+14,1227091531,112611,377452447,1273504681,255620,0,0,0,65535,-485
20220831T042843,1350,19350,RXTX,3,20,45005,6454,4377-55(447),0,640,-59,-7,-33,-,0,0,SRV/REGISTERED,NORMAL_SERVICE,CONNECTED,CS_PS,24.6,-26,e038356d,27.177.169.226,-59,4,4.50E+14,1227091531,114943,377452454,1273504676,255630,0,0,0,65535,-474
20220831T042845,1350,19350,RXTX,3,20,45005,6454,4377-55(447),0,640,-59,-7,-33,-,0,0,SRV/REGISTERED,NORMAL_SERVICE,CONNECTED,CS_PS,27.8,-28,e038356d,27.177.169.226,-59,4,4.50E+14,1227091531,116941,377452460,1273504672,255640,0,0,0,65535,-462
20220831T042847,1350,19350,RXTX,3,20,45005,6454,4377-55(447),0,640,-59,-7,-33,-,0,0,SRV/REGISTERED,NORMAL_SERVICE,CONNECTED,CS_PS,23.6,-37,e038356d,27.177.169.226,-59,4,4.50E+14,1227091531,118938,377452462,1273504671,255640,0,0,0,65535,-460
20220831T042850,1350,19350,RXTX,3,20,45005,6454,4377-55(447),0,640,-59,-7,-33,-,0,0,SRV/REGISTERED,NORMAL_SERVICE,CONNECTED,CS_PS,23.6,-27,e038356d,27.177.169.226,-59,4,4.50E+14,1227091531,121270,377452464,1273504667,255680,0,0,0,65535,-426
20220831T042852,1350,19350,RXTX,3,20,45005,6454,4377-55(447),0,640,-59,-7,-33,-,0,0,SRV/REGISTERED,NORMAL_SERVICE,CONNECTED,CS_PS,26.8,-27,e038356d,27.177.169.226,-59,4,4.50E+14,1227091531,123268,377452468,1273504665,255660,0,0,0,65535,-445
20220831T042854,1350,19350,RXTX,3,20,45005,6454,4377-55(447),0,640,-59,-7,-33,-,0,0,SRV/REGISTERED,NORMAL_SERVICE,CONNECTED,CS_PS,29.6,-28,e038356d,27.177.169.226,-59,4,4.50E+14,1227091531,125598,377452474,1273504662,255680,0,0,0,65535,-425
20220831T042856,1350,19350,RXTX,3,20,45005,6454,4377-55(447),0,640,-59,-7,-33,-,0,0,SRV/REGISTERED,NORMAL_SERVICE,CONNECTED,CS_PS,28.6,-27,e038356d,27.177.169.226,-59,4,4.50E+14,1227091531,127598,377452475,1273504661,255720,0,0,0,65535,-384
20220831T042858,1350,19350,RXTX,3,20,45005,6454,4377-55(447),0,640,-59,-7,-33,-,0,0,SRV/REGISTERED,NORMAL_SERVICE,CONNECTED,CS_PS,28.6,-28,e038356d,27.177.169.226,-59,4,4.50E+14,1227091531,129596,377452477,1273504659,255730,0,0,0,65535,-378
20220831T042900,1350,19350,RXTX,3,20,45005,6454,4377-55(447),0,640,-59,-7,-33,-,0,0,SRV/REGISTERED,NORMAL_SERVICE,CONNECTED,CS_PS,29.2,-28,e038356d,27.177.169.226,-59,4,4.50E+14,1227091531,131926,377452478,1273504656,255710,0,0,0,65535,-397
20220831T042902,1350,19350,RXTX,3,20,45005,6454,4377-55(447),0,640,-59,-7,-33,-,0,0,SRV/REGISTERED,NORMAL_SERVICE,CONNECTED,CS_PS,26.2,-26,e038356d,27.177.169.226,-59,4,4.50E+14,1227091531,133923,377452476,1273504655,255680,0,0,0,65535,-428
20220831T042905,1350,19350,RXTX,3,20,45005,6454,4377-55(447),0,640,-59,-7,-33,-,0,0,SRV/REGISTERED,NORMAL_SERVICE,CONNECTED,CS_PS,26.2,-26,e038356d,27.177.169.226,-59,4,4.50E+14,1227091531,136255,377452472,1273504655,255660,0,0,0,65535,-444
20220831T042907,1350,19350,RXTX,3,20,45005,6454,4377-55(447),0,640,-59,-7,-33,-,0,0,SRV/REGISTERED,NORMAL_SERVICE,CONNECTED,CS_PS,26,-26,e038356d,27.177.169.226,-59,4,4.50E+14,1227091531,138253,377452468,1273504654,255680,0,0,0,65535,-429
20220831T042909,1350,19350,RXTX,3,20,45005,6454,4377-55(447),0,640,-59,-7,-33,-,0,0,SRV/REGISTERED,NORMAL_SERVICE,CONNECTED,CS_PS,27.6,-26,e038356d,27.177.169.226,-59,4,4.50E+14,1227091531,140583,377452461,1273504651,255660,0,0,0,65535,-448
20220831T042911,1350,19350,RXTX,3,20,45005,6454,4377-55(447),0,640,-59,-7,-33,-,0,0,SRV/REGISTERED,NORMAL_SERVICE,CONNECTED,CS_PS,26.6,-25,e038356d,27.177.169.226,-59,4,4.50E+14,1227091531,142581,377452458,1273504647,255670,0,0,0,65535,-435
20220831T042913,1350,19350,RXTX,3,20,45005,6454,4377-55(447),0,640,-59,-7,-33,-,0,0,SRV/REGISTERED,NORMAL_SERVICE,CONNECTED,CS_PS,26.6,-26,e038356d,27.177.169.226,-59,4,4.50E+14,1227091531,144581,377452454,1273504645,255720,0,0,0,65535,-382
20220831T042915,1350,19350,RXTX,3,20,45005,6454,4377-55(447),0,640,-59,-7,-33,-,0,0,SRV/REGISTERED,NORMAL_SERVICE,CONNECTED,CS_PS,25,-27,e038356d,27.177.169.226,-59,4,4.50E+14,1227091531,146910,377452450,1273504641,255690,0,0,0,65535,-417
20220831T042917,1350,19350,RXTX,3,20,45005,6454,4377-55(447),0,640,-59,-7,-33,-,0,0,SRV/REGISTERED,NORMAL_SERVICE,CONNECTED,CS_PS,27,-27,e038356d,27.177.169.226,-59,4,4.50E+14,1227091531,148908,377452447,1273504636,255710,0,0,0,65535,-399
20220831T042920,1350,19350,RXTX,3,20,45005,6454,4377-55(447),0,640,-59,-7,-33,-,0,0,SRV/REGISTERED,NORMAL_SERVICE,CONNECTED,CS_PS,27,-27,e038356d,27.177.169.226,-59,4,4.50E+14,1227091531,151239,377452440,1273504635,255680,0,0,0,65535,-426
20220831T042922,1350,19350,RXTX,3,20,45005,6454,4377-55(447),0,640,-59,-7,-33,-,0,0,SRV/REGISTERED,NORMAL_SERVICE,CONNECTED,CS_PS,28.6,-28,e038356d,27.177.169.226,-59,4,4.50E+14,1227091531,153239,377452437,1273504633,255670,0,0,0,65535,-434
20220831T042924,1350,19350,RXTX,3,20,45005,6454,4377-55(447),0,640,-59,-7,-33,-,0,0,SRV/REGISTERED,NORMAL_SERVICE,CONNECTED,CS_PS,24.4,-28,e038356d,27.177.169.226,-59,4,4.50E+14,1227091531,155568,377452436,1273504627,255640,0,0,0,65535,-462
20220831T042926,1350,19350,RXTX,3,20,45005,6454,4377-55(447),0,640,-59,-7,-33,-,0,0,SRV/REGISTERED,NORMAL_SERVICE,CONNECTED,CS_PS,27.4,-25,e038356d,27.177.169.226,-59,4,4.50E+14,1227091531,157566,377452436,1273504623,255620,0,0,0,65535,-485
20220831T042928,1350,19350,RXTX,3,20,45005,6454,4377-55(447),0,640,-59,-7,-33,-,0,0,SRV/REGISTERED,NORMAL_SERVICE,CONNECTED,CS_PS,27.4,-25,e038356d,27.177.169.226,-59,4,4.50E+14,1227091531,159566,377452436,1273504619,255630,0,0,0,65535,-471
20220831T042930,1350,19350,RXTX,3,20,45005,6454,4377-55(447),0,640,-59,-7,-33,-,0,0,SRV/REGISTERED,NORMAL_SERVICE,CONNECTED,CS_PS,23.6,-17,e038356d,27.177.169.226,-59,4,4.50E+14,1227091531,161895,377452436,1273504620,255650,0,0,0,65535,-459
20220831T042932,1350,19350,RXTX,3,20,45005,6454,4377-55(447),0,640,-59,-7,-33,-,0,0,SRV/REGISTERED,NORMAL_SERVICE,CONNECTED,CS_PS,24.6,-22,e038356d,27.177.169.226,-59,4,4.50E+14,1227091531,163893,377452438,1273504620,255650,0,0,0,65535,-455
20220831T042935,1350,19350,RXTX,3,20,45005,6454,4377-55(447),0,640,-59,-7,-33,-,0,0,SRV/REGISTERED,NORMAL_SERVICE,CONNECTED,CS_PS,24.6,-25,e038356d,27.177.169.226,-59,4,4.50E+14,1227091531,166226,377452438,1273504621,255580,0,0,0,65535,-524
20220831T042937,1350,19350,RXTX,3,20,45005,6454,4377-55(447),0,640,-59,-7,-33,-,0,0,SRV/REGISTERED,NORMAL_SERVICE,CONNECTED,CS_PS,22.8,-28,e038356d,27.177.169.226,-59,4,4.50E+14,1227091531,168223,377452435,1273504625,255580,0,0,0,65535,-526
20220831T042939,1350,19350,RXTX,3,20,45005,6454,4377-55(447),0,640,-59,-7,-33,-,0,0,SRV/REGISTERED,NORMAL_SERVICE,CONNECTED,CS_PS,24,-26,e038356d,27.177.169.226,-59,4,4.50E+14,1227091531,170553,377452432,1273504629,255590,0,0,0,65535,-510
20220831T042941,1350,19350,RXTX,3,20,45005,6454,4377-55(447),0,640,-59,-7,-33,-,0,0,SRV/REGISTERED,NORMAL_SERVICE,CONNECTED,CS_PS,29.2,-25,e038356d,27.177.169.226,-59,4,4.50E+14,1227091531,172551,377452430,1273504631,255570,0,0,0,65535,-530
20220831T042943,1350,19350,RXTX,3,20,45005,6454,4377-55(447),0,640,-59,-7,-33,-,0,0,SRV/REGISTERED,NORMAL_SERVICE,CONNECTED,CS_PS,29.2,-27,e038356d,27.177.169.226,-59,4,4.50E+14,1227091531,174551,377452428,1273504633,255570,0,0,0,65535,-533
20220831T042945,1350,19350,RXTX,3,20,45005,6454,4377-55(447),0,640,-59,-7,-33,-,0,0,SRV/REGISTERED,NORMAL_SERVICE,CONNECTED,CS_PS,29,-26,e038356d,27.177.169.226,-59,4,4.50E+14,1227091531,176881,377452429,1273504635,255560,0,0,0,65535,-540
20220831T042947,1350,19350,RXTX,3,20,45005,6454,4377-55(447),0,640,-59,-7,-33,-,0,0,SRV/REGISTERED,NORMAL_SERVICE,CONNECTED,CS_PS,29.2,-42,e038356d,27.177.169.226,-59,4,4.50E+14,1227091531,178878,377452430,1273504636,255560,0,0,0,65535,-543
20220831T042950,1350,19350,RXTX,3,20,45005,6454,4377-55(447),0,640,-59,-7,-33,-,0,0,SRV/REGISTERED,NORMAL_SERVICE,CONNECTED,CS_PS,29.2,-26,e038356d,27.177.169.226,-59,4,4.50E+14,1227091531,181210,377452433,1273504638,255520,0,0,0,65535,-583
20220831T042952,1350,19350,RXTX,3,20,45005,6454,4377-55(447),0,640,-59,-7,-33,-,0,0,SRV/REGISTERED,NORMAL_SERVICE,CONNECTED,CS_PS,27.8,-12,e038356d,27.177.169.226,-59,4,4.50E+14,1227091531,183208,377452438,1273504637,255520,0,0,0,65535,-589
20220831T042954,1350,19350,RXTX,3,20,45005,6454,4377-55(447),0,640,-59,-7,-33,-,0,0,SRV/REGISTERED,NORMAL_SERVICE,CONNECTED,CS_PS,27,-27,e038356d,27.177.169.226,-59,4,4.50E+14,1227091531,185538,377452446,1273504637,255520,0,0,0,65535,-589
20220831T042956,1350,19350,RXTX,3,20,45005,6454,4377-55(447),0,640,-59,-7,-33,-,0,0,SRV/REGISTERED,NORMAL_SERVICE,CONNECTED,CS_PS,27,-10,e038356d,27.177.169.226,-59,4,4.50E+14,1227091531,187538,377452452,1273504635,255460,0,0,0,65535,-642
20220831T042958,1350,19350,RXTX,3,20,45005,6454,4377-55(447),0,640,-59,-7,-33,-,0,0,SRV/REGISTERED,NORMAL_SERVICE,CONNECTED,CS_PS,26.8,-19,e038356d,27.177.169.226,-59,4,4.50E+14,1227091531,189535,377452461,1273504635,255500,0,0,0,65535,-605
20220831T043000,1350,19350,RXTX,3,20,45005,6454,4377-55(447),0,640,-59,-7,-33,-,0,0,SRV/REGISTERED,NORMAL_SERVICE,CONNECTED,CS_PS,29.4,-15,e038356d,27.177.169.226,-59,4,4.50E+14,1227091531,191866,377452471,1273504635,255490,0,0,0,65535,-613
20220831T043002,1350,19350,RXTX,3,20,45005,6454,4377-55(447),0,640,-59,-7,-33,-,0,0,SRV/REGISTERED,NORMAL_SERVICE,CONNECTED,CS_PS,28.2,-26,e038356d,27.177.169.226,-59,4,4.50E+14,1227091531,193863,377452478,1273504635,255510,0,0,0,65535,-590
20220831T043004,1350,19350,RXTX,3,20,45005,6454,4377-55(447),0,640,-59,-7,-33,-,0,0,SRV/REGISTERED,NORMAL_SERVICE,CONNECTED,CS_PS,28.2,-27,e038356d,27.177.169.226,-59,4,4.50E+14,1227091531,196196,377452486,1273504636,255520,0,0,0,65535,-582
20220831T043007,1350,19350,RXTX,3,20,45005,6454,4377-55(447),0,640,-59,-7,-33,-,0,0,SRV/REGISTERED,NORMAL_SERVICE,CONNECTED,CS_PS,27.6,-26,e038356d,27.177.169.226,-59,4,4.50E+14,1227091531,198193,377452490,1273504636,255480,0,0,0,65535,-623
20220831T043009,1350,19350,RXTX,3,20,45005,6454,4377-55(447),0,640,-59,-7,-33,-,0,0,SRV/REGISTERED,NORMAL_SERVICE,CONNECTED,CS_PS,29.6,-28,e038356d,27.177.169.226,-59,4,4.50E+14,1227091531,200523,377452497,1273504638,255480,0,0,0,65535,-625
20220831T043011,1350,19350,RXTX,3,20,45005,6454,4377-55(447),0,640,-59,-7,-33,-,0,0,SRV/REGISTERED,NORMAL_SERVICE,CONNECTED,CS_PS,29.6,-25,e038356d,27.177.169.226,-59,4,4.50E+14,1227091531,202523,377452505,1273504637,255510,0,0,0,65535,-596
20220831T043013,1350,19350,RXTX,3,20,45005,6454,4377-55(447),0,640,-59,-7,-33,-,0,0,SRV/REGISTERED,NORMAL_SERVICE,CONNECTED,CS_PS,30,-27,e038356d,27.177.169.226,-59,4,4.50E+14,1227091531,204520,377452515,1273504637,255560,0,0,0,65535,-543
20220831T043015,1350,19350,RXTX,3,20,45005,6454,4377-55(447),0,640,-59,-7,-33,-,0,0,SRV/REGISTERED,NORMAL_SERVICE,CONNECTED,CS_PS,29,-28,e038356d,27.177.169.226,-59,4,4.50E+14,1227091531,206851,377452525,1273504633,255550,0,0,0,65535,-551
20220831T043017,1350,19350,RXTX,3,20,45005,6454,4377-55(447),0,640,-59,-7,-33,-,0,0,SRV/REGISTERED,NORMAL_SERVICE,CONNECTED,CS_PS,29.4,-25,e038356d,27.177.169.226,-59,4,4.50E+14,1227091531,208848,377452535,1273504631,255500,0,0,0,65535,-602
20220831T043020,1350,19350,RXTX,3,20,45005,6454,4377-55(447),0,640,-59,-7,-33,-,0,0,SRV/REGISTERED,NORMAL_SERVICE,CONNECTED,CS_PS,29.4,-25,e038356d,27.177.169.226,-59,4,4.50E+14,1227091531,211181,377452546,1273504627,255510,0,0,0,65535,-591
20220831T043022,1350,19350,RXTX,3,20,45005,6454,4377-55(447),0,640,-59,-7,-33,-,0,0,SRV/REGISTERED,NORMAL_SERVICE,CONNECTED,CS_PS,26.4,-27,e038356d,27.177.169.226,-59,4,4.50E+14,1227091531,213178,377452554,1273504623,255480,0,0,0,65535,-627
20220831T043024,1350,19350,RXTX,3,20,45005,6454,4377-55(447),0,640,-59,-7,-33,-,0,0,SRV/REGISTERED,NORMAL_SERVICE,CONNECTED,CS_PS,26.2,-26,e038356d,27.177.169.226,-59,4,4.50E+14,1227091531,215508,377452564,1273504617,255490,0,0,0,65535,-615
20220831T043026,1350,19350,RXTX,3,20,45005,6454,4377-55(447),0,640,-59,-7,-33,-,0,0,SRV/REGISTERED,NORMAL_SERVICE,CONNECTED,CS_PS,26.2,-26,e038356d,27.177.169.226,-59,4,4.50E+14,1227091531,217506,377452568,1273504613,255470,0,0,0,65535,-633
20220831T043028,1350,19350,RXTX,3,20,45005,6454,4377-55(447),0,640,-59,-7,-33,-,0,0,SRV/REGISTERED,NORMAL_SERVICE,CONNECTED,CS_PS,24,-24,e038356d,27.177.169.226,-59,4,4.50E+14,1227091531,219506,377452569,1273504608,255440,0,0,0,65535,-664
20220831T043030,1350,19350,RXTX,3,20,45005,6454,4377-55(447),0,640,-59,-7,-33,-,0,0,SRV/REGISTERED,NORMAL_SERVICE,CONNECTED,CS_PS,29.6,-12,e038356d,27.177.169.226,-59,4,4.50E+14,1227091531,221835,377452571,1273504601,255450,0,0,0,65535,-655
20220831T043032,1350,19350,RXTX,3,20,45005,6454,4377-55(447),0,640,-59,-7,-33,-,0,0,SRV/REGISTERED,NORMAL_SERVICE,CONNECTED,CS_PS,29.6,-26,e038356d,27.177.169.226,-59,4,4.50E+14,1227091531,223833,377452571,1273504595,255460,0,0,0,65535,-649
20220831T043034,1350,19350,RXTX,3,20,45005,6454,4377-55(447),0,640,-59,-7,-33,-,0,0,SRV/REGISTERED,NORMAL_SERVICE,CONNECTED,CS_PS,29.6,-25,e038356d,27.177.169.226,-59,4,4.50E+14,1227091531,226166,377452568,1273504587,255470,0,0,0,65535,-635
20220831T043037,1350,19350,RXTX,3,20,45005,6454,4377-55(447),0,640,-59,-7,-33,-,0,0,SRV/REGISTERED,NORMAL_SERVICE,CONNECTED,CS_PS,29.8,-25,e038356d,27.177.169.226,-59,4,4.50E+14,1227091531,228163,377452566,1273504582,255450,0,0,0,65535,-654
20220831T043039,1350,19350,RXTX,3,20,45005,6454,4377-55(447),0,640,-59,-7,-33,-,0,0,SRV/REGISTERED,NORMAL_SERVICE,CONNECTED,CS_PS,22.6,-27,e038356d,27.177.169.226,-59,4,4.50E+14,1227091531,230160,377452564,1273504577,255450,0,0,0,65535,-650
20220831T043041,1350,19350,RXTX,3,20,45005,6454,4377-55(447),0,640,-59,-7,-33,-,0,0,SRV/REGISTERED,NORMAL_SERVICE,CONNECTED,CS_PS,22.6,-25,e038356d,27.177.169.226,-59,4,4.50E+14,1227091531,232491,377452560,1273504572,255470,0,0,0,65535,-637
20220831T043043,1350,19350,RXTX,3,20,45005,6454,4377-55(447),0,640,-59,-7,-33,-,0,0,SRV/REGISTERED,NORMAL_SERVICE,CONNECTED,CS_PS,27,-27,e038356d,27.177.169.226,-59,4,4.50E+14,1227091531,234491,377452553,1273504571,255500,0,0,0,65535,-606
20220831T043045,1350,19350,RXTX,3,20,45005,6454,4377-55(447),0,640,-59,-7,-33,-,0,0,SRV/REGISTERED,NORMAL_SERVICE,CONNECTED,CS_PS,28,-24,e038356d,27.177.169.226,-59,4,4.50E+14,1227091531,236820,377452546,1273504569,255490,0,0,0,65535,-617
20220831T043047,1350,19350,RXTX,3,20,45005,6454,4377-55(447),0,640,-59,-7,-33,-,0,0,SRV/REGISTERED,NORMAL_SERVICE,CONNECTED,CS_PS,30,-28,e038356d,27.177.169.226,-59,4,4.50E+14,1227091531,238818,377452539,1273504569,255480,0,0,0,65535,-620
20220831T043049,1350,19350,RXTX,3,20,45005,6454,4377-55(447),0,640,-59,-7,-33,-,0,0,SRV/REGISTERED,NORMAL_SERVICE,CONNECTED,CS_PS,30,-28,e038356d,27.177.169.226,-59,4,4.50E+14,1227091531,241151,377452532,1273504568,255440,0,0,0,65535,-661
20220831T043052,1350,19350,RXTX,3,20,45005,6454,4377-55(447),0,640,-59,-7,-33,-,0,0,SRV/REGISTERED,NORMAL_SERVICE,CONNECTED,CS_PS,30,-28,e038356d,27.177.169.226,-59,4,4.50E+14,1227091531,243148,377452529,1273504567,255430,0,0,0,65535,-677
20220831T043054,1350,19350,RXTX,3,20,45005,6454,4377-55(447),0,640,-59,-7,-33,-,0,0,SRV/REGISTERED,NORMAL_SERVICE,CONNECTED,CS_PS,27.6,-28,e038356d,27.177.169.226,-59,4,4.50E+14,1227091531,245478,377452526,1273504569,255480,0,0,0,65535,-624
20220831T043056,1350,19350,RXTX,3,20,45005,6454,4377-55(447),0,640,-59,-7,-33,-,0,0,SRV/REGISTERED,NORMAL_SERVICE,CONNECTED,CS_PS,27.6,-25,e038356d,27.177.169.226,-59,4,4.50E+14,1227091531,247476,377452525,1273504572,255490,0,0,0,65535,-614
20220831T043058,1350,19350,RXTX,3,20,45005,6454,4377-55(447),0,640,-59,-7,-33,-,0,0,SRV/REGISTERED,NORMAL_SERVICE,CONNECTED,CS_PS,27,-26,e038356d,27.177.169.226,-59,4,4.50E+14,1227091531,249476,377452523,1273504575,255450,0,0,0,65535,-655
20220831T043100,1350,19350,RXTX,3,20,45005,6454,4377-55(447),0,640,-59,-7,-33,-,0,0,SRV/REGISTERED,NORMAL_SERVICE,CONNECTED,CS_PS,27.8,-26,e038356d,27.177.169.226,-59,4,4.50E+14,1227091531,251805,377452520,1273504580,255420,0,0,0,65535,-686
20220831T043102,1350,19350,RXTX,3,20,45005,6454,4377-55(447),0,640,-59,-7,-33,-,0,0,SRV/REGISTERED,NORMAL_SERVICE,CONNECTED,CS_PS,27.4,-26,e038356d,27.177.169.226,-59,4,4.50E+14,1227091531,253803,377452520,1273504585,255410,0,0,0,65535,-698
20220831T043104,1350,19350,RXTX,3,20,45005,6454,4377-55(447),0,640,-59,-7,-33,-,0,0,SRV/REGISTERED,NORMAL_SERVICE,CONNECTED,CS_PS,27.4,-26,e038356d,27.177.169.226,-59,4,4.50E+14,1227091531,256135,377452522,1273504589,255420,0,0,0,65535,-689
20220831T043107,1350,19350,RXTX,3,20,45005,6454,4377-55(447),0,640,-59,-7,-33,-,0,0,SRV/REGISTERED,NORMAL_SERVICE,CONNECTED,CS_PS,29.8,-27,e038356d,27.177.169.226,-59,4,4.50E+14,1227091531,258133,377452521,1273504592,255390,0,0,0,65535,-710
20220831T043109,1350,19350,RXTX,3,20,45005,6454,4377-55(447),0,640,-59,-7,-33,-,0,0,SRV/REGISTERED,NORMAL_SERVICE,CONNECTED,CS_PS,25.2,-26,e038356d,27.177.169.226,-59,4,4.50E+14,1227091531,260131,377452522,1273504596,255410,0,0,0,65535,-691
20220831T043111,1350,19350,RXTX,3,20,45005,6454,4377-55(447),0,640,-59,-7,-33,-,0,0,SRV/REGISTERED,NORMAL_SERVICE,CONNECTED,CS_PS,25.2,-26,e038356d,27.177.169.226,-59,4,4.50E+14,1227091531,262462,377452520,1273504600,255440,0,0,0,65535,38
20220831T043113,1350,19350,RXTX,3,20,45005,6454,4377-55(447),0,640,-59,-7,-33,-,0,0,SRV/REGISTERED,NORMAL_SERVICE,CONNECTED,CS_PS,29.4,-27,e038356d,27.177.169.226,-59,4,4.50E+14,1227091531,264459,377452519,1273504604,255430,0,0,0,65535,29
20220831T043115,1350,19350,RXTX,3,20,45005,6454,4377-55(447),0,640,-59,-7,-33,-,0,0,SRV/REGISTERED,NORMAL_SERVICE,CONNECTED,CS_PS,29.4,-26,e038356d,27.177.169.226,-59,4,4.50E+14,1227091531,266792,377452518,1273504606,255430,0,0,0,65535,28
20220831T043117,1350,19350,RXTX,3,20,45005,6454,4377-55(447),0,640,-59,-7,-33,-,0,0,SRV/REGISTERED,NORMAL_SERVICE,CONNECTED,CS_PS,27.8,-24,e038356d,27.177.169.226,-59,4,4.50E+14,1227091531,268789,377452518,1273504608,255490,0,0,0,65535,89
20220831T043119,1350,19350,RXTX,3,20,45005,6454,4377-55(447),0,640,-59,-7,-33,-,0,0,SRV/REGISTERED,NORMAL_SERVICE,CONNECTED,CS_PS,27.8,-24,e038356d,27.177.169.226,-59,4,4.50E+14,1227091531,270787,377452521,1273504606,259690,0,0,0,65535,4283
20220831T043121,1350,19350,RXTX,3,20,45005,6454,4377-55(447),0,640,-59,-7,-33,-,0,0,SRV/REGISTERED,NORMAL_SERVICE,CONNECTED,CS_PS,24.6,-25,e038356d,27.177.169.226,-59,4,4.50E+14,1227091531,273119,377452514,1273504602,265530,0,0,0,65535,10127
20220831T043124,1350,19350,RXTX,3,20,45005,6454,4377-55(447),0,640,-67,-7,-39,-,0,0,SRV/REGISTERED,NORMAL_SERVICE,CONNECTED,CS_PS,21,-25,e038356d,27.177.169.226,-67,4,4.50E+14,1227091531,275117,377452513,1273504614,270520,0,0,0,65535,15115
20220831T043126,1350,19350,RXTX,3,20,45005,6454,4377-55(447),0,640,-67,-7,-39,-,0,0,SRV/REGISTERED,NORMAL_SERVICE,CONNECTED,CS_PS,21,-23,e038356d,27.177.169.226,-67,4,4.50E+14,1227091531,277446,377452518,1273504609,276370,0,0,0,65535,20969
20220831T043128,1350,19350,RXTX,3,20,45005,6454,4377-55(447),0,640,-67,-7,-39,-,0,0,SRV/REGISTERED,NORMAL_SERVICE,CONNECTED,CS_PS,22.8,-21,e038356d,27.177.169.226,-67,4,4.50E+14,1227091531,279444,377452516,1273504607,281360,0,0,0,65535,25959
20220831T043130,1350,19350,RXTX,3,20,45005,6454,4377-55(447),0,640,-67,-7,-39,-,0,0,SRV/REGISTERED,NORMAL_SERVICE,CONNECTED,CS_PS,22.2,-16,e038356d,27.177.169.226,-67,4,4.50E+14,1227091531,281777,377452520,1273504609,287190,0,0,0,65535,31785
20220831T043132,1350,19350,RXTX,3,20,45005,6454,4377-55(447),0,640,-67,-7,-39,-,0,0,SRV/REGISTERED,NORMAL_SERVICE,CONNECTED,CS_PS,24.6,-17,e038356d,27.177.169.226,-67,4,4.50E+14,1227091531,283774,377452517,1273504605,292210,0,0,0,65535,36805
20220831T043134,1350,19350,RXTX,3,20,45005,6454,4377-55(447),0,640,-67,-7,-39,-,0,0,SRV/REGISTERED,NORMAL_SERVICE,CONNECTED,CS_PS,24.6,-19,e038356d,27.177.169.226,-67,4,4.50E+14,1227091531,286104,377452518,1273504614,298020,0,0,0,65535,42616
20220831T043137,1350,19350,RXTX,3,20,45005,6454,4377-55(447),0,640,-67,-7,-39,-,0,0,SRV/REGISTERED,NORMAL_SERVICE,CONNECTED,CS_PS,25.6,-18,e038356d,27.177.169.226,-67,4,4.50E+14,1227091531,288102,377452518,1273504610,302990,0,0,0,65535,47588
20220831T043139,1350,19350,RXTX,3,20,45005,6454,4377-55(447),0,640,-67,-7,-39,-,0,0,SRV/REGISTERED,NORMAL_SERVICE,CONNECTED,CS_PS,22,-21,e038356d,27.177.169.226,-67,4,4.50E+14,1227091531,290437,377452510,1273504606,308860,0,0,0,65535,53452
20220831T043141,1350,19350,RXTX,3,20,45005,6454,4377-55(447),0,640,-67,-7,-39,-,0,0,SRV/REGISTERED,NORMAL_SERVICE,CONNECTED,CS_PS,22,-23,e038356d,27.177.169.226,-67,4,4.50E+14,1227091531,292431,377452515,1273504608,313880,0,0,0,65535,58479
20220831T043143,1350,19350,RXTX,3,20,45005,6454,4377-55(447),0,640,-67,-7,-39,-,0,0,SRV/REGISTERED,NORMAL_SERVICE,CONNECTED,CS_PS,24.6,-16,e038356d,27.177.169.226,-67,4,4.50E+14,1227091531,294429,377452516,1273504604,318190,0,0,0,65535,62782
20220831T043145,1350,19350,RXTX,3,20,45005,6454,4377-55(447),0,640,-67,-7,-39,-,0,0,SRV/REGISTERED,NORMAL_SERVICE,CONNECTED,CS_PS,26,-20,e038356d,27.177.169.226,-67,4,4.50E+14,1227091531,296768,377452518,1273504608,320470,0,0,0,65535,65069
20220831T043147,1350,19350,RXTX,3,20,45005,6454,4377-55(447),0,640,-67,-7,-39,-,0,0,SRV/REGISTERED,NORMAL_SERVICE,CONNECTED,CS_PS,25.4,-19,e038356d,27.177.169.226,-67,4,4.50E+14,1227091531,298759,377452516,1273504607,320400,0,0,0,65535,64996
20220831T043149,1350,19350,RXTX,3,20,45005,6454,4377-55(447),0,640,-67,-7,-39,-,0,0,SRV/REGISTERED,NORMAL_SERVICE,CONNECTED,CS_PS,25.4,-19,e038356d,27.177.169.226,-67,4,4.50E+14,1227091531,301089,377452518,1273504606,320450,0,0,0,65535,65043
20220831T043152,1350,19350,RXTX,3,20,45005,6454,4377-55(447),0,640,-67,-7,-39,-,0,0,SRV/REGISTERED,NORMAL_SERVICE,CONNECTED,CS_PS,25,-19,e038356d,27.177.169.226,-67,4,4.50E+14,1227091531,303087,377452518,1273504611,320380,0,0,0,65535,64974
20220831T043154,1350,19350,RXTX,3,20,45005,6454,4377-55(447),0,640,-67,-7,-39,-,0,0,SRV/REGISTERED,NORMAL_SERVICE,CONNECTED,CS_PS,25.2,-18,e038356d,27.177.169.226,-67,4,4.50E+14,1227091531,305419,377452519,1273504611,320390,0,0,0,65535,64980
20220831T043156,1350,19350,RXTX,3,20,45005,6454,4377-55(447),0,640,-67,-7,-39,-,0,0,SRV/REGISTERED,NORMAL_SERVICE,CONNECTED,CS_PS,25.2,-18,e038356d,27.177.169.226,-67,4,4.50E+14,1227091531,307417,377452517,1273504606,320270,0,0,0,65535,64860
20220831T043158,1350,19350,RXTX,3,20,45005,6454,4377-55(447),0,640,-67,-7,-39,-,0,0,SRV/REGISTERED,NORMAL_SERVICE,CONNECTED,CS_PS,25.2,-17,e038356d,27.177.169.226,-67,4,4.50E+14,1227091531,309749,377452511,1273504604,320490,0,0,0,65535,65080
20220831T043200,1350,19350,RXTX,3,20,45005,6454,4377-55(447),0,640,-67,-7,-39,-,0,0,SRV/REGISTERED,NORMAL_SERVICE,CONNECTED,CS_PS,26.4,-16,e038356d,27.177.169.226,-67,4,4.50E+14,1227091531,311746,377452525,1273504614,320430,0,0,0,65535,65028
20220831T043202,1350,19350,RXTX,3,20,45005,6454,4377-55(447),0,640,-67,-7,-39,-,0,0,SRV/REGISTERED,NORMAL_SERVICE,CONNECTED,CS_PS,26.6,-15,e038356d,27.177.169.226,-67,4,4.50E+14,1227091531,313744,377452518,1273504612,320340,0,0,0,65535,64939
20220831T043204,1350,19350,RXTX,3,20,45005,6454,4377-55(447),0,640,-67,-7,-39,-,0,0,SRV/REGISTERED,NORMAL_SERVICE,CONNECTED,CS_PS,26.6,-18,e038356d,27.177.169.226,-67,4,4.50E+14,1227091531,316074,377452515,1273504609,320340,0,0,0,65535,64939
20220831T043207,1350,19350,RXTX,3,20,45005,6454,4377-55(447),0,640,-67,-7,-39,-,0,0,SRV/REGISTERED,NORMAL_SERVICE,CONNECTED,CS_PS,25.2,-19,e038356d,27.177.169.226,-67,4,4.50E+14,1227091531,318074,377452514,1273504611,320380,0,0,0,65535,64975
20220831T043209,1350,19350,RXTX,3,20,45005,6454,4377-55(447),0,640,-67,-7,-39,-,0,0,SRV/REGISTERED,NORMAL_SERVICE,CONNECTED,CS_PS,17.4,-19,e038356d,27.177.169.226,-67,4,4.50E+14,1227091531,320404,377452518,1273504606,320440,0,0,0,65535,65033
20220831T043211,1350,19350,RXTX,3,20,45005,6454,4377-55(447),0,640,-67,-7,-39,-,0,0,SRV/REGISTERED,NORMAL_SERVICE,CONNECTED,CS_PS,17.4,-6,e038356d,27.177.169.226,-67,4,4.50E+14,1227091531,322402,377452517,1273504605,320410,0,0,0,65535,65006
20220831T043213,1350,19350,RXTX,3,20,45005,6454,4377-55(447),0,640,-67,-7,-39,-,0,0,SRV/REGISTERED,NORMAL_SERVICE,CONNECTED,CS_PS,26.6,-16,e038356d,27.177.169.226,-67,4,4.50E+14,1227091531,324399,377452515,1273504609,320420,0,0,0,65535,65016
20220831T043215,1350,19350,RXTX,3,20,45005,6454,4377-55(447),0,640,-67,-7,-39,-,0,0,SRV/REGISTERED,NORMAL_SERVICE,CONNECTED,CS_PS,26,-18,e038356d,27.177.169.226,-67,4,4.50E+14,1227091531,326731,377452519,1273504613,320400,0,0,0,65535,64991
20220831T043217,1350,19350,RXTX,3,20,45005,6454,4377-55(447),0,640,-67,-7,-39,-,0,0,SRV/REGISTERED,NORMAL_SERVICE,CONNECTED,CS_PS,25.6,-20,e038356d,27.177.169.226,-67,4,4.50E+14,1227091531,328729,377452518,1273504611,320350,0,0,0,65535,64945
20220831T043219,1350,19350,RXTX,3,20,45005,6454,4377-55(447),0,640,-67,-7,-39,-,0,0,SRV/REGISTERED,NORMAL_SERVICE,CONNECTED,CS_PS,25.6,-17,e038356d,27.177.169.226,-67,4,4.50E+14,1227091531,330969,377452522,1273504613,320330,0,0,0,65535,64928
20220831T043222,1350,19350,RXTX,3,20,45005,6454,4377-55(447),0,640,-67,-7,-39,-,0,0,SRV/REGISTERED,NORMAL_SERVICE,CONNECTED,CS_PS,26.2,-33,e038356d,27.177.169.226,-67,4,4.50E+14,1227091531,333292,377452698,1273504815,320380,0,0,0,65535,64971
20220831T043224,1350,19350,RXTX,3,20,45005,6454,4377-55(447),0,640,-67,-7,-39,-,0,0,SRV/REGISTERED,NORMAL_SERVICE,CONNECTED,CS_PS,24.8,-19,e038356d,27.177.169.226,-67,4,4.50E+14,1227091531,335292,377453117,1273505275,320520,0,0,0,65535,65112
20220831T043226,1350,19350,RXTX,3,20,45005,6454,4377-55(447),0,640,-67,-7,-39,-,0,0,SRV/REGISTERED,NORMAL_SERVICE,CONNECTED,CS_PS,24.8,-20,e038356d,27.177.169.226,-67,4,4.50E+14,1227091531,337289,377453820,1273506044,320500,0,0,0,65535,65092
20220831T043228,1350,19350,RXTX,3,20,45005,6454,4377-55(447),0,640,-67,-7,-39,-,0,0,SRV/REGISTERED,NORMAL_SERVICE,CONNECTED,CS_PS,24.8,-15,e038356d,27.177.169.226,-67,4,4.50E+14,1227091531,339619,377454980,1273507315,320480,0,0,0,65535,65076
20220831T043230,1350,19350,RXTX,3,20,45005,6454,4377-55(447),0,640,-67,-7,-39,-,0,0,SRV/REGISTERED,NORMAL_SERVICE,CONNECTED,CS_PS,26.6,-15,e038356d,27.177.169.226,-67,4,4.50E+14,1227091531,340287,377455378,1273507758,320480,0,0,0,65535,65075
20220831T043232,1350,19350,RXTX,3,20,45005,6454,4377-55(447),0,640,-67,-7,-39,-,0,0,SRV/REGISTERED,NORMAL_SERVICE,CONNECTED,CS_PS,22.4,-18,e038356d,27.177.169.226,-67,4,4.50E+14,1227091531,343122,377457185,1273509720,320330,0,0,0,65535,64927
20220831T043234,1350,19350,RXTX,3,20,45005,6454,4377-55(447),0,640,-67,-7,-39,-,0,0,SRV/REGISTERED,NORMAL_SERVICE,CONNECTED,CS_PS,22.4,-36,e038356d,27.177.169.226,-67,4,4.50E+14,1227091531,345784,377458925,1273511475,320200,0,0,0,65535,64791
20220831T043237,1350,19350,RXTX,3,20,45005,6454,4377-55(447),0,640,-67,-7,-39,-,0,0,SRV/REGISTERED,NORMAL_SERVICE,CONNECTED,CS_PS,26.8,-20,e038356d,27.177.169.226,-67,4,4.50E+14,1227091531,347117,377459816,1273512324,320280,0,0,0,65535,64872
20220831T043239,1350,19350,RXTX,3,20,45005,6454,4377-55(447),0,640,-67,-7,-39,-,0,0,SRV/REGISTERED,NORMAL_SERVICE,CONNECTED,CS_PS,25,-21,e038356d,27.177.169.226,-67,4,4.50E+14,1227091531,349781,377461639,1273513940,320460,0,0,0,65535,65051
20220831T043241,1350,19350,RXTX,3,20,45005,6454,4377-55(447),0,640,-67,-7,-39,-,0,0,SRV/REGISTERED,NORMAL_SERVICE,CONNECTED,CS_PS,25,-16,e038356d,27.177.169.226,-67,4,4.50E+14,1227091531,352487,377463587,1273515541,320560,0,0,0,65535,65158
20220831T043243,1350,19350,RXTX,3,20,45005,6454,4377-55(447),0,640,-67,-7,-39,-,0,0,SRV/REGISTERED,NORMAL_SERVICE,CONNECTED,CS_PS,22.6,-30,e038356d,27.177.169.226,-67,4,4.50E+14,1227091531,353819,377464595,1273516351,320470,0,0,0,65535,65063
20220831T043245,1350,19350,RXTX,3,20,45005,6454,4377-55(447),0,640,-67,-7,-39,-,0,0,SRV/REGISTERED,NORMAL_SERVICE,CONNECTED,CS_PS,25,-9,e038356d,27.177.169.226,-67,4,4.50E+14,1227091531,356484,377466610,1273517987,320400,0,0,0,65535,64990
20220831T043247,1350,19350,RXTX,3,20,45005,6454,4377-55(447),0,640,-73,-7,-46,-,0,0,SRV/REGISTERED,NORMAL_SERVICE,CONNECTED,CS_PS,22.2,-16,e038356d,27.177.169.226,-67,4,4.50E+14,1227091531,357814,377467624,1273518804,320420,0,0,0,65535,65016
20220831T043249,1350,19350,RXTX,3,20,45005,6454,4377-55(447),0,640,-73,-7,-46,-,0,0,SRV/REGISTERED,NORMAL_SERVICE,CONNECTED,CS_PS,22.2,-12,e038356d,27.177.169.226,-73,4,4.50E+14,1227091531,360479,377469639,1273520433,320420,0,0,0,65535,65015
20220831T043252,1350,19350,RXTX,3,20,45005,6454,4377-55(447),0,640,-73,-7,-46,-,0,0,SRV/REGISTERED,NORMAL_SERVICE,CONNECTED,CS_PS,22.2,-10,e038356d,27.177.169.226,-73,4,4.50E+14,1227091531,363142,377471650,1273522063,320340,0,0,0,65535,64931
20220831T043254,1350,19350,RXTX,3,20,45005,6454,4377-55(447),0,640,-80,-7,-53,-,0,0,SRV/REGISTERED,NORMAL_SERVICE,CONNECTED,CS_PS,22.4,-12,e038356d,27.177.169.226,-73,4,4.50E+14,1227091531,364474,377472607,1273522837,320400,0,0,0,65535,64993
20220831T043256,1350,19350,RXTX,3,20,45005,6454,4377-55(447),0,640,-80,-7,-53,-,0,0,SRV/REGISTERED,NORMAL_SERVICE,CONNECTED,CS_PS,22.4,-9,e038356d,27.177.169.226,-73,4,4.50E+14,1227091531,367139,377474135,1273524077,320310,0,0,0,65535,64903
20220831T043258,1350,19350,RXTX,3,20,45005,6454,4377-55(447),0,640,-80,-7,-53,-,0,0,SRV/REGISTERED,NORMAL_SERVICE,CONNECTED,CS_PS,15.4,-12,e038356d,27.177.169.226,-73,4,4.50E+14,1227091531,368471,377474691,1273524522,320250,0,0,0,65535,64846
20220831T043300,1350,19350,RXTX,3,20,45005,6454,4377-55(447),0,640,-80,-7,-53,-,0,0,SRV/REGISTERED,NORMAL_SERVICE,CONNECTED,CS_PS,16.4,-3,e038356d,27.177.169.226,-73,4,4.50E+14,1227091531,371134,377475427,1273525048,320370,0,0,0,65535,64965
20220831T043302,1350,19350,RXTX,3,20,45005,6454,4377-55(447),0,640,-80,-7,-53,-,0,0,SRV/REGISTERED,NORMAL_SERVICE,CONNECTED,CS_PS,10.8,-11,e038356d,27.177.169.226,-73,4,4.50E+14,1227091531,373874,377475879,1273524548,320310,0,0,0,65535,64909
20220831T043304,1350,19350,RXTX,3,20,45005,6454,4377-19(457),0,640,-80,-7,-53,-,0,0,SRV/REGISTERED,NORMAL_SERVICE,CONNECTED,CS_PS,10.8,-5,e038356d,27.177.169.226,-73,4,4.50E+14,1227091531,375871,377476258,1273523585,320380,0,0,0,65535,64970
20220831T043307,1350,19350,RXTX,3,20,45005,6454,4377-19(457),0,640,-80,-7,-53,-,0,0,SRV/REGISTERED,NORMAL_SERVICE,CONNECTED,CS_PS,6.2,1,e038356d,27.177.169.226,-73,4,4.50E+14,1227091531,378202,377476920,1273521940,320550,0,0,0,65535,65140
20220831T043309,1350,19350,RXTX,3,20,45005,6454,4377-19(457),0,640,-80,-7,-47,-,0,0,SRV/REGISTERED,NORMAL_SERVICE,CONNECTED,CS_PS,6.4,-4,e038356d,27.177.169.226,-78,4,4.50E+14,1227091531,380199,377477665,1273520112,320530,0,0,0,65535,65125
20220831T043311,1350,19350,RXTX,3,20,45005,6454,4377-19(457),0,640,-80,-7,-47,-,0,0,SRV/REGISTERED,NORMAL_SERVICE,CONNECTED,CS_PS,6.4,-3,e038356d,27.177.169.226,-80,4,4.50E+14,1227091531,382531,377478618,1273517763,320370,0,0,0,65535,64965
20220831T043313,1350,19350,RXTX,3,20,45005,6454,4377-19(457),0,640,-80,-7,-47,-,0,0,SRV/REGISTERED,NORMAL_SERVICE,CONNECTED,CS_PS,10.8,-1,e038356d,27.177.169.226,-80,4,4.50E+14,1227091531,384529,377479450,1273515737,320380,0,0,0,65535,64970
20220831T043315,1350,19350,RXTX,3,20,45005,6454,4377-19(457),0,640,-80,-7,-47,-,0,0,SRV/REGISTERED,NORMAL_SERVICE,CONNECTED,CS_PS,10.8,-11,e038356d,27.177.169.226,-80,4,4.50E+14,1227091531,386527,377480266,1273513725,320380,0,0,0,65535,64974
20220831T043317,1350,19350,RXTX,3,20,45005,6454,4377-19(457),0,640,-80,-7,-47,-,0,0,SRV/REGISTERED,NORMAL_SERVICE,CONNECTED,CS_PS,9.8,-5,e038356d,27.177.169.226,-80,4,4.50E+14,1227091531,388859,377481183,1273511433,320230,0,0,0,65535,64825
20220831T043319,1350,19350,RXTX,3,20,45005,6454,4377-19(457),0,640,-80,-7,-47,-,0,0,SRV/REGISTERED,NORMAL_SERVICE,CONNECTED,CS_PS,9.8,-3,e038356d,27.177.169.226,-80,4,4.50E+14,1227091531,390856,377481826,1273509870,320220,0,0,0,65535,64817
20220831T043322,1350,19350,RXTX,3,20,45005,6454,4377-19(457),0,640,-80,-7,-54,-,0,0,SRV/REGISTERED,NORMAL_SERVICE,CONNECTED,CS_PS,5.4,-3,e038356d,27.177.169.226,-80,4,4.50E+14,1227091531,393187,377482360,1273508565,320360,0,0,0,65535,64953
20220831T043324,1350,19350,RXTX,3,20,45005,6454,4377-19(457),0,640,-80,-7,-54,-,0,0,SRV/REGISTERED,NORMAL_SERVICE,CONNECTED,CS_PS,9.8,3,e038356d,27.177.169.226,-80,4,4.50E+14,1227091531,395184,377482610,1273507866,320430,0,0,0,65535,65027
20220831T043326,1350,19350,RXTX,3,20,45005,6454,4377-19(457),0,640,-80,-7,-54,-,0,0,SRV/REGISTERED,NORMAL_SERVICE,CONNECTED,CS_PS,9.8,0,e038356d,27.177.169.226,-80,4,4.50E+14,1227091531,397517,377482346,1273507384,320130,0,0,0,65535,64728
20220831T043328,1350,19350,RXTX,3,20,45005,6454,4377-19(457),0,640,-80,-7,-54,-,0,0,SRV/REGISTERED,NORMAL_SERVICE,CONNECTED,CS_PS,9,-8,e038356d,27.177.169.226,-80,4,4.50E+14,1227091531,399514,377481652,1273507052,320260,0,0,0,65535,64852
20220831T043330,1350,19350,RXTX,3,20,45005,6454,4377-19(457),0,640,-80,-12,-54,-,0,0,SRV/REGISTERED,NORMAL_SERVICE,CONNECTED,CS_PS,5.2,-8,e038356d,27.177.169.226,-80,4,4.50E+14,1227091531,401512,377480620,1273506557,320410,0,0,0,65535,65005
20220831T043332,1350,19350,RXTX,3,20,45005,6454,4377-19(457),0,640,-80,-12,-54,-,0,0,SRV/REGISTERED,NORMAL_SERVICE,CONNECTED,CS_PS,5.2,0,e038356d,27.177.169.226,-80,4,4.50E+14,1227091531,403842,377478999,1273505794,320470,0,0,0,65535,65065
20220831T043334,1350,19350,RXTX,3,20,45005,6454,4377-19(457),0,640,-80,-12,-54,-,0,0,SRV/REGISTERED,NORMAL_SERVICE,CONNECTED,CS_PS,5.2,-11,e038356d,27.177.169.226,-80,4,4.50E+14,1227091531,405842,377477332,1273504993,320320,0,0,0,65535,64910
20220831T043336,1350,19350,RXTX,3,20,45005,6454,4377-19(457),0,640,-80,-12,-54,-,0,0,SRV/REGISTERED,NORMAL_SERVICE,CONNECTED,CS_PS,11.8,-9,e038356d,27.177.169.226,-80,4,4.50E+14,1227091531,408171,377475371,1273504050,320290,0,0,0,65535,64887
20220831T043339,1350,19350,RXTX,3,20,45005,6454,4377-19(457),0,640,-80,-12,-54,-,0,0,SRV/REGISTERED,NORMAL_SERVICE,CONNECTED,CS_PS,11.8,-9,e038356d,27.177.169.226,-80,4,4.50E+14,1227091531,410169,377473682,1273503238,320390,0,0,0,65535,64987
20220831T043341,1350,19350,RXTX,3,20,45005,6454,4377-19(457),0,640,-80,-12,-54,-,0,0,SRV/REGISTERED,NORMAL_SERVICE,CONNECTED,CS_PS,11.8,-8,e038356d,27.177.169.226,-80,4,4.50E+14,1227091531,412169,377472009,1273502444,320410,0,0,0,65535,65003
20220831T043343,1350,19350,RXTX,3,20,45005,6454,4377-19(457),0,640,-80,-12,-54,-,0,0,SRV/REGISTERED,NORMAL_SERVICE,CONNECTED,CS_PS,11,-6,e038356d,27.177.169.226,-80,4,4.50E+14,1227091531,414499,377470056,1273501509,320430,0,0,0,65535,65023
20220831T043345,1350,19350,RXTX,3,20,45005,6454,4377-19(457),0,640,-86,-12,-54,-,0,0,SRV/REGISTERED,NORMAL_SERVICE,CONNECTED,CS_PS,5.8,-3,e038356d,27.177.169.226,-80,4,4.50E+14,1227091531,416497,377468403,1273500715,320390,0,0,0,65535,64984
20220831T043347,1350,19350,RXTX,3,20,45005,6454,4377-55(447),0,640,-86,-12,-54,-,0,0,SRV/REGISTERED,NORMAL_SERVICE,CONNECTED,CS_PS,6.8,5,e038356d,27.177.169.226,-80,4,4.50E+14,1227091531,418494,377467020,1273500055,320360,0,0,0,65535,64959
20220831T043349,1350,19350,RXTX,3,20,45005,6454,4377-55(447),0,640,-86,-12,-54,-,0,0,SRV/REGISTERED,NORMAL_SERVICE,CONNECTED,CS_PS,6.8,0,e038356d,27.177.169.226,-80,4,4.50E+14,1227091531,420827,377465829,1273499483,320560,0,0,0,65535,65150
20220831T043351,1350,19350,RXTX,3,20,45005,6454,4377-55(447),0,640,-74,-12,-47,-,0,0,SRV/REGISTERED,NORMAL_SERVICE,CONNECTED,CS_PS,20.4,-3,e038356d,27.177.169.226,-81,4,4.50E+14,1227091531,423156,377465078,1273499178,320420,0,0,0,65535,65014
20220831T043354,1350,19350,RXTX,3,20,45005,6454,4377-55(447),0,640,-74,-12,-47,-,0,0,SRV/REGISTERED,NORMAL_SERVICE,CONNECTED,CS_PS,21,-7,e038356d,27.177.169.226,-74,4,4.50E+14,1227091531,425154,377464665,1273499422,320470,0,0,0,65535,65062
20220831T043356,1350,19350,RXTX,3,20,45005,6454,4377-55(447),0,640,-74,-12,-47,-,0,0,SRV/REGISTERED,NORMAL_SERVICE,CONNECTED,CS_PS,21,-8,e038356d,27.177.169.226,-74,4,4.50E+14,1227091531,427487,377464244,1273500347,320620,0,0,0,65535,65218
20220831T043358,1350,19350,RXTX,3,20,45005,6454,4377-55(447),0,640,-74,-7,-47,-,0,0,SRV/REGISTERED,NORMAL_SERVICE,CONNECTED,CS_PS,17,6,e038356d,27.177.169.226,-74,4,4.50E+14,1227091531,429484,377463793,1273501383,320380,0,0,0,65535,64975
20220831T043400,1350,19350,RXTX,3,20,45005,6454,4377-55(447),0,640,-74,-7,-47,-,0,0,SRV/REGISTERED,NORMAL_SERVICE,CONNECTED,CS_PS,16.2,-9,e038356d,27.177.169.226,-74,4,4.50E+14,1227091531,431481,377463344,1273502401,320310,0,0,0,65535,64909
20220831T043402,1350,19350,RXTX,3,20,45005,6454,4377-55(447),0,640,-74,-7,-47,-,0,0,SRV/REGISTERED,NORMAL_SERVICE,CONNECTED,CS_PS,19.2,-15,e038356d,27.177.169.226,-74,4,4.50E+14,1227091531,433812,377462832,1273503557,320290,0,0,0,65535,64883
20220831T043404,1350,19350,RXTX,3,20,45005,6454,4377-55(447),0,640,-74,-7,-47,-,0,0,SRV/REGISTERED,NORMAL_SERVICE,CONNECTED,CS_PS,19.2,-15,e038356d,27.177.169.226,-74,4,4.50E+14,1227091531,435812,377462410,1273504538,320340,0,0,0,65535,64937
20220831T043406,1350,19350,RXTX,3,20,45005,6454,4377-55(447),0,640,-74,-7,-47,-,0,0,SRV/REGISTERED,NORMAL_SERVICE,CONNECTED,CS_PS,21.2,-12,e038356d,27.177.169.226,-74,4,4.50E+14,1227091531,438142,377461892,1273505686,320380,0,0,0,65535,64973
20220831T043409,1350,19350,RXTX,3,20,45005,6454,4377-55(447),0,640,-69,-7,-47,-,0,0,SRV/REGISTERED,NORMAL_SERVICE,CONNECTED,CS_PS,23.8,-14,e038356d,27.177.169.226,-74,4,4.50E+14,1227091531,440139,377461461,1273506690,320390,0,0,0,65535,64988
20220831T043411,1350,19350,RXTX,3,20,45005,6454,4377-55(447),0,640,-69,-7,-47,-,0,0,SRV/REGISTERED,NORMAL_SERVICE,CONNECTED,CS_PS,23.8,-19,e038356d,27.177.169.226,-74,4,4.50E+14,1227091531,441804,377461109,1273507511,320410,0,0,0,65535,65002
20220831T043413,1350,19350,RXTX,3,20,45005,6454,4377-55(447),0,640,-69,-7,-47,-,0,0,SRV/REGISTERED,NORMAL_SERVICE,CONNECTED,CS_PS,18.8,-16,e038356d,27.177.169.226,-72,4,4.50E+14,1227091531,444587,377460485,1273508898,320280,0,0,0,65535,64873
20220831T043415,1350,19350,RXTX,3,20,45005,6454,4377-55(447),0,640,-69,-7,-41,-,0,0,SRV/REGISTERED,NORMAL_SERVICE,CONNECTED,CS_PS,22,-13,e038356d,27.177.169.226,-69,4,4.50E+14,1227091531,445919,377460203,1273509560,320350,0,0,0,65535,64940
20220831T043417,1350,19350,RXTX,3,20,45005,6454,4377-55(447),0,640,-69,-7,-41,-,0,0,SRV/REGISTERED,NORMAL_SERVICE,CONNECTED,CS_PS,24,-17,e038356d,27.177.169.226,-69,4,4.50E+14,1227091531,448584,377459720,1273510636,320270,0,0,0,65535,64860
20220831T043419,1350,19350,RXTX,3,20,45005,6454,4377-55(447),0,640,-69,-7,-41,-,0,0,SRV/REGISTERED,NORMAL_SERVICE,CONNECTED,CS_PS,24,-16,e038356d,27.177.169.226,-69,4,4.50E+14,1227091531,449914,377459600,1273510929,320360,0,0,0,65535,64954
20220831T043422,1350,19350,RXTX,3,20,45005,6454,4377-55(447),0,640,-69,-7,-35,-,0,0,SRV/REGISTERED,NORMAL_SERVICE,CONNECTED,CS_PS,16.4,-20,e038356d,27.177.169.226,-69,4,4.50E+14,1227091531,452579,377459548,1273511058,320260,0,0,0,65535,64857
20220831T043424,1350,19350,RXTX,3,20,45005,6454,4377-55(447),0,640,-69,-7,-35,-,0,0,SRV/REGISTERED,NORMAL_SERVICE,CONNECTED,CS_PS,13,-19,e038356d,27.177.169.226,-69,4,4.50E+14,1227091531,455242,377459552,1273511052,320190,0,0,0,65535,64783
20220831T043426,1350,19350,RXTX,3,20,45005,6454,4377-55(447),0,640,-69,-7,-35,-,0,0,SRV/REGISTERED,NORMAL_SERVICE,CONNECTED,CS_PS,13,-20,e038356d,27.177.169.226,-69,4,4.50E+14,1227091531,456574,377459554,1273511053,320150,0,0,0,65535,64749
20220831T043428,1350,19350,RXTX,3,20,45005,6454,4377-55(447),0,640,-69,-7,-41,-,0,0,SRV/REGISTERED,NORMAL_SERVICE,CONNECTED,CS_PS,23.8,-19,e038356d,27.177.169.226,-69,4,4.50E+14,1227091531,459239,377459551,1273511048,320250,0,0,0,65535,64845
20220831T043430,1350,19350,RXTX,3,20,45005,6454,4377-55(447),0,640,-69,-7,-41,-,0,0,SRV/REGISTERED,NORMAL_SERVICE,CONNECTED,CS_PS,22.8,-14,e038356d,27.177.169.226,-69,4,4.50E+14,1227091531,460571,377459497,1273510995,320270,0,0,0,65535,64868
20220831T043432,1350,19350,RXTX,3,20,45005,6454,4377-55(447),0,640,-69,-7,-41,-,0,0,SRV/REGISTERED,NORMAL_SERVICE,CONNECTED,CS_PS,21,-18,e038356d,27.177.169.226,-69,4,4.50E+14,1227091531,463671,377458893,1273510459,320190,0,0,0,65535,64782
20220831T043434,1350,19350,RXTX,3,20,45005,6454,4377-55(447),0,640,-69,-7,-41,-,0,0,SRV/REGISTERED,NORMAL_SERVICE,CONNECTED,CS_PS,21,2,e038356d,27.177.169.226,-69,4,4.50E+14,1227091531,466002,377458080,1273509710,320270,0,0,0,65535,64865
20220831T043436,1350,19350,RXTX,3,20,45005,6454,4377-55(447),0,640,-75,-7,-49,-,0,0,SRV/REGISTERED,NORMAL_SERVICE,CONNECTED,CS_PS,16,-18,e038356d,27.177.169.226,-75,4,4.50E+14,1227091531,467999,377457344,1273509016,320230,0,0,0,65535,64828
20220831T043439,1350,19350,RXTX,3,20,45005,6454,4377-55(447),0,640,-75,-7,-49,-,0,0,SRV/REGISTERED,NORMAL_SERVICE,CONNECTED,CS_PS,17.2,-15,e038356d,27.177.169.226,-75,4,4.50E+14,1227091531,470331,377456487,1273508246,320230,0,0,0,65535,64822
20220831T043441,1350,19350,RXTX,3,20,45005,6454,4377-55(447),0,640,-75,-7,-49,-,0,0,SRV/REGISTERED,NORMAL_SERVICE,CONNECTED,CS_PS,17.2,-12,e038356d,27.177.169.226,-75,4,4.50E+14,1227091531,472329,377455764,1273507575,320170,0,0,0,65535,64768
20220831T043443,1350,19350,RXTX,3,20,45005,6454,4377-55(447),0,640,-75,-7,-49,-,0,0,SRV/REGISTERED,NORMAL_SERVICE,CONNECTED,CS_PS,19.6,-10,e038356d,27.177.169.226,-75,4,4.50E+14,1227091531,474659,377454919,1273506799,320120,0,0,0,65535,64719
20220831T043445,1350,19350,RXTX,3,20,45005,6454,4377-55(447),0,640,-75,-7,-43,-,0,0,SRV/REGISTERED,NORMAL_SERVICE,CONNECTED,CS_PS,10.4,-10,e038356d,27.177.169.226,-75,4,4.50E+14,1227091531,476659,377454194,1273506133,320180,0,0,0,65535,64777
20220831T043447,1350,19350,RXTX,3,20,45005,6454,4377-55(447),0,640,-69,-7,-43,-,0,0,SRV/REGISTERED,NORMAL_SERVICE,CONNECTED,CS_PS,21.6,-16,e038356d,27.177.169.226,-75,4,4.50E+14,1227091531,478656,377453467,1273505469,320120,0,0,0,65535,64712
20220831T043449,1350,19350,RXTX,3,20,45005,6454,4377-55(447),0,640,-69,-7,-43,-,0,0,SRV/REGISTERED,NORMAL_SERVICE,CONNECTED,CS_PS,21.6,-11,e038356d,27.177.169.226,-75,4,4.50E+14,1227091531,480987,377452797,1273504855,320130,0,0,0,65535,64724
20220831T043451,1350,19350,RXTX,3,20,45005,6454,4377-55(447),0,640,-69,-7,-43,-,0,0,SRV/REGISTERED,NORMAL_SERVICE,CONNECTED,CS_PS,23.4,-10,e038356d,27.177.169.226,-75,4,4.50E+14,1227091531,482984,377452538,1273504615,320130,0,0,0,65535,64723
20220831T043454,1350,19350,RXTX,3,20,45005,6454,4377-55(447),0,640,-69,-7,-43,-,0,0,SRV/REGISTERED,NORMAL_SERVICE,CONNECTED,CS_PS,19,-12,e038356d,27.177.169.226,-75,4,4.50E+14,1227091531,485317,377452516,1273504588,320280,0,0,0,65535,64878
20220831T043456,1350,19350,RXTX,3,20,45005,6454,4377-55(447),0,640,-69,-7,-43,-,0,0,SRV/REGISTERED,NORMAL_SERVICE,CONNECTED,CS_PS,19,-15,e038356d,27.177.169.226,-72,4,4.50E+14,1227091531,487314,377452517,1273504600,320310,0,0,0,65535,64904
20220831T043458,1350,19350,RXTX,3,20,45005,6454,4377-55(447),0,640,-69,-7,-43,-,0,0,SRV/REGISTERED,NORMAL_SERVICE,CONNECTED,CS_PS,21.8,-17,e038356d,27.177.169.226,-69,4,4.50E+14,1227091531,489644,377452519,1273504601,320270,0,0,0,65535,64866
20220831T043500,1350,19350,RXTX,3,20,45005,6454,4377-55(447),0,640,-69,-7,-43,-,0,0,SRV/REGISTERED,NORMAL_SERVICE,CONNECTED,CS_PS,20.4,0,e038356d,27.177.169.226,-69,4,4.50E+14,1227091531,491642,377452528,1273504586,318820,0,0,0,65535,63415
20220831T043502,1350,19350,RXTX,3,20,45005,6454,4377-55(447),0,640,-69,-7,-43,-,0,0,SRV/REGISTERED,NORMAL_SERVICE,CONNECTED,CS_PS,26.2,-18,e038356d,27.177.169.226,-69,4,4.50E+14,1227091531,493642,377452525,1273504593,315890,0,0,0,65535,60487
20220831T043504,1350,19350,RXTX,3,20,45005,6454,4377-55(447),0,640,-69,-7,-43,-,0,0,SRV/REGISTERED,NORMAL_SERVICE,CONNECTED,CS_PS,26.2,-23,e038356d,27.177.169.226,-69,4,4.50E+14,1227091531,495971,377452508,1273504607,312350,0,0,0,65535,56940
20220831T043506,1350,19350,RXTX,3,20,45005,6454,4377-55(447),0,640,-69,-7,-43,-,0,0,SRV/REGISTERED,NORMAL_SERVICE,CONNECTED,CS_PS,24.8,-19,e038356d,27.177.169.226,-69,4,4.50E+14,1227091531,497969,377452531,1273504600,309340,0,0,0,65535,53939
20220831T043509,1350,19350,RXTX,3,20,45005,6454,4377-55(447),0,640,-69,-7,-43,-,0,0,SRV/REGISTERED,NORMAL_SERVICE,CONNECTED,CS_PS,16,-18,e038356d,27.177.169.226,-69,4,4.50E+14,1227091531,500302,377452527,1273504600,305790,0,0,0,65535,50381
20220831T043511,1350,19350,RXTX,3,20,45005,6454,4377-55(447),0,640,-69,-7,-43,-,0,0,SRV/REGISTERED,NORMAL_SERVICE,CONNECTED,CS_PS,16,-22,e038356d,27.177.169.226,-69,4,4.50E+14,1227091531,502299,377452524,1273504586,302800,0,0,0,65535,47397
20220831T043513,1350,19350,RXTX,3,20,45005,6454,4377-55(447),0,640,-69,-7,-43,-,0,0,SRV/REGISTERED,NORMAL_SERVICE,CONNECTED,CS_PS,23.2,-21,e038356d,27.177.169.226,-69,4,4.50E+14,1227091531,504629,377452518,1273504597,299310,0,0,0,65535,43909
20220831T043515,1350,19350,RXTX,3,20,45005,6454,4377-55(447),0,640,-69,-7,-43,-,0,0,SRV/REGISTERED,NORMAL_SERVICE,CONNECTED,CS_PS,23.2,-17,e038356d,27.177.169.226,-69,4,4.50E+14,1227091531,506627,377452515,1273504602,296280,0,0,0,65535,40870
20220831T043517,1350,19350,RXTX,3,20,45005,6454,4377-55(447),0,640,-69,-7,-43,-,0,0,SRV/REGISTERED,NORMAL_SERVICE,CONNECTED,CS_PS,26.8,-19,e038356d,27.177.169.226,-69,4,4.50E+14,1227091531,508627,377452523,1273504598,293190,0,0,0,65535,37786
20220831T043519,1350,19350,RXTX,3,20,45005,6454,4377-55(447),0,640,-69,-7,-43,-,0,0,SRV/REGISTERED,NORMAL_SERVICE,CONNECTED,CS_PS,26.8,-22,e038356d,27.177.169.226,-69,4,4.50E+14,1227091531,510956,377452520,1273504591,289860,0,0,0,65535,34455
20220831T043521,1350,19350,RXTX,3,20,45005,6454,4377-55(447),0,640,-64,-7,-43,-,0,0,SRV/REGISTERED,NORMAL_SERVICE,CONNECTED,CS_PS,26.6,-25,e038356d,27.177.169.226,-69,4,4.50E+14,1227091531,512954,377452516,1273504599,286940,0,0,0,65535,31531
20220831T043524,1350,19350,RXTX,3,20,45005,6454,4377-55(447),0,640,-64,-7,-43,-,0,0,SRV/REGISTERED,NORMAL_SERVICE,CONNECTED,CS_PS,22,-19,e038356d,27.177.169.226,-69,4,4.50E+14,1227091531,515287,377452524,1273504598,283400,0,0,0,65535,27996
20220831T043526,1350,19350,RXTX,3,20,45005,6454,4377-55(447),0,640,-64,-7,-43,-,0,0,SRV/REGISTERED,NORMAL_SERVICE,CONNECTED,CS_PS,22,-21,e038356d,27.177.169.226,-69,4,4.50E+14,1227091531,517284,377452529,1273504604,280360,0,0,0,65535,24955
20220831T043528,1350,19350,RXTX,3,20,45005,6454,4377-55(447),0,640,-64,-7,-43,-,0,0,SRV/REGISTERED,NORMAL_SERVICE,CONNECTED,CS_PS,20.6,-18,e038356d,27.177.169.226,-69,4,4.50E+14,1227091531,519281,377452521,1273504601,277320,0,0,0,65535,21917
20220831T043530,1350,19350,RXTX,3,20,45005,6454,4377-55(447),0,640,-70,-7,-43,-,0,0,SRV/REGISTERED,NORMAL_SERVICE,CONNECTED,CS_PS,18.8,-17,e038356d,27.177.169.226,-69,4,4.50E+14,1227091531,521612,377452527,1273504597,273750,0,0,0,65535,18346
20220831T043532,1350,19350,RXTX,3,20,45005,6454,4377-55(447),0,640,-70,-7,-43,-,0,0,SRV/REGISTERED,NORMAL_SERVICE,CONNECTED,CS_PS,18.6,-19,e038356d,27.177.169.226,-69,4,4.50E+14,1227091531,523612,377452516,1273504593,270720,0,0,0,65535,15318
20220831T043534,1350,19350,RXTX,3,20,45005,6454,4377-55(447),0,640,-70,-7,-43,-,0,0,SRV/REGISTERED,NORMAL_SERVICE,CONNECTED,CS_PS,18.6,-20,e038356d,27.177.169.226,-69,4,4.50E+14,1227091531,525942,377452523,1273504596,267380,0,0,0,65535,11972
20220831T043536,1350,19350,RXTX,3,20,45005,6454,4377-55(447),0,640,-70,-7,-43,-,0,0,SRV/REGISTERED,NORMAL_SERVICE,CONNECTED,CS_PS,24.2,-25,e038356d,27.177.169.226,-69,4,4.50E+14,1227091531,527939,377452523,1273504603,265630,0,0,0,65535,10224
20220831T043539,1350,19350,RXTX,3,20,45005,6454,4377-55(447),0,640,-64,-7,-43,-,0,0,SRV/REGISTERED,NORMAL_SERVICE,CONNECTED,CS_PS,22.6,-22,e038356d,27.177.169.226,-66,4,4.50E+14,1227091531,530271,377452520,1273504595,264790,0,0,0,65535,9384
20220831T043541,1350,19350,RXTX,3,20,45005,6454,4377-55(447),0,640,-64,-7,-43,-,0,0,SRV/REGISTERED,NORMAL_SERVICE,CONNECTED,CS_PS,22.6,-28,e038356d,27.177.169.226,-64,4,4.50E+14,1227091531,532268,377452519,1273504595,264080,0,0,0,65535,8677
20220831T043543,1350,19350,RXTX,3,20,45005,6454,4377-55(447),0,640,-64,-7,-37,-,0,0,SRV/REGISTERED,NORMAL_SERVICE,CONNECTED,CS_PS,24.4,-27,e038356d,27.177.169.226,-64,4,4.50E+14,1227091531,534268,377452521,1273504592,263380,0,0,0,65535,7976
20220831T043545,1350,19350,RXTX,3,20,45005,6454,4377-55(447),0,640,-64,-7,-37,-,0,0,SRV/REGISTERED,NORMAL_SERVICE,CONNECTED,CS_PS,25.4,-23,e038356d,27.177.169.226,-64,4,4.50E+14,1227091531,536599,377452515,1273504620,262520,0,0,0,65535,7115
20220831T043547,1350,19350,RXTX,3,20,45005,6454,4377-55(447),0,640,-64,-7,-37,-,0,0,SRV/REGISTERED,NORMAL_SERVICE,CONNECTED,CS_PS,24.8,-13,e038356d,27.177.169.226,-64,4,4.50E+14,1227091531,538596,377452504,1273504647,261860,0,0,0,65535,6458
20220831T043549,1350,19350,RXTX,3,20,45005,6454,4377-55(447),0,640,-64,-7,-37,-,0,0,SRV/REGISTERED,NORMAL_SERVICE,CONNECTED,CS_PS,24.8,-23,e038356d,27.177.169.226,-64,4,4.50E+14,1227091531,540927,377452507,1273504639,261030,0,0,0,65535,5620
20220831T043551,1350,19350,RXTX,3,20,45005,6454,4377-55(447),0,640,-64,-7,-37,-,0,0,SRV/REGISTERED,NORMAL_SERVICE,CONNECTED,CS_PS,20.6,-25,e038356d,27.177.169.226,-64,4,4.50E+14,1227091531,542924,377452511,1273504651,260320,0,0,0,65535,4913
20220831T043554,1350,19350,RXTX,3,20,45005,6454,4377-55(447),0,640,-64,-7,-37,-,0,0,SRV/REGISTERED,NORMAL_SERVICE,CONNECTED,CS_PS,23.6,-24,e038356d,27.177.169.226,-64,4,4.50E+14,1227091531,545256,377452506,1273504646,259510,0,0,0,65535,4100
20220831T043556,1350,19350,RXTX,3,20,45005,6454,4377-55(447),0,640,-64,-7,-37,-,0,0,SRV/REGISTERED,NORMAL_SERVICE,CONNECTED,CS_PS,23.6,-26,e038356d,27.177.169.226,-64,4,4.50E+14,1227091531,547254,377452507,1273504644,258770,0,0,0,65535,3369
20220831T043558,1350,19350,RXTX,3,20,45005,6454,4377-55(447),0,640,-64,-7,-37,-,0,0,SRV/REGISTERED,NORMAL_SERVICE,CONNECTED,CS_PS,25.2,-26,e038356d,27.177.169.226,-64,4,4.50E+14,1227091531,549584,377452506,1273504652,257990,0,0,0,65535,2583
20220831T043600,1350,19350,RXTX,3,20,45005,6454,4377-55(447),0,640,-64,-7,-37,-,0,0,SRV/REGISTERED,NORMAL_SERVICE,CONNECTED,CS_PS,23.2,-27,e038356d,27.177.169.226,-64,4,4.50E+14,1227091531,551584,377452507,1273504648,257270,0,0,0,65535,1863
20220831T043602,1350,19350,RXTX,3,20,45005,6454,4377-55(447),0,640,-64,-7,-37,-,0,0,SRV/REGISTERED,NORMAL_SERVICE,CONNECTED,CS_PS,28.4,-24,e038356d,27.177.169.226,-64,4,4.50E+14,1227091531,553581,377452505,1273504643,256600,0,0,0,65535,1197
20220831T043604,1350,19350,RXTX,3,20,45005,6454,4377-55(447),0,640,-64,-7,-37,-,0,0,SRV/REGISTERED,NORMAL_SERVICE,CONNECTED,CS_PS,28.4,-28,e038356d,27.177.169.226,-64,4,4.50E+14,1227091531,555912,377452509,1273504656,255850,0,0,0,65535,443
20220831T043606,1350,19350,RXTX,3,20,45005,6454,4377-55(447),0,640,-64,-7,-37,-,0,0,SRV/REGISTERED,NORMAL_SERVICE,CONNECTED,CS_PS,25.4,-25,e038356d,27.177.169.226,-64,4,4.50E+14,1227091531,557909,377452510,1273504656,255760,0,0,0,65535,359
20220831T043609,1350,19350,RXTX,3,20,45005,6454,4377-55(447),0,640,-59,-7,-37,-,0,0,SRV/REGISTERED,NORMAL_SERVICE,CONNECTED,CS_PS,28.6,-25,e038356d,27.177.169.226,-64,4,4.50E+14,1227091531,560242,377452509,1273504656,255440,0,0,0,65535,38
20220831T043611,1350,19350,RXTX,3,20,45005,6454,4377-55(447),0,640,-59,-7,-37,-,0,0,SRV/REGISTERED,NORMAL_SERVICE,CONNECTED,CS_PS,28.6,-27,e038356d,27.177.169.226,-64,4,4.50E+14,1227091531,562239,377452510,1273504656,255350,0,0,0,65535,-51
20220831T043613,1350,19350,RXTX,3,20,45005,6454,4377-55(447),0,640,-59,-7,-37,-,0,0,SRV/REGISTERED,NORMAL_SERVICE,CONNECTED,CS_PS,27.6,-25,e038356d,27.177.169.226,-64,4,4.50E+14,1227091531,564237,377452509,1273504658,255310,0,0,0,65535,-90
20220831T043615,1350,19350,RXTX,3,20,45005,6454,4377-55(447),0,640,-59,-7,-37,-,0,0,SRV/REGISTERED,NORMAL_SERVICE,CONNECTED,CS_PS,28.4,-13,e038356d,27.177.169.226,-64,4,4.50E+14,1227091531,566567,377452511,1273504660,255280,0,0,0,65535,-124
20220831T043617,1350,19350,RXTX,3,20,45005,6454,4377-55(447),0,640,-59,-7,-37,-,0,0,SRV/REGISTERED,NORMAL_SERVICE,CONNECTED,CS_PS,30,-26,e038356d,27.177.169.226,-64,4,4.50E+14,1227091531,568567,377452514,1273504663,255260,0,0,0,65535,-146
