ct,frequency,band,bandwidth,cell_id,rsrp,rssi,rsrq,bler,tx_power,plmn,tac,drx,emm_state,rrc_state,net_op_mode,emm_cause,esm_cause,time_boot_ms,lat,lon,alt,relative_alt
20220901T085320,2600,5,10,138(0x8a),-103,73,-11,0,20,450f06,18640,1280,REGISTERED,CONNECTED,CS_PS_MODE1,18,0,182346,379869726,1287493958,5890,1161
20220901T085327,2600,5,10,138(0x8a),-103,79,-11,0,21,450f06,18640,1280,REGISTERED,CONNECTED,CS_PS_MODE1,18,0,190006,379869719,1287493956,5930,1206
20220901T085331,2600,5,10,138(0x8a),-103,79,-11,0,22,450f06,18640,1280,REGISTERED,CONNECTED,CS_PS_MODE1,18,0,194000,379869712,1287493957,5930,1202
20220901T085338,0,0,0,,0,0,0,0,0,,0,0,,,,0,,200328,379869681,1287493952,6020,1299
20220901T085342,0,0,0,,0,0,0,0,0,,0,0,,,,0,,204323,379869664,1287493949,6010,1284
20220901T085348,0,0,0,,0,0,0,0,0,,0,0,,,,0,,210319,379869649,1287493940,5950,1221
20220901T085353,2600,5,10,138(0x8a),-103,73,-11,0,22,450f06,18640,1280,REGISTERED,CONNECTED,CS_PS_MODE1,18,0,215979,379869649,1287493940,5890,44
20220901T085359,0,0,0,,0,0,0,0,0,,0,0,,,,0,,221307,379869653,1287493940,7310,1466
20220901T085403,2600,5,10,247(0xf7),-103,73,-11,0,7,450f06,18640,1280,REGISTERED,CONNECTED,CS_PS_MODE1,18,0,225302,379869651,1287493941,17180,11338
20220901T085407,2600,5,10,138(0x8a),-85,53,-11,0,1,450f06,18640,1280,REGISTERED,CONNECTED,CS_PS_MODE1,18,0,229299,379869649,1287493946,27160,21312
20220901T085412,0,0,0,,0,0,0,0,0,,0,0,,,,0,,234294,379869646,1287493944,39670,33827
20220901T085416,0,0,0,,0,0,0,0,0,,0,0,,,,0,,238290,379869652,1287493949,49670,43822
20220901T085420,2600,5,10,138(0x8a),-80,53,-11,0,0,450f06,18640,1280,REGISTERED,CONNECTED,CS_PS_MODE1,18,0,242290,379869649,1287493949,59630,53783
20220901T085424,0,0,0,,0,0,0,0,0,,0,0,,,,0,,246614,379869649,1287493941,70500,64651
20220901T085428,0,0,0,,0,0,0,0,0,,0,0,,,,0,,250612,379869646,1287493952,80500,74658
20220901T085435,0,0,0,,0,0,0,0,0,,0,0,,,,0,,257272,379869647,1287493936,97130,91283
20220901T085439,2600,5,10,138(0x8a),-80,53,-11,0,0,450f06,18640,1280,REGISTERED,CONNECTED,CS_PS_MODE1,18,0,261267,379869647,1287493947,107130,101281
20220901T085443,2600,5,10,138(0x8a),-80,53,-11,0,-11,450f06,18640,1280,REGISTERED,CONNECTED,CS_PS_MODE1,18,0,265262,379869648,1287493946,117140,111290
20220901T085451,0,0,0,,0,0,0,0,0,,0,0,,,,0,,273922,379869647,1287493947,138770,132920
20220901T085455,2600,5,10,138(0x8a),-86,61,-11,0,-9,450f06,18640,1280,REGISTERED,CONNECTED,CS_PS_MODE1,18,0,277252,379869645,1287493948,147090,141244
20220901T085502,0,0,0,,0,0,0,0,0,,0,0,,,,0,,284244,379869645,1287493946,164560,158719
20220901T085506,0,0,0,,0,0,0,0,0,,0,0,,,,0,,288239,379869644,1287493946,174530,168688
20220901T085510,0,0,0,,0,0,0,0,0,,0,0,,,,0,,292237,379869647,1287493944,184560,178716
20220901T085514,0,0,0,,0,0,0,0,0,,0,0,,,,0,,296232,379869644,1287493945,194530,188687
20220901T085519,0,0,0,,0,0,0,0,0,,0,0,,,,0,,301227,379869651,1287493948,204960,199118
20220901T085525,0,0,0,,0,0,0,0,0,,0,0,,,,0,,307222,379869647,1287493943,205940,200096
20220901T085531,2600,5,10,138(0x8a),-89,61,-16,0,0,450f06,18640,1280,REGISTERED,CONNECTED,CS_PS_MODE1,18,0,313547,379869647,1287493941,198150,192300
20220901T085538,0,0,0,,0,0,0,0,0,,0,0,,,,0,,320542,379869645,1287493948,187530,181681
20220901T085542,0,0,0,,0,0,0,0,0,,0,0,,,,0,,324537,379869644,1287493948,181520,175671
20220901T085548,0,0,0,,0,0,0,0,0,,0,0,,,,0,,330532,379869645,1287493944,172540,166695
20220901T085553,0,0,0,,0,0,0,0,0,,0,0,,,,0,,335527,379869645,1287493948,165110,159260
20220901T085557,0,0,0,,0,0,0,0,0,,0,0,,,,0,,339522,379869647,1287493937,159080,153231
20220901T085601,0,0,0,,0,0,0,0,0,,0,0,,,,0,,343517,379869646,1287493941,153110,147262
20220901T085606,0,0,0,,0,0,0,0,0,,0,0,,,,0,,348847,379869644,1287493948,145050,139208
20220901T085610,0,0,0,,0,0,0,0,0,,0,0,,,,0,,352842,379869652,1287493940,139270,133424
20220901T085615,0,0,0,,0,0,0,0,0,,0,0,,,,0,,357504,379869651,1287493955,132160,126314
20220901T085619,0,0,0,,0,0,0,0,0,,0,0,,,,0,,361499,379869643,1287493944,126090,120244
20220901T085623,2600,5,10,138(0x8a),-85,53,-16,0,0,450f06,18640,1280,REGISTERED,CONNECTED,CS_PS_MODE1,18,0,365497,379869644,1287493946,120100,114259
20220901T085628,2600,5,10,138(0x8a),-85,53,-16,0,0,450f06,18640,1280,REGISTERED,CONNECTED,CS_PS_MODE1,18,0,371157,379869644,1287493944,111600,105757
20220901T085632,0,0,0,,0,0,0,0,0,,0,0,,,,0,,375152,379869640,1287493942,105540,99693
20220901T085636,0,0,0,,0,0,0,0,0,,0,0,,,,0,,379149,379869649,1287493946,99650,93809
20220901T085643,0,0,0,,0,0,0,0,0,,0,0,,,,0,,385482,379869651,1287493950,90120,84278
20220901T085647,2600,5,10,138(0x8a),-80,47,-11,0,0,450f06,18640,1280,REGISTERED,CONNECTED,CS_PS_MODE1,18,0,389472,379869648,1287493947,84200,78358
20220901T085653,0,0,0,,0,0,0,0,0,,0,0,,,,0,,395799,379869642,1287493948,74560,68712
20220901T085657,2600,5,10,138(0x8a),-80,47,-11,0,0,450f06,18640,1280,REGISTERED,CONNECTED,CS_PS_MODE1,18,0,400127,379869641,1287493936,68040,62193
20220901T085704,0,0,0,,0,0,0,0,0,,0,0,,,,0,,406454,379869646,1287493936,58800,52950
20220901T085708,0,0,0,,0,0,0,0,0,,0,0,,,,0,,410452,379869639,1287493957,52650,46809
20220901T085715,0,0,0,,0,0,0,0,0,,0,0,,,,0,,418109,379869643,1287493941,41190,35349
20220901T085721,2600,5,10,138(0x8a),-80,58,-11,0,-9,450f06,18640,1280,REGISTERED,CONNECTED,CS_PS_MODE1,18,0,424104,379869641,1287493946,32060,26216
20220901T085725,0,0,0,,0,0,0,0,0,,0,0,,,,0,,428099,379869641,1287493940,26120,20278
20220901T085727,2600,5,10,138(0x8a),-80,58,-11,0,0,450f06,18640,1280,REGISTERED,CONNECTED,CS_PS_MODE1,18,0,430097,379869646,1287493936,23130,17283
20220901T085729,2600,5,10,138(0x8a),-80,58,-11,0,0,450f06,18640,1280,REGISTERED,CONNECTED,CS_PS_MODE1,18,0,432097,379869647,1287493949,20250,14406
20220901T085731,2600,5,10,138(0x8a),-80,58,-11,0,0,450f06,18640,1280,REGISTERED,CONNECTED,CS_PS_MODE1,18,0,433427,379869647,1287493947,18200,12356
20220901T085733,2600,5,10,138(0x8a),-86,58,-11,0,-6,450f06,18640,1280,REGISTERED,CONNECTED,CS_PS_MODE1,18,0,435427,379869645,1287493933,16170,10325
20220901T085735,2600,5,10,138(0x8a),-92,58,-11,0,3,450f06,18640,1280,REGISTERED,CONNECTED,CS_PS_MODE1,18,0,437424,379869648,1287493957,15390,9548
20220901T085737,2600,5,10,247(0xf7),-92,58,-11,0,21,450f06,18640,1280,REGISTERED,CONNECTED,CS_PS_MODE1,18,0,439422,379869648,1287493955,14650,8801
20220901T085739,2600,5,10,247(0xf7),-98,72,-11,0,0,450f06,18640,1280,REGISTERED,CONNECTED,CS_PS_MODE1,18,0,441419,379869648,1287493935,13980,8132
20220901T085742,2600,5,10,247(0xf7),-98,72,-11,0,3,450f06,18640,1280,REGISTERED,CONNECTED,CS_PS_MODE1,18,0,444417,379869639,1287493950,12980,7134
20220901T085744,2600,5,10,247(0xf7),-98,72,-11,0,23,450f06,18640,1280,REGISTERED,CONNECTED,CS_PS_MODE1,18,0,446414,379869643,1287493936,12280,6438
20220901T085746,2600,5,10,247(0xf7),-98,72,-11,0,10,450f06,18640,1280,REGISTERED,CONNECTED,CS_PS_MODE1,18,0,448412,379869648,1287493944,11560,5718
20220901T085748,2600,5,10,138(0x8a),-98,72,-11,0,20,450f06,18640,1280,REGISTERED,CONNECTED,CS_PS_MODE1,18,0,450412,379869648,1287493947,10880,5031
20220901T085750,2600,5,10,138(0x8a),-98,72,-11,0,0,450f06,18640,1280,REGISTERED,CONNECTED,CS_PS_MODE1,18,0,452409,379869645,1287493948,10160,4312
20220901T085752,2600,5,10,247(0xf7),-98,72,-11,0,0,450f06,18640,1280,REGISTERED,CONNECTED,CS_PS_MODE1,18,0,454407,379869643,1287493945,9440,3598
20220901T085754,2600,5,10,247(0xf7),-98,72,-11,0,16,450f06,18640,1280,REGISTERED,CONNECTED,CS_PS_MODE1,18,0,456404,379869646,1287493949,8730,2883
20220901T085756,2600,5,10,247(0xf7),-98,72,-11,0,17,450f06,18640,1280,REGISTERED,CONNECTED,CS_PS_MODE1,18,0,458402,379869646,1287493947,7990,2144
20220901T085759,2600,5,10,247(0xf7),-98,72,-11,0,22,450f06,18640,65535,REGISTERED,CONNECTED,CS_PS_MODE1,18,0,461399,379869642,1287493947,6990,1141
20220901T085801,2600,5,10,247(0xf7),-98,72,-11,0,23,450f06,18640,1280,REGISTERED,CONNECTED,CS_PS_MODE1,18,0,463397,379869650,1287493946,6290,445
20220901T085803,2600,5,10,138(0x8a),-98,72,-11,0,23,450f06,18640,1280,REGISTERED,CONNECTED,CS_PS_MODE1,18,0,465397,379869648,1287493938,6020,171
20220901T085805,2600,5,10,138(0x8a),-103,72,-11,0,22,450f06,18640,1280,REGISTERED,CONNECTED,CS_PS_MODE1,18,0,467394,379869641,1287493936,5840,-3
20220901T085807,2600,5,10,138(0x8a),-103,72,-11,0,23,450f06,18640,1280,REGISTERED,CONNECTED,CS_PS_MODE1,18,0,469392,379869634,1287493938,5760,-81
20220901T085813,2600,5,10,138(0x8a),-103,72,-11,0,11,450f06,18640,1280,REGISTERED,CONNECTED,CS_PS_MODE1,18,0,475387,379869611,1287493947,5700,-141
20220901T085816,2600,5,10,138(0x8a),-103,72,-11,0,9,450f06,18640,1280,REGISTERED,CONNECTED,CS_PS_MODE1,18,0,479049,379869601,1287493953,5760,-86
20220901T085818,2600,5,10,138(0x8a),-103,79,-11,0,11,450f06,18640,1280,REGISTERED,CONNECTED,CS_PS_MODE1,18,0,481047,379869603,1287493958,5770,-79
20220901T085820,2600,5,10,138(0x8a),-103,79,-11,0,23,450f06,18640,1280,REGISTERED,CONNECTED,CS_PS_MODE1,18,0,483044,379869606,1287493965,5800,-47
20220901T085822,2600,5,10,138(0x8a),-103,79,-11,0,11,450f06,18640,1280,REGISTERED,CONNECTED,CS_PS_MODE1,18,0,485042,379869609,1287493974,5820,-22
20220901T085824,2600,5,10,138(0x8a),-103,72,-11,0,10,450f06,18640,1280,REGISTERED,CONNECTED,CS_PS_MODE1,18,0,487042,379869613,1287493980,5830,-19
20220901T085826,2600,5,10,138(0x8a),-103,72,-11,0,23,450f06,18640,1280,REGISTERED,CONNECTED,CS_PS_MODE1,18,0,489039,379869614,1287493984,5820,-22
20220901T085828,2600,5,10,138(0x8a),-103,72,-11,0,22,450f06,18640,1280,REGISTERED,CONNECTED,CS_PS_MODE1,18,0,491037,379869619,1287493991,5780,-63
20220901T085830,2600,5,10,138(0x8a),-103,72,-11,0,22,450f06,18640,1280,REGISTERED,CONNECTED,CS_PS_MODE1,18,0,493034,379869623,1287493994,5790,-50
20220901T085833,2600,5,10,138(0x8a),-103,72,-11,0,0,450f06,18640,1280,REGISTERED,CONNECTED,CS_PS_MODE1,18,0,495367,379869624,1287493995,5810,-36
20220901T085835,2600,5,10,138(0x8a),-103,72,-11,0,0,450f06,18640,1280,REGISTERED,CONNECTED,CS_PS_MODE1,18,0,497364,379869622,1287493995,5840,-4
20220901T085837,2600,5,10,138(0x8a),-103,72,-11,0,23,450f06,18640,1280,REGISTERED,CONNECTED,CS_PS_MODE1,18,0,499362,379869619,1287493993,5830,-15
20220901T085839,2600,5,10,138(0x8a),-103,78,-11,0,10,450f06,18640,1280,REGISTERED,CONNECTED,CS_PS_MODE1,18,0,501359,379869617,1287493991,5870,21
20220901T085841,2600,5,10,138(0x8a),-103,72,-11,0,22,450f06,18640,1280,REGISTERED,CONNECTED,CS_PS_MODE1,18,0,503357,379869612,1287493989,5920,72
20220901T085843,2600,5,10,138(0x8a),-103,72,-11,0,12,450f06,18640,1280,REGISTERED,CONNECTED,CS_PS_MODE1,18,0,505689,379869605,1287493985,5880,39
20220901T085845,2600,5,10,138(0x8a),-103,72,-11,0,23,450f06,18640,1280,REGISTERED,CONNECTED,CS_PS_MODE1,18,0,507354,379869601,1287493982,5900,54
20220901T085847,2600,5,10,138(0x8a),-103,78,-11,0,23,450f06,18640,1280,REGISTERED,CONNECTED,CS_PS_MODE1,18,0,509351,379869595,1287493974,5820,-23
20220901T085850,2600,5,10,138(0x8a),-103,78,-11,0,13,450f06,18640,1280,REGISTERED,CONNECTED,CS_PS_MODE1,18,0,512349,379869593,1287493970,5760,-84
20220901T085852,2600,5,10,138(0x8a),-103,78,-11,0,13,450f06,18640,1280,REGISTERED,CONNECTED,CS_PS_MODE1,18,0,514347,379869591,1287493967,5720,-121
20220901T085854,2600,5,10,138(0x8a),-103,78,-11,0,23,450f06,18640,1280,REGISTERED,CONNECTED,CS_PS_MODE1,18,0,516344,379869591,1287493963,5700,-144
20220901T085856,2600,5,10,138(0x8a),-103,78,-11,0,11,450f06,18640,1280,REGISTERED,CONNECTED,CS_PS_MODE1,18,0,518342,379869597,1287493960,5710,14
20220901T085858,2600,5,10,138(0x8a),-103,78,-11,0,0,450f06,18640,1280,REGISTERED,CONNECTED,CS_PS_MODE1,18,0,520342,379869605,1287493960,5700,4
20220901T085900,2600,5,10,138(0x8a),-103,72,-11,0,8,450f06,18640,1280,REGISTERED,CONNECTED,CS_PS_MODE1,18,0,522339,379869614,1287493958,5720,27
20220901T085902,2600,5,10,138(0x8a),-103,72,-11,0,7,450f06,18640,1280,REGISTERED,CONNECTED,CS_PS_MODE1,18,0,524337,379869626,1287493952,5870,178
20220901T085905,2600,5,10,138(0x8a),-103,78,-11,0,6,450f06,18640,1280,REGISTERED,CONNECTED,CS_PS_MODE1,18,0,527999,379869621,1287493954,14310,8612
20220901T085907,2600,5,10,247(0xf7),-103,78,-11,0,9,450f06,18640,1280,REGISTERED,CONNECTED,CS_PS_MODE1,18,0,529997,379869622,1287493952,19330,13631
20220901T085909,2600,5,10,138(0x8a),-98,68,-11,0,-7,450f06,18640,1280,REGISTERED,CONNECTED,CS_PS_MODE1,18,0,531997,379869623,1287493951,24330,18630
20220901T085911,2600,5,10,138(0x8a),-89,62,-11,0,4,450f06,18640,1280,REGISTERED,CONNECTED,CS_PS_MODE1,18,0,533330,379869623,1287493955,27660,21963
20220901T085913,2600,5,10,138(0x8a),-89,62,-11,0,0,450f06,18640,1280,REGISTERED,CONNECTED,CS_PS_MODE1,18,0,535327,379869618,1287493957,32630,26932
20220901T085915,2600,5,10,138(0x8a),-81,52,-11,0,-9,450f06,18640,1280,REGISTERED,CONNECTED,CS_PS_MODE1,18,0,537324,379869627,1287493961,37600,31903
20220901T085917,2600,5,10,138(0x8a),-81,52,-11,0,-10,450f06,18640,1280,REGISTERED,CONNECTED,CS_PS_MODE1,18,0,539322,379869623,1287493960,42600,36908
20220901T085919,2600,5,10,138(0x8a),-81,52,-11,0,0,450f06,18640,1280,REGISTERED,CONNECTED,CS_PS_MODE1,18,0,541319,379869617,1287493953,47600,41906
20220901T085922,2600,5,10,138(0x8a),-81,52,-11,0,0,450f06,18640,1280,REGISTERED,CONNECTED,CS_PS_MODE1,18,0,544317,379869622,1287493954,55150,49451
20220901T085924,2600,5,10,138(0x8a),-81,52,-11,0,-10,450f06,18640,1280,REGISTERED,CONNECTED,CS_PS_MODE1,18,0,546314,379869627,1287493958,60110,54415
20220901T085926,2600,5,10,138(0x8a),-81,52,-11,0,0,450f06,18640,1280,REGISTERED,CONNECTED,CS_PS_MODE1,18,0,548312,379869621,1287493958,65130,59437
20220901T085928,2600,5,10,138(0x8a),-81,52,-11,0,0,450f06,18640,1280,REGISTERED,CONNECTED,CS_PS_MODE1,18,0,550312,379869623,1287493959,70090,64399
20220901T085930,2600,5,10,138(0x8a),-81,52,-11,0,0,450f06,18640,1280,REGISTERED,CONNECTED,CS_PS_MODE1,18,0,552309,379869621,1287493965,75070,69371
20220901T085932,2600,5,10,138(0x8a),-81,52,-11,0,-2,450f06,18640,1280,REGISTERED,CONNECTED,CS_PS_MODE1,18,0,554307,379869619,1287493954,80060,74368
20220901T085934,2600,5,10,138(0x8a),-81,52,-11,0,-12,450f06,18640,1280,REGISTERED,CONNECTED,CS_PS_MODE1,18,0,556304,379869627,1287493946,85100,79406
20220901T085936,2600,5,10,138(0x8a),-81,52,-11,0,-5,450f06,18640,1280,REGISTERED,CONNECTED,CS_PS_MODE1,18,0,558304,379869620,1287493959,90120,84425
20220901T085939,2600,5,10,138(0x8a),-81,52,-11,0,-14,450f06,18640,1280,REGISTERED,CONNECTED,CS_PS_MODE1,18,0,561299,379869621,1287493955,97540,91840
20220901T085941,2600,5,10,138(0x8a),-81,52,-11,0,-16,450f06,18640,1280,REGISTERED,CONNECTED,CS_PS_MODE1,18,0,563297,379869621,1287493954,102620,96922
20220901T085943,2600,5,10,138(0x8a),-81,52,-11,0,-12,450f06,18640,1280,REGISTERED,CONNECTED,CS_PS_MODE1,18,0,565297,379869624,1287493961,107560,101860
20220901T085945,2600,5,10,138(0x8a),-81,52,-11,0,-13,450f06,18640,1280,REGISTERED,CONNECTED,CS_PS_MODE1,18,0,567294,379869622,1287493960,112520,106822
20220901T085947,2600,5,10,138(0x8a),-81,52,-11,0,-3,450f06,18640,1280,REGISTERED,CONNECTED,CS_PS_MODE1,18,0,569292,379869622,1287493958,117500,111806
20220901T085949,2600,5,10,138(0x8a),-81,52,-11,0,0,450f06,18640,1280,REGISTERED,CONNECTED,CS_PS_MODE1,18,0,571289,379869621,1287493962,122510,116815
20220901T085951,2600,5,10,138(0x8a),-81,52,-11,0,2,450f06,18640,1280,REGISTERED,CONNECTED,CS_PS_MODE1,18,0,573287,379869621,1287493958,127520,121821
20220901T085954,2600,5,10,138(0x8a),-87,58,-11,0,-6,450f06,18640,1280,REGISTERED,CONNECTED,CS_PS_MODE1,18,0,576617,379869624,1287493958,135860,130163
20220901T085956,2600,5,10,138(0x8a),-87,52,-11,0,-6,450f06,18640,1280,REGISTERED,CONNECTED,CS_PS_MODE1,18,0,578617,379869621,1287493956,140850,135154
20220901T085958,2600,5,10,138(0x8a),-87,52,-11,0,-5,450f06,18640,1280,REGISTERED,CONNECTED,CS_PS_MODE1,18,0,580614,379869621,1287493960,145840,140142
20220901T090000,2600,5,10,203(0xcb),-87,58,-11,0,12,450f06,18640,1280,REGISTERED,CONNECTED,CS_PS_MODE1,18,0,582611,379869622,1287493960,150850,145151
20220901T090002,2600,5,10,203(0xcb),-92,58,-16,0,0,450f06,18640,1280,REGISTERED,CONNECTED,CS_PS_MODE1,18,0,584942,379869620,1287493962,156640,150946
20220901T090004,2600,5,10,138(0x8a),-92,58,-16,0,11,450f06,18640,1280,REGISTERED,CONNECTED,CS_PS_MODE1,18,0,586607,379869621,1287493959,160800,155106
20220901T090006,2600,5,10,138(0x8a),-92,58,-16,0,19,450f06,18640,1280,REGISTERED,CONNECTED,CS_PS_MODE1,18,0,588607,379869623,1287493959,165790,160099
20220901T090008,2600,5,10,203(0xcb),-92,58,-16,0,23,450f06,18640,1280,REGISTERED,CONNECTED,CS_PS_MODE1,18,0,590604,379869620,1287493958,170830,165134
20220901T090011,2600,5,10,138(0x8a),-92,58,-16,0,9,450f06,18640,1280,REGISTERED,CONNECTED,CS_PS_MODE1,18,0,593267,379869624,1287493960,177470,171770
20220901T090013,2600,5,10,138(0x8a),-92,58,-16,0,-8,450f06,18640,1280,REGISTERED,CONNECTED,CS_PS_MODE1,18,0,595267,379869623,1287493960,182470,176776
20220901T090015,2600,5,10,138(0x8a),-92,58,-16,0,12,450f06,18640,1280,REGISTERED,CONNECTED,CS_PS_MODE1,18,0,597264,379869623,1287493959,187480,181782
20220901T090017,2600,5,10,138(0x8a),-92,58,-16,0,-3,450f06,18640,1280,REGISTERED,CONNECTED,CS_PS_MODE1,18,0,599262,379869622,1287493958,192460,186768
20220901T090019,2600,5,10,138(0x8a),-92,58,-16,0,-5,450f06,18640,1280,REGISTERED,CONNECTED,CS_PS_MODE1,18,0,601259,379869621,1287493958,197460,191762
20220901T090021,2600,5,10,138(0x8a),-92,58,-16,0,0,450f06,18640,1280,REGISTERED,CONNECTED,CS_PS_MODE1,18,0,603257,379869623,1287493958,202170,196475
20220901T090023,2600,5,10,138(0x8a),-92,58,-16,0,9,450f06,18640,1280,REGISTERED,CONNECTED,CS_PS_MODE1,18,0,605257,379869623,1287493958,205080,199388
20220901T090025,2600,5,10,138(0x8a),-92,58,-16,0,12,450f06,18640,1280,REGISTERED,CONNECTED,CS_PS_MODE1,18,0,607254,379869623,1287493959,205730,200034
20220901T090028,2600,5,10,138(0x8a),-92,58,-16,0,12,450f06,18640,1280,REGISTERED,CONNECTED,CS_PS_MODE1,18,0,610917,379869622,1287493957,205780,200084
20220901T090030,2600,5,10,138(0x8a),-92,58,-16,0,11,450f06,18640,1280,REGISTERED,CONNECTED,CS_PS_MODE1,18,0,612914,379869625,1287493955,205730,200037
20220901T090032,2600,5,10,138(0x8a),-92,58,-16,0,0,450f06,18640,1280,REGISTERED,CONNECTED,CS_PS_MODE1,18,0,614912,379869623,1287493957,205690,199996
20220901T090034,2600,5,10,138(0x8a),-92,58,-16,0,0,450f06,18640,1280,REGISTERED,CONNECTED,CS_PS_MODE1,18,0,616912,379869620,1287493957,205700,200008
20220901T090036,2600,5,10,138(0x8a),-92,58,-16,0,8,450f06,18640,1280,REGISTERED,CONNECTED,CS_PS_MODE1,18,0,618909,379869621,1287493958,205710,200016
20220901T090038,2600,5,10,138(0x8a),-92,58,-16,0,0,450f06,18640,1280,REGISTERED,CONNECTED,CS_PS_MODE1,18,0,620242,379869623,1287493958,205720,200025
20220901T090040,2600,5,10,138(0x8a),-92,58,-16,0,-1,450f06,18640,1280,REGISTERED,CONNECTED,CS_PS_MODE1,18,0,622239,379869623,1287493958,205720,200029
20220901T090043,2600,5,10,138(0x8a),-92,58,-16,0,1,450f06,18640,1280,REGISTERED,CONNECTED,CS_PS_MODE1,18,0,625237,379869623,1287493959,205720,200027
20220901T090045,2600,5,10,138(0x8a),-92,58,-16,0,-5,450f06,18640,1280,REGISTERED,CONNECTED,CS_PS_MODE1,18,0,627999,379869624,1287493957,205730,200031
20220901T090047,2600,5,10,138(0x8a),-92,58,-16,0,-2,450f06,18640,1280,REGISTERED,CONNECTED,CS_PS_MODE1,18,0,629339,379869629,1287493971,205740,200043
20220901T090049,2600,5,10,138(0x8a),-92,58,-16,0,0,450f06,18640,1280,REGISTERED,CONNECTED,CS_PS_MODE1,18,0,631337,379869762,1287494218,205780,200089
20220901T090051,2600,5,10,138(0x8a),-92,58,-16,0,0,450f06,18640,1280,REGISTERED,CONNECTED,CS_PS_MODE1,18,0,633337,379870101,1287494817,205850,200151
20220901T090053,2600,5,10,138(0x8a),-92,58,-16,0,10,450f06,18640,1280,REGISTERED,CONNECTED,CS_PS_MODE1,18,0,635667,379870732,1287495986,205910,200211
20220901T090055,2600,5,10,138(0x8a),-87,58,-16,0,17,450f06,18640,1280,REGISTERED,CONNECTED,CS_PS_MODE1,18,0,637332,379871248,1287496922,205840,200143
20220901T090057,2600,5,10,138(0x8a),-87,58,-16,0,0,450f06,18640,1280,REGISTERED,CONNECTED,CS_PS_MODE1,18,0,639330,379871866,1287498055,205770,200072
20220901T090100,2600,5,10,138(0x8a),-93,58,-16,0,10,450f06,18640,1280,REGISTERED,CONNECTED,CS_PS_MODE1,18,0,642327,379872792,1287499737,205750,200053
20220901T090102,2600,5,10,203(0xcb),-93,58,-16,0,21,450f06,18640,1280,REGISTERED,CONNECTED,CS_PS_MODE1,18,0,644324,379873406,1287500856,205750,200054
20220901T090104,2600,5,10,138(0x8a),-93,58,-16,0,15,450f06,18640,1280,REGISTERED,CONNECTED,CS_PS_MODE1,18,0,646322,379874020,1287501975,205760,200062
20220901T090106,2600,5,10,203(0xcb),-93,58,-16,0,0,450f06,18640,1280,REGISTERED,CONNECTED,CS_PS_MODE1,18,0,648322,379874639,1287503094,205780,200087
20220901T090108,2600,5,10,182(0xb6),-93,58,-16,0,11,450f06,18640,1280,REGISTERED,CONNECTED,CS_PS_MODE1,18,0,650319,379875254,1287504213,205760,200065
20220901T090110,2600,5,10,203(0xcb),-93,58,-16,0,17,450f06,18640,1280,REGISTERED,CONNECTED,CS_PS_MODE1,18,0,652317,379875870,1287505339,205760,200068
20220901T090112,2600,5,10,203(0xcb),-93,58,-16,0,16,450f06,18640,1280,REGISTERED,CONNECTED,CS_PS_MODE1,18,0,654314,379876485,1287506459,205770,200077
20220901T090114,2600,5,10,203(0xcb),-93,58,-16,0,21,450f06,18640,1280,REGISTERED,CONNECTED,CS_PS_MODE1,18,0,656312,379877101,1287507580,205770,200074
20220901T090117,2600,5,10,203(0xcb),-93,58,-16,0,18,450f06,18640,1280,REGISTERED,CONNECTED,CS_PS_MODE1,18,0,659977,379877847,1287509047,205710,200013
20220901T090119,2600,5,10,203(0xcb),-93,58,-16,0,5,450f06,18640,1280,REGISTERED,CONNECTED,CS_PS_MODE1,18,0,661307,379877799,1287509397,205720,200021
20220901T090121,2600,5,10,203(0xcb),-93,58,-16,0,0,450f06,18640,1280,REGISTERED,CONNECTED,CS_PS_MODE1,18,0,663307,379877346,1287509894,205900,200206
20220901T090123,2600,5,10,203(0xcb),-93,58,-16,0,9,450f06,18640,1280,REGISTERED,CONNECTED,CS_PS_MODE1,18,0,665304,379876561,1287510576,205840,200141
20220901T090125,2600,5,10,203(0xcb),-93,58,-16,0,0,450f06,18640,1280,REGISTERED,CONNECTED,CS_PS_MODE1,18,0,667302,379875679,1287511375,205810,200118
20220901T090127,2600,5,10,203(0xcb),-93,58,-16,0,18,450f06,18640,1280,REGISTERED,CONNECTED,CS_PS_MODE1,18,0,669299,379874799,1287512189,205760,200061
20220901T090129,2600,5,10,427(0x1ab),-93,58,-16,0,0,450f06,18640,1280,REGISTERED,CONNECTED,CS_PS_MODE1,18,0,671297,379873929,1287512986,205740,200044
20220901T090131,2600,5,10,247(0xf7),-93,58,-16,0,22,450f06,18640,1280,REGISTERED,CONNECTED,CS_PS_MODE1,18,0,673297,379873053,1287513782,205740,200040
20220901T090134,2600,5,10,203(0xcb),-93,58,-16,0,19,450f06,18640,1280,REGISTERED,CONNECTED,CS_PS_MODE1,18,0,676292,379871747,1287514979,205690,199999
20220901T090136,2600,5,10,182(0xb6),-93,58,-16,0,23,450f06,18640,1280,REGISTERED,CONNECTED,CS_PS_MODE1,18,0,678292,379870875,1287515784,205720,200020
20220901T090138,2600,5,10,182(0xb6),-93,58,-16,0,4,450f06,18640,1280,REGISTERED,CONNECTED,CS_PS_MODE1,18,0,680289,379870001,1287516583,205720,200027
20220901T090140,2600,5,10,182(0xb6),-93,58,-16,0,14,450f06,18640,1280,REGISTERED,CONNECTED,CS_PS_MODE1,18,0,682287,379869127,1287517382,205740,200044
20220901T090142,2600,5,10,182(0xb6),-93,58,-16,0,20,450f06,18640,1280,REGISTERED,CONNECTED,CS_PS_MODE1,18,0,684287,379868250,1287518177,205740,200047
20220901T090144,2600,5,10,182(0xb6),-93,58,-16,0,9,450f06,18640,1280,REGISTERED,CONNECTED,CS_PS_MODE1,18,0,686287,379867378,1287518984,205700,200002
20220901T090146,2600,5,10,182(0xb6),-93,58,-16,0,12,450f06,18640,1280,REGISTERED,CONNECTED,CS_PS_MODE1,18,0,688614,379866361,1287519913,205720,200027
20220901T090149,2600,5,10,182(0xb6),-93,58,-16,0,9,450f06,18640,1280,REGISTERED,CONNECTED,CS_PS_MODE1,18,0,691277,379865197,1287520977,205750,200059
20220901T090151,2600,5,10,203(0xcb),-93,58,-16,0,9,450f06,18640,1280,REGISTERED,CONNECTED,CS_PS_MODE1,18,0,693277,379864321,1287521774,205770,200076
20220901T090153,2600,5,10,427(0x1ab),-93,58,-16,0,22,450f06,18640,1280,REGISTERED,CONNECTED,CS_PS_MODE1,18,0,695274,379863450,1287522572,205740,200040
20220901T090155,2600,5,10,182(0xb6),-93,58,-16,0,6,450f06,18640,1280,REGISTERED,CONNECTED,CS_PS_MODE1,18,0,697272,379862577,1287523369,205770,200077
20220901T090157,2600,5,10,182(0xb6),-93,58,-16,0,4,450f06,18640,1280,REGISTERED,CONNECTED,CS_PS_MODE1,18,0,699269,379861701,1287524169,205770,200078
20220901T090159,2600,5,10,138(0x8a),-93,58,-16,0,-3,450f06,18640,1280,REGISTERED,CONNECTED,CS_PS_MODE1,18,0,701267,379860831,1287524974,205770,200073
20220901T090201,2600,5,10,138(0x8a),-93,58,-16,0,0,450f06,18640,1280,REGISTERED,CONNECTED,CS_PS_MODE1,18,0,703267,379859957,1287525771,205770,200072
20220901T090203,2600,5,10,427(0x1ab),-93,58,-16,0,7,450f06,18640,1280,REGISTERED,CONNECTED,CS_PS_MODE1,18,0,705264,379859180,1287526486,205500,199802
20220901T090206,2600,5,10,247(0xf7),-93,58,-16,0,15,450f06,18640,1280,REGISTERED,CONNECTED,CS_PS_MODE1,18,0,708594,379858583,1287527347,205670,199975
20220901T090208,2600,5,10,182(0xb6),-93,58,-16,0,22,450f06,18640,1280,REGISTERED,CONNECTED,CS_PS_MODE1,18,0,710592,379858862,1287527949,205630,199938
20220901T090210,2600,5,10,182(0xb6),-93,58,-16,0,4,450f06,18640,1280,REGISTERED,CONNECTED,CS_PS_MODE1,18,0,712589,379859413,1287528877,205720,200025
20220901T090212,2600,5,10,427(0x1ab),-93,58,-16,0,19,450f06,18640,1280,REGISTERED,CONNECTED,CS_PS_MODE1,18,0,714587,379860053,1287529966,205730,200030
20220901T090214,2600,5,10,138(0x8a),-93,58,-16,0,-2,450f06,18640,1280,REGISTERED,CONNECTED,CS_PS_MODE1,18,0,716586,379860697,1287531086,205750,200052
20220901T090216,2600,5,10,138(0x8a),-93,58,-16,0,10,450f06,18640,1280,REGISTERED,CONNECTED,CS_PS_MODE1,18,0,718917,379861435,1287532371,205730,200037
20220901T090218,2600,5,10,138(0x8a),-93,58,-16,0,1,450f06,18640,1280,REGISTERED,CONNECTED,CS_PS_MODE1,18,0,720914,379862073,1287533470,205700,200004
20220901T090221,2600,5,10,203(0xcb),-93,58,-16,0,7,450f06,18640,1280,REGISTERED,CONNECTED,CS_PS_MODE1,18,0,723247,379862812,1287534761,205730,200036
20220901T090223,2600,5,10,182(0xb6),-93,58,-16,0,2,450f06,18640,1280,REGISTERED,CONNECTED,CS_PS_MODE1,18,0,725244,379863450,1287535862,205730,200034
20220901T090225,2600,5,10,182(0xb6),-93,58,-16,0,22,450f06,18640,65535,REGISTERED,CONNECTED,CS_PS_MODE1,18,0,727242,379864088,1287536968,205740,200042
20220901T090227,2600,5,10,138(0x8a),-93,58,-16,0,-2,450f06,18640,1280,REGISTERED,CONNECTED,CS_PS_MODE1,18,0,729239,379864696,1287538023,205710,200012
20220901T090229,2600,5,10,138(0x8a),-93,58,-16,0,0,450f06,18640,1280,REGISTERED,CONNECTED,CS_PS_MODE1,18,0,731237,379865143,1287538773,205740,200045
20220901T090231,2600,5,10,182(0xb6),-93,58,-16,0,11,450f06,18640,1280,REGISTERED,CONNECTED,CS_PS_MODE1,18,0,733237,379865542,1287538993,205590,199892
20220901T090233,2600,5,10,182(0xb6),-93,58,-16,0,10,450f06,18640,1280,REGISTERED,CONNECTED,CS_PS_MODE1,18,0,735234,379866042,1287538633,205660,199963
20220901T090235,2600,5,10,182(0xb6),-93,58,-16,0,0,450f06,18640,1280,REGISTERED,CONNECTED,CS_PS_MODE1,18,0,737232,379866801,1287537943,205950,200250
20220901T090238,2600,5,10,182(0xb6),-93,58,-16,0,2,450f06,18640,1280,REGISTERED,CONNECTED,CS_PS_MODE1,18,0,740897,379868426,1287536488,205670,199971
20220901T090240,2600,5,10,182(0xb6),-93,58,-16,0,2,450f06,18640,1280,REGISTERED,CONNECTED,CS_PS_MODE1,18,0,742892,379869313,1287535704,205700,200009
20220901T090242,2600,5,10,182(0xb6),-93,58,-16,0,15,450f06,18640,1280,REGISTERED,CONNECTED,CS_PS_MODE1,18,0,744892,379870186,1287534920,205810,200112
20220901T090244,2600,5,10,182(0xb6),-93,58,-16,0,3,450f06,18640,1280,REGISTERED,CONNECTED,CS_PS_MODE1,18,0,746894,379871074,1287534139,205610,199917
20220901T090246,2600,5,10,182(0xb6),-93,58,-16,0,6,450f06,18640,1280,REGISTERED,CONNECTED,CS_PS_MODE1,18,0,748222,379871663,1287533621,205740,200047
20220901T090248,2600,5,10,182(0xb6),-93,58,-16,0,0,450f06,18640,1280,REGISTERED,CONNECTED,CS_PS_MODE1,18,0,750219,379872549,1287532839,205600,199901
20220901T090250,2600,5,10,182(0xb6),-93,58,-16,0,0,450f06,18640,1280,REGISTERED,CONNECTED,CS_PS_MODE1,18,0,752217,379873424,1287532051,205590,199892
20220901T090253,2600,5,10,247(0xf7),-93,58,-16,0,22,450f06,18640,1280,REGISTERED,CONNECTED,CS_PS_MODE1,18,0,755214,379874751,1287530882,205720,200021
20220901T090255,2600,5,10,182(0xb6),-93,58,-16,0,9,450f06,18640,1280,REGISTERED,CONNECTED,CS_PS_MODE1,18,0,757212,379875632,1287530094,205700,200001
20220901T090257,2600,5,10,427(0x1ab),-93,58,-16,0,19,450f06,18640,1280,REGISTERED,CONNECTED,CS_PS_MODE1,18,0,759209,379876513,1287529316,205630,199937
20220901T090259,2600,5,10,427(0x1ab),-93,58,-16,0,4,450f06,18640,1280,REGISTERED,CONNECTED,CS_PS_MODE1,18,0,761542,379877547,1287528398,205620,199923
20220901T090301,2600,5,10,427(0x1ab),-93,58,-16,0,22,450f06,18640,1280,REGISTERED,CONNECTED,CS_PS_MODE1,18,0,763539,379878427,1287527610,205670,199974
20220901T090303,2600,5,10,427(0x1ab),-93,58,-16,0,16,450f06,18640,1280,REGISTERED,CONNECTED,CS_PS_MODE1,18,0,765537,379879310,1287526832,205670,199979
20220901T090305,2600,5,10,427(0x1ab),-93,58,-16,0,11,450f06,18640,1280,REGISTERED,CONNECTED,CS_PS_MODE1,18,0,767534,379880189,1287526051,205710,200013
20220901T090307,2600,5,10,427(0x1ab),-93,58,-16,0,0,450f06,18640,1280,REGISTERED,CONNECTED,CS_PS_MODE1,18,0,769532,379881070,1287525266,205710,200015
20220901T090310,2600,5,10,247(0xf7),-93,58,-16,0,0,450f06,18640,1280,REGISTERED,CONNECTED,CS_PS_MODE1,18,0,773197,379882691,1287523830,205710,200013
20220901T090312,2600,5,10,182(0xb6),-93,58,-16,0,23,450f06,18640,1280,REGISTERED,CONNECTED,CS_PS_MODE1,18,0,774527,379883275,1287523310,205720,200027
20220901T090314,2600,5,10,247(0xf7),-93,58,-16,0,0,450f06,18640,1280,REGISTERED,CONNECTED,CS_PS_MODE1,18,0,776527,379884157,1287522526,205700,200005
20220901T090316,2600,5,10,203(0xcb),-93,58,-16,0,21,450f06,18640,1280,REGISTERED,CONNECTED,CS_PS_MODE1,18,0,778524,379885041,1287521743,205670,199970
20220901T090318,2600,5,10,203(0xcb),-93,58,-16,0,17,450f06,18640,1280,REGISTERED,CONNECTED,CS_PS_MODE1,18,0,780522,379885923,1287520959,205710,200012
20220901T090320,2600,5,10,203(0xcb),-93,58,-16,0,19,450f06,18640,1280,REGISTERED,CONNECTED,CS_PS_MODE1,18,0,782519,379886805,1287520180,205710,200018
20220901T090322,2600,5,10,203(0xcb),-93,58,-16,0,10,450f06,18640,1280,REGISTERED,CONNECTED,CS_PS_MODE1,18,0,784517,379887685,1287519396,205720,200026
20220901T090325,2600,5,10,203(0xcb),-93,58,-16,0,9,450f06,18640,1280,REGISTERED,CONNECTED,CS_PS_MODE1,18,0,787847,379889156,1287518090,205710,200017
20220901T090327,2600,5,10,247(0xf7),-93,58,-16,0,22,450f06,18640,1280,REGISTERED,CONNECTED,CS_PS_MODE1,18,0,790183,379890188,1287517174,205640,199946
20220901T090329,2600,5,10,203(0xcb),-93,58,-16,0,0,450f06,18640,1280,REGISTERED,CONNECTED,CS_PS_MODE1,18,0,792177,379891069,1287516395,205570,199879
20220901T090331,2600,5,10,247(0xf7),-93,58,-16,0,23,450f06,18640,1280,REGISTERED,CONNECTED,CS_PS_MODE1,18,0,794174,379891950,1287515609,205730,200030
20220901T090333,2600,5,10,247(0xf7),-93,58,-16,0,16,450f06,18640,1280,REGISTERED,CONNECTED,CS_PS_MODE1,18,0,796172,379892829,1287514830,205730,200037
20220901T090335,2600,5,10,247(0xf7),-93,58,-16,0,10,450f06,18640,1280,REGISTERED,CONNECTED,CS_PS_MODE1,18,0,798172,379893712,1287514040,205670,199971
20220901T090337,2600,5,10,182(0xb6),-93,58,-16,0,21,450f06,18640,1280,REGISTERED,CONNECTED,CS_PS_MODE1,18,0,800169,379894597,1287513258,205690,199998
20220901T090339,2600,5,10,182(0xb6),-93,58,-16,0,9,450f06,18640,1280,REGISTERED,CONNECTED,CS_PS_MODE1,18,0,802167,379895483,1287512478,205740,200046
20220901T090342,2600,5,10,247(0xf7),-93,58,-16,0,12,450f06,18640,1280,REGISTERED,CONNECTED,CS_PS_MODE1,18,0,804497,379896510,1287511560,205810,200116
20220901T090344,2600,5,10,182(0xb6),-93,58,-16,0,21,450f06,18640,1280,REGISTERED,CONNECTED,CS_PS_MODE1,18,0,806497,379897393,1287510772,205630,199939
20220901T090346,2600,5,10,182(0xb6),-93,58,-16,0,14,450f06,18640,1280,REGISTERED,CONNECTED,CS_PS_MODE1,18,0,808494,379898279,1287509991,205620,199923
20220901T090348,2600,5,10,182(0xb6),-93,58,-16,0,22,450f06,18640,1280,REGISTERED,CONNECTED,CS_PS_MODE1,18,0,810492,379899162,1287509207,205650,199956
20220901T090350,2600,5,10,182(0xb6),-93,58,-16,0,11,450f06,18640,1280,REGISTERED,CONNECTED,CS_PS_MODE1,18,0,812489,379900041,1287508421,205680,199986
20220901T090352,2600,5,10,182(0xb6),-93,58,-16,0,10,450f06,18640,1280,REGISTERED,CONNECTED,CS_PS_MODE1,18,0,814487,379900926,1287507641,205680,199982
20220901T090354,2600,5,10,182(0xb6),-93,58,-16,0,23,450f06,18640,1280,REGISTERED,CONNECTED,CS_PS_MODE1,18,0,816486,379901812,1287506861,205680,199989
20220901T090357,2600,5,10,182(0xb6),-93,58,-16,0,12,450f06,18640,1280,REGISTERED,CONNECTED,CS_PS_MODE1,18,0,819483,379903115,1287505698,205680,199981
20220901T090359,2600,5,10,247(0xf7),-93,58,-16,0,21,450f06,18640,1280,REGISTERED,CONNECTED,CS_PS_MODE1,18,0,821483,379903756,1287505121,205640,199943
20220901T090401,2600,5,10,178(0xb2),-93,58,-16,0,3,450f06,18640,1280,REGISTERED,CONNECTED,CS_PS_MODE1,18,0,823487,379904000,1287504622,205520,199823
20220901T090403,2600,5,10,178(0xb2),-93,58,-16,0,5,450f06,18640,1280,REGISTERED,CONNECTED,CS_PS_MODE1,18,0,825477,379903777,1287504005,205740,200045
20220901T090405,2600,5,10,203(0xcb),-93,58,-16,0,21,450f06,18640,1280,REGISTERED,CONNECTED,CS_PS_MODE1,18,0,827474,379903276,1287503069,205800,200100
20220901T090407,2600,5,10,203(0xcb),-93,58,-16,0,10,450f06,18640,1280,REGISTERED,CONNECTED,CS_PS_MODE1,18,0,829472,379902675,1287501936,205670,199973
20220901T090409,2600,5,10,203(0xcb),-93,58,-16,0,10,450f06,18640,1280,REGISTERED,CONNECTED,CS_PS_MODE1,18,0,831472,379902074,1287500776,205610,199917
20220901T090411,2600,5,10,203(0xcb),-93,58,-16,0,9,450f06,18640,1280,REGISTERED,CONNECTED,CS_PS_MODE1,18,0,833469,379901475,1287499633,205680,199987
20220901T090414,2600,5,10,203(0xcb),-93,58,-16,0,0,450f06,18640,1280,REGISTERED,CONNECTED,CS_PS_MODE1,18,0,836467,379900584,1287497931,205710,200013
20220901T090416,2600,5,10,203(0xcb),-93,58,-16,0,6,450f06,18640,1280,REGISTERED,CONNECTED,CS_PS_MODE1,18,0,838464,379899988,1287496790,205690,199992
20220901T090418,2600,5,10,247(0xf7),-93,58,-16,0,0,450f06,18640,1280,REGISTERED,CONNECTED,CS_PS_MODE1,18,0,840462,379899397,1287495658,205720,200027
20220901T090420,2600,5,10,203(0xcb),-93,58,-16,0,6,450f06,18640,1280,REGISTERED,CONNECTED,CS_PS_MODE1,18,0,842792,379898700,1287494330,205710,200010
20220901T090422,2600,5,10,203(0xcb),-93,58,-16,0,7,450f06,18640,1280,REGISTERED,CONNECTED,CS_PS_MODE1,18,0,844792,379898148,1287493278,205650,199952
20220901T090424,2600,5,10,203(0xcb),-93,58,-16,0,5,450f06,18640,1280,REGISTERED,CONNECTED,CS_PS_MODE1,18,0,846789,379897777,1287492561,205740,200044
20220901T090426,2600,5,10,203(0xcb),-93,58,-16,0,3,450f06,18640,1280,REGISTERED,CONNECTED,CS_PS_MODE1,18,0,848787,379897603,1287492235,205810,200118
20220901T090428,2600,5,10,203(0xcb),-93,58,-16,0,3,450f06,18640,1280,REGISTERED,CONNECTED,CS_PS_MODE1,18,0,850787,379897579,1287492205,205680,199986
20220901T090431,2600,5,10,203(0xcb),-93,58,-16,0,7,450f06,18640,1280,REGISTERED,CONNECTED,CS_PS_MODE1,18,0,853449,379897585,1287492218,205640,199945
20220901T090433,2600,5,10,203(0xcb),-93,58,-16,0,18,450f06,18640,1280,REGISTERED,CONNECTED,CS_PS_MODE1,18,0,855447,379897584,1287492218,205660,199967
20220901T090435,2600,5,10,203(0xcb),-93,58,-16,0,17,450f06,18640,1280,REGISTERED,CONNECTED,CS_PS_MODE1,18,0,857444,379897585,1287492213,205660,199960
20220901T090437,2600,5,10,203(0xcb),-93,58,-16,0,5,450f06,18640,1280,REGISTERED,CONNECTED,CS_PS_MODE1,18,0,859442,379897583,1287492209,205680,199985
20220901T090439,2600,5,10,203(0xcb),-93,58,-16,0,16,450f06,18640,1280,REGISTERED,CONNECTED,CS_PS_MODE1,18,0,861442,379897583,1287492209,205660,199967
20220901T090441,2600,5,10,203(0xcb),-93,58,-16,0,18,450f06,18640,1280,REGISTERED,CONNECTED,CS_PS_MODE1,18,0,863439,379897583,1287492206,205680,199981
20220901T090443,2600,5,10,203(0xcb),-93,58,-16,0,9,450f06,18640,1280,REGISTERED,CONNECTED,CS_PS_MODE1,18,0,865437,379897583,1287492210,205670,199978
20220901T090446,2600,5,10,203(0xcb),-93,58,-16,0,8,450f06,18640,1280,REGISTERED,CONNECTED,CS_PS_MODE1,18,0,868767,379897263,1287492496,205850,200159
20220901T090448,2600,5,10,203(0xcb),-93,58,-16,0,23,450f06,18640,1280,REGISTERED,CONNECTED,CS_PS_MODE1,18,0,871097,379896541,1287493120,205900,200209
20220901T090450,2600,5,10,203(0xcb),-93,58,-16,0,19,450f06,18640,1280,REGISTERED,CONNECTED,CS_PS_MODE1,18,0,873097,379895677,1287493873,205650,199956
20220901T090452,2600,5,10,138(0x8a),-93,58,-16,0,0,450f06,18640,1280,REGISTERED,CONNECTED,CS_PS_MODE1,18,0,875094,379894772,1287494652,205610,199914
20220901T090454,2600,5,10,203(0xcb),-93,58,-16,0,17,450f06,18640,1280,REGISTERED,CONNECTED,CS_PS_MODE1,18,0,877092,379893881,1287495434,205660,199960
20220901T090456,2600,5,10,203(0xcb),-93,58,-16,0,22,450f06,18640,1280,REGISTERED,CONNECTED,CS_PS_MODE1,18,0,879089,379892992,1287496208,205650,199951
20220901T090458,2600,5,10,203(0xcb),-93,58,-16,0,17,450f06,18640,1280,REGISTERED,CONNECTED,CS_PS_MODE1,18,0,881087,379892103,1287496972,205650,199958
20220901T090500,2600,5,10,203(0xcb),-93,58,-16,0,9,450f06,18640,1280,REGISTERED,CONNECTED,CS_PS_MODE1,18,0,883086,379891220,1287497750,205680,199982
20220901T090503,2600,5,10,203(0xcb),-93,58,-16,0,0,450f06,18640,1280,REGISTERED,CONNECTED,CS_PS_MODE1,18,0,885417,379890183,1287498652,205680,199980
20220901T090505,2600,5,10,203(0xcb),-93,58,-16,0,3,450f06,18640,1280,REGISTERED,CONNECTED,CS_PS_MODE1,18,0,887414,379889298,1287499427,205680,199987
20220901T090507,2600,5,10,203(0xcb),-93,58,-16,0,4,450f06,18640,1280,REGISTERED,CONNECTED,CS_PS_MODE1,18,0,889412,379888408,1287500197,205680,199980
20220901T090509,2600,5,10,203(0xcb),-93,58,-16,0,22,450f06,18640,1280,REGISTERED,CONNECTED,CS_PS_MODE1,18,0,891412,379887516,1287500973,205640,199948
20220901T090511,2600,5,10,203(0xcb),-93,58,-16,0,18,450f06,18640,1280,REGISTERED,CONNECTED,CS_PS_MODE1,18,0,893409,379886630,1287501747,205660,199965
20220901T090513,2600,5,10,203(0xcb),-93,58,-16,0,18,450f06,18640,1280,REGISTERED,CONNECTED,CS_PS_MODE1,18,0,895407,379885744,1287502521,205690,199996
20220901T090515,2600,5,10,203(0xcb),-93,58,-16,0,9,450f06,18640,1280,REGISTERED,CONNECTED,CS_PS_MODE1,18,0,897404,379884854,1287503295,205680,199980
20220901T090517,2600,5,10,203(0xcb),-93,58,-16,0,18,450f06,18640,1280,REGISTERED,CONNECTED,CS_PS_MODE1,18,0,899402,379883963,1287504066,205690,199990
20220901T090520,2600,5,10,203(0xcb),-93,58,-16,0,6,450f06,18640,1280,REGISTERED,CONNECTED,CS_PS_MODE1,18,0,902399,379882638,1287505223,205680,199981
20220901T090522,2600,5,10,203(0xcb),-93,58,-16,0,6,450f06,18640,1280,REGISTERED,CONNECTED,CS_PS_MODE1,18,0,904397,379881750,1287505996,205630,199939
20220901T090524,2600,5,10,203(0xcb),-93,58,-16,0,18,450f06,18640,1280,REGISTERED,CONNECTED,CS_PS_MODE1,18,0,906397,379880859,1287506770,205640,199942
20220901T090526,2600,5,10,203(0xcb),-93,58,-16,0,15,450f06,18640,1280,REGISTERED,CONNECTED,CS_PS_MODE1,18,0,908397,379880016,1287507510,205530,199839
20220901T090528,2600,5,10,203(0xcb),-93,58,-16,0,7,450f06,18640,1280,REGISTERED,CONNECTED,CS_PS_MODE1,18,0,910394,379879296,1287508132,205610,199912
20220901T090530,2600,5,10,203(0xcb),-93,58,-16,0,18,450f06,18640,1280,REGISTERED,CONNECTED,CS_PS_MODE1,18,0,912392,379878739,1287508620,205770,200075
20220901T090532,2600,5,10,203(0xcb),-93,58,-16,0,4,450f06,18640,1280,REGISTERED,CONNECTED,CS_PS_MODE1,18,0,914394,379878335,1287508972,205650,199956
20220901T090535,2600,5,10,203(0xcb),-93,58,-16,0,17,450f06,18640,1280,REGISTERED,CONNECTED,CS_PS_MODE1,18,0,917386,379878028,1287509236,205550,199853
20220901T090537,2600,5,10,203(0xcb),-93,58,-16,0,22,450f06,18640,1280,REGISTERED,CONNECTED,CS_PS_MODE1,18,0,919389,379878011,1287509250,205510,199817
20220901T090539,2600,5,10,203(0xcb),-93,58,-16,0,17,450f06,18640,1280,REGISTERED,CONNECTED,CS_PS_MODE1,18,0,921383,379878016,1287509247,205620,199925
20220901T090541,2600,5,10,203(0xcb),-93,58,-16,0,8,450f06,18640,1280,REGISTERED,CONNECTED,CS_PS_MODE1,18,0,923647,379878021,1287509244,205650,199955
20220901T090543,2600,5,10,203(0xcb),-93,58,-16,0,19,450f06,18640,1280,REGISTERED,CONNECTED,CS_PS_MODE1,18,0,925319,379878023,1287509247,205400,199706
20220901T090545,2600,5,10,203(0xcb),-93,58,-16,0,9,450f06,18640,1280,REGISTERED,CONNECTED,CS_PS_MODE1,18,0,927317,379878027,1287509254,203040,197341
20220901T090547,2600,5,10,203(0xcb),-93,58,-16,0,18,450f06,18640,1280,REGISTERED,CONNECTED,CS_PS_MODE1,18,0,929317,379878023,1287509246,200130,194436
20220901T090549,2600,5,10,203(0xcb),-93,58,-16,0,8,450f06,18640,1280,REGISTERED,CONNECTED,CS_PS_MODE1,18,0,931314,379878017,1287509241,197090,191391
20220901T090552,2600,5,10,203(0xcb),-93,58,-16,0,9,450f06,18640,1280,REGISTERED,CONNECTED,CS_PS_MODE1,18,0,934644,379878017,1287509238,192020,186321
20220901T090554,2600,5,10,203(0xcb),-93,58,-16,0,21,450f06,18640,1280,REGISTERED,CONNECTED,CS_PS_MODE1,18,0,936642,379878020,1287509245,188960,183260
20220901T090556,2600,5,10,203(0xcb),-93,58,-16,0,1,450f06,18640,1280,REGISTERED,CONNECTED,CS_PS_MODE1,18,0,938639,379878018,1287509250,185990,180299
20220901T090558,2600,5,10,203(0xcb),-93,58,-16,0,17,450f06,18640,1280,REGISTERED,CONNECTED,CS_PS_MODE1,18,0,940637,379878016,1287509235,183030,177331
20220901T090600,2600,5,10,203(0xcb),-93,58,-16,0,3,450f06,18640,1280,REGISTERED,CONNECTED,CS_PS_MODE1,18,0,942637,379878014,1287509237,180000,174307
20220901T090602,2600,5,10,203(0xcb),-93,58,-16,0,0,450f06,18640,1280,REGISTERED,CONNECTED,CS_PS_MODE1,18,0,944634,379878019,1287509259,177030,171336
20220901T090604,2600,5,10,247(0xf7),-93,66,-16,0,23,450f06,18640,1280,REGISTERED,CONNECTED,CS_PS_MODE1,18,0,946632,379878019,1287509256,174010,168318
20220901T090607,2600,5,10,182(0xb6),-93,66,-16,0,5,450f06,18640,1280,REGISTERED,CONNECTED,CS_PS_MODE1,18,0,949297,379878017,1287509243,170050,164355
20220901T090609,2600,5,10,182(0xb6),-93,59,-16,0,18,450f06,18640,65535,REGISTERED,CONNECTED,CS_PS_MODE1,18,0,951294,379878018,1287509251,167070,161377
20220901T090611,2600,5,10,427(0x1ab),-93,59,-16,0,19,450f06,18640,1280,REGISTERED,CONNECTED,CS_PS_MODE1,18,0,953292,379878017,1287509249,164050,158356
20220901T090613,2600,5,10,427(0x1ab),-93,59,-16,0,19,450f06,18640,1280,REGISTERED,CONNECTED,CS_PS_MODE1,18,0,955289,379878017,1287509241,161030,155330
20220901T090615,2600,5,10,427(0x1ab),-93,59,-16,0,19,450f06,18640,1280,REGISTERED,CONNECTED,CS_PS_MODE1,18,0,957289,379877996,1287509268,158030,152338
20220901T090617,2600,5,10,427(0x1ab),-93,59,-16,0,1,450f06,18640,1280,REGISTERED,CONNECTED,CS_PS_MODE1,18,0,959289,379877758,1287509467,155900,150202
20220901T090619,2600,5,10,427(0x1ab),-93,59,-16,0,2,450f06,18640,1280,REGISTERED,CONNECTED,CS_PS_MODE1,18,0,961289,379877241,1287509958,155880,150185
20220901T090621,2600,5,10,427(0x1ab),-93,59,-16,0,0,450f06,18640,1280,REGISTERED,CONNECTED,CS_PS_MODE1,18,0,963283,379876455,1287510685,155740,150046
20220901T090624,2600,5,10,427(0x1ab),-93,59,-16,0,-1,450f06,18640,1280,REGISTERED,CONNECTED,CS_PS_MODE1,18,0,966944,379874829,1287512158,155680,149988
20220901T090626,2600,5,10,427(0x1ab),-93,59,-16,0,4,450f06,18640,1280,REGISTERED,CONNECTED,CS_PS_MODE1,18,0,968942,379873956,1287512958,155720,150023
20220901T090628,2600,5,10,427(0x1ab),-93,59,-16,0,13,450f06,18640,1280,REGISTERED,CONNECTED,CS_PS_MODE1,18,0,970942,379873086,1287513756,155720,150028
20220901T090630,2600,5,10,427(0x1ab),-93,59,-16,0,15,450f06,18640,1280,REGISTERED,CONNECTED,CS_PS_MODE1,18,0,972939,379872212,1287514552,155730,150032
20220901T090632,2600,5,10,427(0x1ab),-93,59,-16,0,-1,450f06,18640,1280,REGISTERED,CONNECTED,CS_PS_MODE1,18,0,974937,379871339,1287515349,155720,150026
20220901T090634,2600,5,10,427(0x1ab),-93,59,-16,0,14,450f06,18640,1280,REGISTERED,CONNECTED,CS_PS_MODE1,18,0,976934,379870469,1287516151,155760,150065
20220901T090636,2600,5,10,427(0x1ab),-93,59,-16,0,1,450f06,18640,1280,REGISTERED,CONNECTED,CS_PS_MODE1,18,0,978932,379869595,1287516954,155720,150029
20220901T090639,2600,5,10,427(0x1ab),-93,59,-16,0,14,450f06,18640,1280,REGISTERED,CONNECTED,CS_PS_MODE1,18,0,981264,379868574,1287517884,155740,150042
20220901T090641,2600,5,10,427(0x1ab),-93,59,-16,0,1,450f06,18640,1280,REGISTERED,CONNECTED,CS_PS_MODE1,18,0,983262,379867700,1287518682,155720,150027
20220901T090643,2600,5,10,427(0x1ab),-93,59,-16,0,20,450f06,18640,1280,REGISTERED,CONNECTED,CS_PS_MODE1,18,0,985259,379866828,1287519483,155720,150027
20220901T090645,2600,5,10,427(0x1ab),-93,59,-16,0,1,450f06,18640,1280,REGISTERED,CONNECTED,CS_PS_MODE1,18,0,987257,379865955,1287520278,155700,150001
20220901T090647,2600,5,10,427(0x1ab),-93,59,-16,0,10,450f06,18640,1280,REGISTERED,CONNECTED,CS_PS_MODE1,18,0,989257,379865081,1287521079,155670,149970
20220901T090649,2600,5,10,427(0x1ab),-88,59,-16,0,13,450f06,18640,1280,REGISTERED,CONNECTED,CS_PS_MODE1,18,0,991254,379864207,1287521878,155620,149928
20220901T090651,2600,5,10,427(0x1ab),-88,59,-16,0,12,450f06,18640,1280,REGISTERED,CONNECTED,CS_PS_MODE1,18,0,993252,379863337,1287522676,155590,149891
20220901T090653,2600,5,10,138(0x8a),-88,59,-16,0,-5,450f06,18640,1280,REGISTERED,CONNECTED,CS_PS_MODE1,18,0,995249,379862462,1287523480,155700,150004
20220901T090656,2600,5,10,138(0x8a),-88,59,-16,0,-7,450f06,18640,1280,REGISTERED,CONNECTED,CS_PS_MODE1,18,0,998247,379861150,1287524680,155720,150026
20220901T090658,2600,5,10,138(0x8a),-88,59,-16,0,6,450f06,18640,1280,REGISTERED,CONNECTED,CS_PS_MODE1,18,0,1000244,379860278,1287525478,155770,150071
20220901T090700,2600,5,10,138(0x8a),-88,59,-16,0,-6,450f06,18640,1280,REGISTERED,CONNECTED,CS_PS_MODE1,18,0,1002242,379859432,1287526242,155720,150022
20220901T090702,2600,5,10,138(0x8a),-88,59,-16,0,9,450f06,18640,1280,REGISTERED,CONNECTED,CS_PS_MODE1,18,0,1004242,379858810,1287526822,155600,149901
20220901T090704,2600,5,10,138(0x8a),-88,59,-16,0,18,450f06,18640,1280,REGISTERED,CONNECTED,CS_PS_MODE1,18,0,1006239,379858575,1287527325,155860,150166
20220901T090706,2600,5,10,138(0x8a),-88,59,-16,0,-5,450f06,18640,1280,REGISTERED,CONNECTED,CS_PS_MODE1,18,0,1008237,379858849,1287527915,155710,150019
20220901T090708,2600,5,10,138(0x8a),-88,59,-16,0,-5,450f06,18640,1280,REGISTERED,CONNECTED,CS_PS_MODE1,18,0,1010234,379859396,1287528843,155670,149972
20220901T090710,2600,5,10,138(0x8a),-88,59,-16,0,11,450f06,18640,1280,REGISTERED,CONNECTED,CS_PS_MODE1,18,0,1012232,379860027,1287529919,155660,149967
20220901T090713,2600,5,10,138(0x8a),-88,59,-16,0,8,450f06,18640,1280,REGISTERED,CONNECTED,CS_PS_MODE1,18,0,1015562,379861094,1287531769,155700,150002
20220901T090715,2600,5,10,427(0x1ab),-88,59,-16,0,0,450f06,18640,1280,REGISTERED,CONNECTED,CS_PS_MODE1,18,0,1017562,379861727,1287532878,155700,150006
20220901T090717,2600,5,10,138(0x8a),-88,59,-16,0,-6,450f06,18640,1280,REGISTERED,CONNECTED,CS_PS_MODE1,18,0,1019559,379862363,1287533977,155680,149988
20220901T090719,2600,5,10,138(0x8a),-88,59,-16,0,-7,450f06,18640,1280,REGISTERED,CONNECTED,CS_PS_MODE1,18,0,1021557,379863001,1287535083,155700,150003
20220901T090721,2600,5,10,427(0x1ab),-88,59,-16,0,14,450f06,18640,1280,REGISTERED,CONNECTED,CS_PS_MODE1,18,0,1023554,379863634,1287536181,155710,150015
20220901T090723,2600,5,10,427(0x1ab),-88,59,-16,0,11,450f06,18640,1280,REGISTERED,CONNECTED,CS_PS_MODE1,18,0,1025554,379864269,1287537288,155710,150010
20220901T090725,2600,5,10,427(0x1ab),-88,59,-16,0,-1,450f06,18640,1280,REGISTERED,CONNECTED,CS_PS_MODE1,18,0,1027550,379864841,1287538275,155680,149981
20220901T090727,2600,5,10,427(0x1ab),-88,59,-16,0,11,450f06,18640,1280,REGISTERED,CONNECTED,CS_PS_MODE1,18,0,1029549,379865242,1287538901,155780,150086
20220901T090730,2600,5,10,427(0x1ab),-88,59,-16,0,8,450f06,18640,1280,REGISTERED,CONNECTED,CS_PS_MODE1,18,0,1032212,379865836,1287538824,155500,149805
20220901T090732,2600,5,10,427(0x1ab),-88,59,-11,0,9,450f06,18640,1280,REGISTERED,CONNECTED,CS_PS_MODE1,18,0,1034212,379866490,1287538228,155520,149826
20220901T090734,2600,5,10,427(0x1ab),-88,59,-11,0,10,450f06,18640,1280,REGISTERED,CONNECTED,CS_PS_MODE1,18,0,1036209,379867358,1287537437,155820,150122
20220901T090736,2600,5,10,427(0x1ab),-88,59,-11,0,11,450f06,18640,1280,REGISTERED,CONNECTED,CS_PS_MODE1,18,0,1038207,379868250,1287536655,155770,150075
20220901T090738,2600,5,10,427(0x1ab),-88,59,-11,0,2,450f06,18640,1280,REGISTERED,CONNECTED,CS_PS_MODE1,18,0,1040204,379869132,1287535862,155730,150031
20220901T090740,2600,5,10,427(0x1ab),-88,59,-11,0,4,450f06,18640,1280,REGISTERED,CONNECTED,CS_PS_MODE1,18,0,1042537,379870164,1287534953,155650,149952
20220901T090742,2600,5,10,427(0x1ab),-88,59,-11,0,0,450f06,18640,1280,REGISTERED,CONNECTED,CS_PS_MODE1,18,0,1044534,379871044,1287534166,155630,149938
20220901T090745,2600,5,10,427(0x1ab),-88,59,-11,0,12,450f06,18640,1280,REGISTERED,CONNECTED,CS_PS_MODE1,18,0,1047864,379872510,1287532868,155660,149967
20220901T090747,2600,5,10,427(0x1ab),-88,59,-11,0,12,450f06,18640,1280,REGISTERED,CONNECTED,CS_PS_MODE1,18,0,1049862,379873395,1287532081,155670,149979
20220901T090749,2600,5,10,427(0x1ab),-88,59,-11,0,1,450f06,18640,1280,REGISTERED,CONNECTED,CS_PS_MODE1,18,0,1051859,379874276,1287531294,155680,149984
20220901T090751,2600,5,10,427(0x1ab),-88,59,-11,0,12,450f06,18640,1280,REGISTERED,CONNECTED,CS_PS_MODE1,18,0,1053857,379875161,1287530517,155620,149926
20220901T090753,2600,5,10,427(0x1ab),-88,59,-11,0,15,450f06,18640,1280,REGISTERED,CONNECTED,CS_PS_MODE1,18,0,1055857,379876042,1287529732,155630,149935
20220901T090755,2600,5,10,427(0x1ab),-88,59,-11,0,-1,450f06,18640,1280,REGISTERED,CONNECTED,CS_PS_MODE1,18,0,1057854,379876927,1287528948,155630,149936
20220901T090757,2600,5,10,427(0x1ab),-88,59,-11,0,-3,450f06,18640,1280,REGISTERED,CONNECTED,CS_PS_MODE1,18,0,1059852,379877810,1287528165,155650,149950
20220901T090759,2600,5,10,427(0x1ab),-88,59,-11,0,13,450f06,18640,1280,REGISTERED,CONNECTED,CS_PS_MODE1,18,0,1061849,379878690,1287527382,155640,149942
20220901T090802,2600,5,10,427(0x1ab),-88,59,-11,0,7,450f06,18640,1280,REGISTERED,CONNECTED,CS_PS_MODE1,18,0,1064514,379879864,1287526339,155660,149963
20220901T090804,2600,5,10,427(0x1ab),-88,59,-11,0,2,450f06,18640,1280,REGISTERED,CONNECTED,CS_PS_MODE1,18,0,1066512,379880746,1287525552,155650,149958
20220901T090806,2600,5,10,427(0x1ab),-88,59,-11,0,15,450f06,18640,1280,REGISTERED,CONNECTED,CS_PS_MODE1,18,0,1068509,379881626,1287524775,155670,149978
20220901T090808,2600,5,10,427(0x1ab),-88,59,-16,0,4,450f06,18640,1280,REGISTERED,CONNECTED,CS_PS_MODE1,18,0,1070507,379882508,1287523992,155660,149967
20220901T090810,2600,5,10,427(0x1ab),-88,59,-16,0,0,450f06,18640,1280,REGISTERED,CONNECTED,CS_PS_MODE1,18,0,1072507,379883391,1287523205,155640,149941
20220901T090812,2600,5,10,427(0x1ab),-88,59,-16,0,14,450f06,18640,1280,REGISTERED,CONNECTED,CS_PS_MODE1,18,0,1074504,379884275,1287522423,155650,149951
20220901T090814,2600,5,10,247(0xf7),-88,59,-16,0,7,450f06,18640,1280,REGISTERED,CONNECTED,CS_PS_MODE1,18,0,1076834,379885304,1287521512,155660,149962
20220901T090817,2600,5,10,427(0x1ab),-88,59,-16,0,5,450f06,18640,1280,REGISTERED,CONNECTED,CS_PS_MODE1,18,0,1080164,379886775,1287520206,155690,149998
20220901T090819,2600,5,10,427(0x1ab),-93,59,-16,0,22,450f06,18640,1280,REGISTERED,CONNECTED,CS_PS_MODE1,18,0,1082162,379887656,1287519425,155680,149985
20220901T090821,2600,5,10,427(0x1ab),-93,59,-16,0,17,450f06,18640,1280,REGISTERED,CONNECTED,CS_PS_MODE1,18,0,1084162,379888534,1287518637,155680,149989
20220901T090823,2600,5,10,427(0x1ab),-93,59,-16,0,10,450f06,18640,1280,REGISTERED,CONNECTED,CS_PS_MODE1,18,0,1086159,379889421,1287517856,155660,149963
20220901T090825,2600,5,10,427(0x1ab),-93,59,-16,0,10,450f06,18640,1280,REGISTERED,CONNECTED,CS_PS_MODE1,18,0,1088157,379890299,1287517073,155670,149976
20220901T090827,2600,5,10,427(0x1ab),-93,59,-16,0,9,450f06,18640,1280,REGISTERED,CONNECTED,CS_PS_MODE1,18,0,1090154,379891182,1287516295,155650,149958
20220901T090829,2600,5,10,427(0x1ab),-93,59,-16,0,22,450f06,18640,1280,REGISTERED,CONNECTED,CS_PS_MODE1,18,0,1092152,379892063,1287515508,155650,149956
20220901T090831,2600,5,10,427(0x1ab),-93,59,-16,0,17,450f06,18640,1280,REGISTERED,CONNECTED,CS_PS_MODE1,18,0,1094152,379892947,1287514723,155670,149973
20220901T090834,2600,5,10,427(0x1ab),-93,59,-16,0,12,450f06,18640,1280,REGISTERED,CONNECTED,CS_PS_MODE1,18,0,1096483,379893977,1287513810,155660,149968
20220901T090836,2600,5,10,427(0x1ab),-93,59,-16,0,18,450f06,18640,1280,REGISTERED,CONNECTED,CS_PS_MODE1,18,0,1098479,379894860,1287513026,155660,149963
20220901T090838,2600,5,10,427(0x1ab),-93,59,-16,0,0,450f06,18640,1280,REGISTERED,CONNECTED,CS_PS_MODE1,18,0,1100477,379895742,1287512241,155710,150012
20220901T090840,2600,5,10,427(0x1ab),-93,59,-16,0,3,450f06,18640,1280,REGISTERED,CONNECTED,CS_PS_MODE1,18,0,1102477,379896626,1287511464,155680,149987
20220901T090842,2600,5,10,427(0x1ab),-93,59,-16,0,21,450f06,18640,1280,REGISTERED,CONNECTED,CS_PS_MODE1,18,0,1104474,379897512,1287510670,155670,149977
20220901T090844,2600,5,10,203(0xcb),-93,59,-16,0,9,450f06,18640,1280,REGISTERED,CONNECTED,CS_PS_MODE1,18,0,1106472,379898396,1287509892,155640,149944
20220901T090846,2600,5,10,247(0xf7),-93,59,-16,0,22,450f06,18640,1280,REGISTERED,CONNECTED,CS_PS_MODE1,18,0,1108469,379899279,1287509104,155640,149944
20220901T090849,2600,5,10,247(0xf7),-93,59,-16,0,12,450f06,18640,1280,REGISTERED,CONNECTED,CS_PS_MODE1,18,0,1111467,379900600,1287507930,155640,149943
20220901T090851,2600,5,10,247(0xf7),-93,59,-16,0,14,450f06,18640,1280,REGISTERED,CONNECTED,CS_PS_MODE1,18,0,1113464,379901490,1287507152,155700,150002
20220901T090853,2600,5,10,247(0xf7),-93,59,-16,0,17,450f06,18640,1280,REGISTERED,CONNECTED,CS_PS_MODE1,18,0,1115462,379902365,1287506362,155690,149995
20220901T090855,2600,5,10,247(0xf7),-93,59,-16,0,11,450f06,18640,1280,REGISTERED,CONNECTED,CS_PS_MODE1,18,0,1117462,379903217,1287505610,155690,149994
20220901T090857,2600,5,10,247(0xf7),-93,59,-16,0,22,450f06,18640,1280,REGISTERED,CONNECTED,CS_PS_MODE1,18,0,1119460,379903819,1287505061,155520,149822
20220901T090859,2600,5,10,247(0xf7),-93,59,-16,0,9,450f06,18640,1280,REGISTERED,CONNECTED,CS_PS_MODE1,18,0,1121457,379904000,1287504554,155590,149898
20220901T090901,2600,5,10,247(0xf7),-93,59,-16,0,0,450f06,18640,1280,REGISTERED,CONNECTED,CS_PS_MODE1,18,0,1123454,379903728,1287503906,155780,150083
20220901T090903,2600,5,10,247(0xf7),-93,59,-16,0,23,450f06,18640,1280,REGISTERED,CONNECTED,CS_PS_MODE1,18,0,1125452,379903198,1287502921,155840,150148
20220901T090906,2600,5,10,247(0xf7),-93,59,-16,0,9,450f06,18640,1280,REGISTERED,CONNECTED,CS_PS_MODE1,18,0,1128783,379902195,1287501014,155640,149944
20220901T090908,2600,5,10,247(0xf7),-93,59,-16,0,16,450f06,18640,1280,REGISTERED,CONNECTED,CS_PS_MODE1,18,0,1130789,379901599,1287499865,155630,149930
20220901T090910,2600,5,10,247(0xf7),-93,59,-16,0,12,450f06,18640,1280,REGISTERED,CONNECTED,CS_PS_MODE1,18,0,1132779,379901005,1287498734,155650,149954
20220901T090912,2600,5,10,247(0xf7),-93,59,-16,0,9,450f06,18640,1280,REGISTERED,CONNECTED,CS_PS_MODE1,18,0,1134777,379900411,1287497596,155690,149993
20220901T090914,2600,5,10,247(0xf7),-93,59,-16,0,23,450f06,18640,1280,REGISTERED,CONNECTED,CS_PS_MODE1,18,0,1136774,379899814,1287496457,155680,149986
20220901T090916,2600,5,10,247(0xf7),-93,59,-16,0,23,450f06,18640,1280,REGISTERED,CONNECTED,CS_PS_MODE1,18,0,1138772,379899222,1287495326,155680,149989
20220901T090918,2600,5,10,247(0xf7),-93,59,-16,0,0,450f06,18640,1280,REGISTERED,CONNECTED,CS_PS_MODE1,18,0,1140772,379898623,1287494183,155670,149970
20220901T090920,2600,5,10,182(0xb6),-93,59,-16,0,9,450f06,18640,1280,REGISTERED,CONNECTED,CS_PS_MODE1,18,0,1142769,379898091,1287493168,155630,149935
20220901T090923,2600,5,10,203(0xcb),-93,59,-16,0,20,450f06,18640,1280,REGISTERED,CONNECTED,CS_PS_MODE1,18,0,1145432,379897672,1287492367,155840,150141
20220901T090925,2600,5,10,138(0x8a),-93,59,-16,0,20,450f06,18640,1280,REGISTERED,CONNECTED,CS_PS_MODE1,18,0,1147432,379897586,1287492203,155700,150002
20220901T090927,2600,5,10,138(0x8a),-93,59,-16,0,18,450f06,18640,1280,REGISTERED,CONNECTED,CS_PS_MODE1,18,0,1149429,379897580,1287492206,155620,149926
20220901T090929,2600,5,10,138(0x8a),-93,59,-16,0,5,450f06,18640,1280,REGISTERED,CONNECTED,CS_PS_MODE1,18,0,1151427,379897585,1287492218,155620,149920
20220901T090931,2600,5,10,138(0x8a),-93,59,-16,0,2,450f06,18640,1280,REGISTERED,CONNECTED,CS_PS_MODE1,18,0,1153424,379897509,1287492284,155690,149996
20220901T090933,2600,5,10,138(0x8a),-93,59,-16,0,0,450f06,18640,1280,REGISTERED,CONNECTED,CS_PS_MODE1,18,0,1155422,379897168,1287492586,155790,150096
20220901T090935,2600,5,10,203(0xcb),-93,59,-16,0,20,450f06,18640,1280,REGISTERED,CONNECTED,CS_PS_MODE1,18,0,1157422,379896510,1287493160,155810,150110
20220901T090938,2600,5,10,203(0xcb),-100,59,-16,0,19,450f06,18640,1280,REGISTERED,CONNECTED,CS_PS_MODE1,18,0,1161089,379894883,1287494564,155580,149886
20220901T090940,2600,5,10,247(0xf7),-100,59,-16,0,10,450f06,18640,1280,REGISTERED,CONNECTED,CS_PS_MODE1,18,0,1163083,379893993,1287495340,155630,149939
20220901T090942,2600,5,10,247(0xf7),-100,59,-16,0,9,450f06,18640,1280,REGISTERED,CONNECTED,CS_PS_MODE1,18,0,1165079,379893103,1287496111,155650,149955
20220901T090944,2600,5,10,247(0xf7),-94,59,-16,0,0,450f06,18640,1280,REGISTERED,CONNECTED,CS_PS_MODE1,18,0,1167077,379892215,1287496886,155620,149929
20220901T090946,2600,5,10,247(0xf7),-94,59,-16,0,23,450f06,18640,1280,REGISTERED,CONNECTED,CS_PS_MODE1,18,0,1169077,379891327,1287497663,155660,149969
20220901T090948,2600,5,10,247(0xf7),-94,59,-16,0,21,450f06,18640,1280,REGISTERED,CONNECTED,CS_PS_MODE1,18,0,1171074,379890443,1287498435,155670,149973
20220901T090950,2600,5,10,247(0xf7),-94,59,-16,0,9,450f06,18640,1280,REGISTERED,CONNECTED,CS_PS_MODE1,18,0,1173072,379889552,1287499205,155670,149971
20220901T090953,2600,5,10,247(0xf7),-94,59,-16,0,12,450f06,18640,1280,REGISTERED,CONNECTED,CS_PS_MODE1,18,0,1175402,379888520,1287500105,155600,149904
20220901T090955,2600,5,10,182(0xb6),-94,59,-16,0,21,450f06,18640,1280,REGISTERED,CONNECTED,CS_PS_MODE1,18,0,1177402,379887628,1287500880,155640,149949
20220901T090957,2600,5,10,182(0xb6),-94,59,-16,0,10,450f06,18640,1280,REGISTERED,CONNECTED,CS_PS_MODE1,18,0,1179399,379886742,1287501653,155590,149893
20220901T090959,2600,5,10,427(0x1ab),-94,59,-16,0,3,450f06,18640,1280,REGISTERED,CONNECTED,CS_PS_MODE1,18,0,1181397,379885851,1287502430,155600,149906
20220901T091001,2600,5,10,427(0x1ab),-94,59,-16,0,18,450f06,18640,1280,REGISTERED,CONNECTED,CS_PS_MODE1,18,0,1183397,379884968,1287503203,155660,149967
20220901T091003,2600,5,10,427(0x1ab),-94,59,-16,0,10,450f06,18640,1280,REGISTERED,CONNECTED,CS_PS_MODE1,18,0,1185397,379884074,1287503972,155680,149982
20220901T091005,2600,5,10,427(0x1ab),-94,59,-16,0,9,450f06,18640,1280,REGISTERED,CONNECTED,CS_PS_MODE1,18,0,1187392,379883190,1287504750,155610,149914
20220901T091007,2600,5,10,127(0x7f),-94,59,-16,0,22,450f06,61446,1280,REGISTERED,CONNECTED,CS_PS_MODE1,0,0,1189389,379882294,1287505520,155710,150012
20220901T091010,2600,5,10,427(0x1ab),-94,59,-16,0,18,450f06,18640,1280,REGISTERED,CONNECTED,CS_PS_MODE1,0,0,1192385,379880968,1287506677,155710,150015
20220901T091012,2600,5,10,427(0x1ab),-94,59,-16,0,5,450f06,18640,1280,REGISTERED,CONNECTED,CS_PS_MODE1,0,0,1194397,379880109,1287507431,155580,149882
20220901T091014,2600,5,10,427(0x1ab),-94,59,-16,0,0,450f06,18640,1280,REGISTERED,CONNECTED,CS_PS_MODE1,0,0,1196383,379879378,1287508060,155610,149912
20220901T091016,2600,5,10,427(0x1ab),-94,59,-16,0,16,450f06,18640,1280,REGISTERED,CONNECTED,CS_PS_MODE1,0,0,1198379,379878797,1287508567,155660,149968
20220901T091018,2600,5,10,427(0x1ab),-94,59,-16,0,7,450f06,18640,1280,REGISTERED,CONNECTED,CS_PS_MODE1,0,0,1200377,379878379,1287508933,155760,150065
20220901T091020,2600,5,10,427(0x1ab),-94,59,-16,0,17,450f06,18640,1280,REGISTERED,CONNECTED,CS_PS_MODE1,0,0,1202377,379878111,1287509164,155700,150000
20220901T091022,2600,5,10,247(0xf7),-94,59,-16,0,0,450f06,18640,1280,REGISTERED,CONNECTED,CS_PS_MODE1,0,0,1204374,379878009,1287509254,155520,149826
20220901T091025,2600,5,10,247(0xf7),-94,59,-16,0,14,450f06,18640,1280,REGISTERED,CONNECTED,CS_PS_MODE1,0,0,1208007,379878009,1287509254,155550,149857
20220901T091027,2600,5,10,247(0xf7),-94,59,-11,0,11,450f06,18640,1280,REGISTERED,CONNECTED,CS_PS_MODE1,0,0,1209347,379878015,1287509251,155480,149787
