ct,frequency,band,bandwidth,cell_id,rsrp,rssi,rsrq,bler,tx_power,plmn,tac,drx,emm_state,rrc_state,net_op_mode,emm_cause,esm_cause,time_boot_ms,lat,lon,alt,relative_alt,telecom
20220831T050024,2600,5,10,149(0x95),-108,80,-10,0,23,450f06,24741,1280,REGISTERED,CONNECTED,CS_PS_MODE1,18,0,147814,377451523,1273504198,255040,1328,LGU
20220831T050026,2600,5,10,149(0x95),-108,87,-10,0,23,450f06,24741,1280,REGISTERED,CONNECTED,CS_PS_MODE1,18,0,149812,377451517,1273504182,255120,1408,LGU
20220831T050028,2600,5,10,149(0x95),-108,87,-10,0,23,450f06,24741,1280,REGISTERED,CONNECTED,CS_PS_MODE1,18,0,151812,377451506,1273504179,255230,1511,LGU
20220831T050030,2600,5,10,149(0x95),-108,87,-10,0,23,450f06,24741,1280,REGISTERED,CONNECTED,CS_PS_MODE1,18,0,153142,377451502,1273504176,255270,1559,LGU
20220831T050032,2600,5,10,149(0x95),-108,87,-10,0,23,450f06,24741,1280,REGISTERED,CONNECTED,CS_PS_MODE1,18,0,155140,377451509,1273504181,255240,1526,LGU
20220831T050217,2600,5,10,149(0x95),-112,88,-11,0,22,450f06,24741,1280,REGISTERED,CONNECTED,CS_PS_MODE1,18,0,168127,377451560,1273504132,255310,1592,LGU
20220831T050219,2600,5,10,149(0x95),-112,88,-11,0,23,450f06,24741,1280,REGISTERED,CONNECTED,CS_PS_MODE1,18,0,170127,377451558,1273504121,255330,1612,LGU
20220831T050221,2600,5,10,149(0x95),-112,88,-11,0,23,450f06,24741,1280,REGISTERED,CONNECTED,CS_PS_MODE1,18,0,172124,377451556,1273504106,255320,1601,LGU
20220831T050225,2600,5,10,149(0x95),-112,88,-11,0,23,450f06,24741,1280,REGISTERED,CONNECTED,CS_PS_MODE1,18,0,176119,377451540,1273504082,255370,1651,LGU
20220831T050229,2600,5,10,149(0x95),-112,88,-11,0,23,450f06,24741,1280,REGISTERED,CONNECTED,CS_PS_MODE1,18,0,180117,377451522,1273504062,255280,1561,LGU
20220831T050229,2600,5,10,149(0x95),-112,88,-11,0,23,450f06,24741,1280,REGISTERED,CONNECTED,CS_PS_MODE1,18,0,180117,377451522,1273504062,255280,1561,LGU
20220831T050230,2600,5,10,149(0x95),-112,88,-11,0,23,450f06,24741,1280,REGISTERED,CONNECTED,CS_PS_MODE1,18,0,180449,377451520,1273504061,255270,1551,LGU
20220831T050232,2600,5,10,149(0x95),-112,88,-11,0,22,450f06,24741,1280,REGISTERED,CONNECTED,CS_PS_MODE1,18,0,182447,377451517,1273504063,255320,1609,LGU
20220831T050234,2600,5,10,149(0x95),-112,88,-11,0,23,450f06,24741,1280,REGISTERED,CONNECTED,CS_PS_MODE1,18,0,184445,377451501,1273504079,255240,1527,LGU
20220831T050236,2600,5,10,149(0x95),-112,88,-11,0,23,450f06,24741,1280,REGISTERED,CONNECTED,CS_PS_MODE1,18,0,186442,377451491,1273504081,255270,1553,LGU
20220831T050238,2600,5,10,149(0x95),-112,88,-11,0,0,450f06,24741,1280,REGISTERED,CONNECTED,CS_PS_MODE1,18,0,188440,377451488,1273504077,255320,1603,LGU
20220831T050240,2600,5,10,149(0x95),-112,88,-11,0,23,450f06,24741,1280,REGISTERED,CONNECTED,CS_PS_MODE1,18,0,190440,377451483,1273504074,255390,1670,LGU
20220831T050243,2600,5,10,149(0x95),-112,88,-11,0,23,450f06,24741,1280,REGISTERED,CONNECTED,CS_PS_MODE1,18,0,193435,377451473,1273504059,255460,1743,LGU
20220831T050245,2600,5,10,149(0x95),-112,88,-11,0,23,450f06,24741,1280,REGISTERED,CONNECTED,CS_PS_MODE1,18,0,195435,377451466,1273504045,255470,1757,LGU
20220831T050247,2600,5,10,149(0x95),-112,88,-11,0,23,450f06,24741,1280,REGISTERED,CONNECTED,CS_PS_MODE1,18,0,197432,377451461,1273504026,255480,1761,LGU
20220831T050249,2600,5,10,149(0x95),-112,88,-11,0,23,450f06,24741,1280,REGISTERED,CONNECTED,CS_PS_MODE1,18,0,199429,377451417,1273503952,255440,1720,LGU
20220831T050251,2600,5,10,149(0x95),-112,88,-11,0,23,450f06,24741,1280,REGISTERED,CONNECTED,CS_PS_MODE1,18,0,201427,377451400,1273503936,255520,1805,LGU
20220831T050253,2600,5,10,149(0x95),-112,88,-11,0,23,450f06,24741,1280,REGISTERED,CONNECTED,CS_PS_MODE1,18,0,203427,377451404,1273503959,255530,1818,LGU
20220831T050255,2600,5,10,149(0x95),-112,88,-11,0,22,450f06,24741,1280,REGISTERED,CONNECTED,CS_PS_MODE1,18,0,205424,377451405,1273503982,255490,1776,LGU
20220831T050258,2600,5,10,149(0x95),-112,88,-11,0,23,450f06,24741,1280,REGISTERED,CONNECTED,CS_PS_MODE1,18,0,208422,377451399,1273504006,255470,1756,LGU
20220831T050300,2600,5,10,149(0x95),-112,88,-11,0,23,450f06,24741,1280,REGISTERED,CONNECTED,CS_PS_MODE1,18,0,210752,377451392,1273504016,255470,1757,LGU
20220831T050302,2600,5,10,149(0x95),-112,88,-11,0,23,450f06,24741,1280,REGISTERED,CONNECTED,CS_PS_MODE1,18,0,212749,377451382,1273504023,255500,1788,LGU
20220831T050304,2600,5,10,149(0x95),-112,88,-11,0,23,450f06,24741,1280,REGISTERED,CONNECTED,CS_PS_MODE1,18,0,214747,377451377,1273504026,255570,1850,LGU
20220831T050306,2600,5,10,149(0x95),-112,88,-11,0,23,450f06,24741,1280,REGISTERED,CONNECTED,CS_PS_MODE1,18,0,216745,377451373,1273504032,255520,1801,LGU
20220831T050308,2600,5,10,149(0x95),-112,88,-11,0,23,450f06,24741,1280,REGISTERED,CONNECTED,CS_PS_MODE1,18,0,218745,377451371,1273504042,255480,1764,LGU
20220831T050310,2600,5,10,149(0x95),-112,88,-11,0,23,450f06,24741,1280,REGISTERED,CONNECTED,CS_PS_MODE1,18,0,220742,377451372,1273504054,255550,1831,LGU
20220831T050313,2600,5,10,149(0x95),-112,88,-11,0,23,450f06,24741,1280,REGISTERED,CONNECTED,CS_PS_MODE1,18,0,223739,377451381,1273504067,255520,1803,LGU
20220831T050315,2600,5,10,149(0x95),-112,88,-11,0,23,450f06,24741,1280,REGISTERED,CONNECTED,CS_PS_MODE1,18,0,225737,377451382,1273504070,255530,1812,LGU
20220831T050317,2600,5,10,149(0x95),-112,88,-11,0,23,450f06,24741,1280,REGISTERED,CONNECTED,CS_PS_MODE1,18,0,227735,377451384,1273504082,255500,1786,LGU
20220831T050319,2600,5,10,149(0x95),-112,88,-11,0,23,450f06,24741,1280,REGISTERED,CONNECTED,CS_PS_MODE1,18,0,229732,377451390,1273504093,255520,1808,LGU
20220831T050321,2600,5,10,149(0x95),-112,88,-11,0,23,450f06,24741,1280,REGISTERED,CONNECTED,CS_PS_MODE1,18,0,231732,377451399,1273504101,255530,1817,LGU
20220831T050323,2600,5,10,149(0x95),-112,82,-11,0,23,450f06,24741,1280,REGISTERED,CONNECTED,CS_PS_MODE1,18,0,233729,377451409,1273504109,255570,1858,LGU
20220831T050325,2600,5,10,149(0x95),-106,82,-11,0,23,450f06,24741,1280,REGISTERED,CONNECTED,CS_PS_MODE1,18,0,235727,377451419,1273504121,255590,1871,LGU
20220831T050327,2600,5,10,149(0x95),-106,82,-11,0,23,450f06,24741,1280,REGISTERED,CONNECTED,CS_PS_MODE1,18,0,237724,377451430,1273504133,255580,1860,LGU
20220831T050330,2600,5,10,149(0x95),-106,82,-11,0,23,450f06,24741,1280,REGISTERED,CONNECTED,CS_PS_MODE1,18,0,241054,377451448,1273504149,255510,1796,LGU
20220831T050332,2600,5,10,149(0x95),-106,82,-11,0,23,450f06,24741,1280,REGISTERED,CONNECTED,CS_PS_MODE1,18,0,243052,377451460,1273504154,255590,1870,LGU
20220831T050334,2600,5,10,149(0x95),-106,82,-11,0,23,450f06,24741,1280,REGISTERED,CONNECTED,CS_PS_MODE1,18,0,245052,377451466,1273504159,255570,1851,LGU
20220831T050336,2600,5,10,149(0x95),-106,82,-11,0,23,450f06,24741,1280,REGISTERED,CONNECTED,CS_PS_MODE1,18,0,247049,377451477,1273504160,255610,1894,LGU
20220831T050338,2600,5,10,149(0x95),-106,76,-11,0,23,450f06,24741,1280,REGISTERED,CONNECTED,CS_PS_MODE1,18,0,249047,377451490,1273504162,255660,1948,LGU
20220831T050340,2600,5,10,149(0x95),-106,76,-11,0,23,450f06,24741,1280,REGISTERED,CONNECTED,CS_PS_MODE1,18,0,251045,377451502,1273504169,255690,1970,LGU
20220831T050342,2600,5,10,149(0x95),-106,76,-11,0,23,450f06,24741,1280,REGISTERED,CONNECTED,CS_PS_MODE1,18,0,253042,377451510,1273504177,255610,1893,LGU
20220831T050344,2600,5,10,149(0x95),-106,76,-11,0,23,450f06,24741,1280,REGISTERED,CONNECTED,CS_PS_MODE1,18,0,255042,377451513,1273504188,255630,1914,LGU
20220831T050347,2600,5,10,149(0x95),-106,84,-11,0,22,450f06,24741,1280,REGISTERED,CONNECTED,CS_PS_MODE1,18,0,257704,377451521,1273504197,255650,1934,LGU
20220831T050349,2600,5,10,149(0x95),-106,84,-11,0,23,450f06,24741,1280,REGISTERED,CONNECTED,CS_PS_MODE1,18,0,259702,377451522,1273504201,255650,1932,LGU
20220831T050351,2600,5,10,149(0x95),-101,77,-11,0,23,450f06,24741,1280,REGISTERED,CONNECTED,CS_PS_MODE1,18,0,261702,377451520,1273504204,255640,1923,LGU
20220831T050353,2600,5,10,149(0x95),-101,77,-11,0,23,450f06,24741,1280,REGISTERED,CONNECTED,CS_PS_MODE1,18,0,263699,377451520,1273504205,255660,1949,LGU
20220831T050355,2600,5,10,149(0x95),-107,77,-11,0,23,450f06,24741,1280,REGISTERED,CONNECTED,CS_PS_MODE1,18,0,265697,377451516,1273504214,255630,1916,LGU
20220831T050357,2600,5,10,149(0x95),-107,77,-11,0,23,450f06,24741,1280,REGISTERED,CONNECTED,CS_PS_MODE1,18,0,267694,377451512,1273504220,255590,1872,LGU
20220831T050359,2600,5,10,149(0x95),-107,83,-11,0,23,450f06,24741,1280,REGISTERED,CONNECTED,CS_PS_MODE1,18,0,269692,377451509,1273504226,255580,1860,LGU
20220831T050401,2600,5,10,149(0x95),-107,83,-11,0,23,450f06,24741,1280,REGISTERED,CONNECTED,CS_PS_MODE1,18,0,271692,377451505,1273504237,255570,1854,LGU
20220831T050404,2600,5,10,149(0x95),-107,83,-11,0,23,450f06,24741,1280,REGISTERED,CONNECTED,CS_PS_MODE1,18,0,275354,377451486,1273504243,255530,1812,LGU
20220831T050406,2600,5,10,149(0x95),-107,83,-11,0,23,450f06,24741,1280,REGISTERED,CONNECTED,CS_PS_MODE1,18,0,277352,377451482,1273504242,255540,1829,LGU
20220831T050408,2600,5,10,149(0x95),-107,83,-11,0,23,450f06,24741,1280,REGISTERED,CONNECTED,CS_PS_MODE1,18,0,279349,377451481,1273504242,255580,1864,LGU
20220831T050410,2600,5,10,149(0x95),-107,83,-11,0,23,450f06,24741,1280,REGISTERED,CONNECTED,CS_PS_MODE1,18,0,281347,377451478,1273504247,255690,1977,LGU
20220831T050412,2600,5,10,149(0x95),-107,83,-11,0,23,450f06,24741,1280,REGISTERED,CONNECTED,CS_PS_MODE1,18,0,283345,377451469,1273504256,255660,1946,LGU
20220831T050414,2600,5,10,149(0x95),-107,83,-11,0,23,450f06,24741,1280,REGISTERED,CONNECTED,CS_PS_MODE1,18,0,285345,377451469,1273504259,255660,1942,LGU
20220831T050416,2600,5,10,149(0x95),-107,83,-11,0,22,450f06,24741,1280,REGISTERED,CONNECTED,CS_PS_MODE1,18,0,287342,377451468,1273504264,255710,1995,LGU
20220831T050419,2600,5,10,149(0x95),-107,83,-11,0,23,450f06,24741,1280,REGISTERED,CONNECTED,CS_PS_MODE1,18,0,289672,377451463,1273504265,255750,2031,LGU
20220831T050421,2600,5,10,149(0x95),-107,83,-11,0,23,450f06,24741,1280,REGISTERED,CONNECTED,CS_PS_MODE1,18,0,291672,377451457,1273504263,255690,1979,LGU
20220831T050423,2600,5,10,149(0x95),-107,83,-11,0,23,450f06,24741,1280,REGISTERED,CONNECTED,CS_PS_MODE1,18,0,293669,377451449,1273504264,255690,1971,LGU
20220831T050425,2600,5,10,149(0x95),-107,83,-11,0,23,450f06,24741,1280,REGISTERED,CONNECTED,CS_PS_MODE1,18,0,295667,377451440,1273504265,255640,1921,LGU
20220831T050427,2600,5,10,149(0x95),-107,83,-11,0,23,450f06,24741,1280,REGISTERED,CONNECTED,CS_PS_MODE1,18,0,297664,377451429,1273504264,255670,1950,LGU
20220831T050429,2600,5,10,149(0x95),-107,83,-11,0,23,450f06,24741,1280,REGISTERED,CONNECTED,CS_PS_MODE1,18,0,299662,377451423,1273504260,255700,1988,LGU
20220831T050431,2600,5,10,149(0x95),-107,83,-11,0,23,450f06,24741,1280,REGISTERED,CONNECTED,CS_PS_MODE1,18,0,301662,377451417,1273504254,255660,1946,LGU
20220831T050433,2600,5,10,149(0x95),-107,83,-11,0,23,450f06,24741,1280,REGISTERED,CONNECTED,CS_PS_MODE1,18,0,303659,377451407,1273504246,255650,1937,LGU
20220831T050436,2600,5,10,149(0x95),-107,83,-11,0,23,450f06,24741,1280,REGISTERED,CONNECTED,CS_PS_MODE1,18,0,306657,377451403,1273504233,255670,1954,LGU
20220831T050438,2600,5,10,149(0x95),-107,83,-11,0,23,450f06,24741,1280,REGISTERED,CONNECTED,CS_PS_MODE1,18,0,308654,377451405,1273504221,255660,1948,LGU
20220831T050440,2600,5,10,149(0x95),-107,83,-11,0,23,450f06,24741,1280,REGISTERED,CONNECTED,CS_PS_MODE1,18,0,310652,377451411,1273504211,255720,2003,LGU
20220831T050442,2600,5,10,149(0x95),-107,83,-11,0,23,450f06,24741,1280,REGISTERED,CONNECTED,CS_PS_MODE1,18,0,312649,377451413,1273504202,255730,2014,LGU
20220831T050444,2600,5,10,149(0x95),-107,83,-11,0,23,450f06,24741,1280,REGISTERED,CONNECTED,CS_PS_MODE1,18,0,314647,377451417,1273504189,255720,2007,LGU
20220831T050446,2600,5,10,149(0x95),-107,77,-11,0,23,450f06,24741,1280,REGISTERED,CONNECTED,CS_PS_MODE1,18,0,316645,377451420,1273504178,255670,1952,LGU
20220831T050448,2600,5,10,149(0x95),-107,77,-11,0,23,450f06,24741,1280,REGISTERED,CONNECTED,CS_PS_MODE1,18,0,318645,377451433,1273504164,255690,1972,LGU
20220831T050451,2600,5,10,149(0x95),-112,87,-11,0,23,450f06,24741,1280,REGISTERED,CONNECTED,CS_PS_MODE1,18,0,321974,377451461,1273504151,255730,2016,LGU
20220831T050453,2600,5,10,149(0x95),-112,87,-11,0,23,450f06,24741,1280,REGISTERED,CONNECTED,CS_PS_MODE1,18,0,323972,377451481,1273504145,255740,2020,LGU
20220831T050455,2600,5,10,149(0x95),-112,87,-11,0,23,450f06,24741,1280,REGISTERED,CONNECTED,CS_PS_MODE1,18,0,325969,377451497,1273504140,255700,1983,LGU
20220831T050459,2600,5,10,149(0x95),-106,87,-11,0,23,450f06,24741,1280,REGISTERED,CONNECTED,CS_PS_MODE1,18,0,329667,377451519,1273504130,255680,1969,LGU
20220831T050501,2600,5,10,149(0x95),-106,87,-11,0,23,450f06,24741,1280,REGISTERED,CONNECTED,CS_PS_MODE1,18,0,332332,377451537,1273504126,255710,1990,LGU
20220831T050503,2600,5,10,149(0x95),-106,87,-11,0,23,450f06,24741,1280,REGISTERED,CONNECTED,CS_PS_MODE1,18,0,333662,377451547,1273504127,255730,2013,LGU
20220831T050505,2600,5,10,149(0x95),-106,87,-11,0,23,450f06,24741,1280,REGISTERED,CONNECTED,CS_PS_MODE1,18,0,336327,377451562,1273504124,255720,2004,LGU
20220831T050508,2600,5,10,149(0x95),-106,77,-11,0,23,450f06,24741,1280,REGISTERED,CONNECTED,CS_PS_MODE1,18,0,338992,377451575,1273504131,255740,2026,LGU
20220831T050512,2600,5,10,149(0x95),-106,83,-11,0,23,450f06,24741,1280,REGISTERED,CONNECTED,CS_PS_MODE1,18,0,342987,377451585,1273504134,255690,1970,LGU
20220831T050516,2600,5,10,149(0x95),-106,83,-11,0,23,450f06,24741,1280,REGISTERED,CONNECTED,CS_PS_MODE1,18,0,346982,377451586,1273504143,255690,1973,LGU
20220831T050518,2600,5,10,149(0x95),-106,83,-11,0,22,450f06,24741,1280,REGISTERED,CONNECTED,CS_PS_MODE1,18,0,348647,377451588,1273504151,255690,1975,LGU
20220831T050520,2600,5,10,149(0x95),-111,83,-11,0,23,450f06,24741,1280,REGISTERED,CONNECTED,CS_PS_MODE1,18,0,350645,377451589,1273504159,255670,1959,LGU
20220831T050523,2600,5,10,149(0x95),-111,83,-11,0,23,450f06,24741,1280,REGISTERED,CONNECTED,CS_PS_MODE1,18,0,354309,377451590,1273504163,255730,2018,LGU
20220831T050525,2600,5,10,149(0x95),-111,83,-11,0,22,450f06,24741,1280,REGISTERED,CONNECTED,CS_PS_MODE1,18,0,356307,377451592,1273504163,255750,2037,LGU
20220831T050527,2600,5,10,149(0x95),-111,83,-11,0,23,450f06,24741,1280,REGISTERED,CONNECTED,CS_PS_MODE1,18,0,358304,377451595,1273504163,255770,2054,LGU
20220831T050529,2600,5,10,149(0x95),-111,83,-11,0,23,450f06,24741,1280,REGISTERED,CONNECTED,CS_PS_MODE1,18,0,360302,377451597,1273504163,255770,2054,LGU
20220831T050531,2600,5,10,149(0x95),-111,83,-11,0,23,450f06,24741,1280,REGISTERED,CONNECTED,CS_PS_MODE1,18,0,362302,377451599,1273504161,255780,2069,LGU
20220831T050533,2600,5,10,149(0x95),-111,83,-11,0,22,450f06,24741,1280,REGISTERED,CONNECTED,CS_PS_MODE1,18,0,364299,377451598,1273504162,255810,2091,LGU
20220831T050535,2600,5,10,149(0x95),-111,83,-11,0,22,450f06,24741,1280,REGISTERED,CONNECTED,CS_PS_MODE1,18,0,366297,377451599,1273504162,255760,2040,LGU
20220831T050537,2600,5,10,149(0x95),-111,83,-11,0,23,450f06,24741,1280,REGISTERED,CONNECTED,CS_PS_MODE1,18,0,368295,377451601,1273504166,255760,2044,LGU
20220831T050540,2600,5,10,149(0x95),-111,83,-11,0,23,450f06,24741,1280,REGISTERED,CONNECTED,CS_PS_MODE1,18,0,370625,377451604,1273504177,255750,2037,LGU
20220831T050542,2600,5,10,149(0x95),-111,83,-11,0,18,450f06,24741,1280,REGISTERED,CONNECTED,CS_PS_MODE1,18,0,372625,377451607,1273504187,255720,2000,LGU
20220831T050544,2600,5,10,149(0x95),-111,83,-11,0,23,450f06,24741,1280,REGISTERED,CONNECTED,CS_PS_MODE1,18,0,374622,377451610,1273504197,255710,1994,LGU
20220831T050546,2600,5,10,149(0x95),-111,83,-11,0,23,450f06,24741,1280,REGISTERED,CONNECTED,CS_PS_MODE1,18,0,376619,377451611,1273504204,255730,2010,LGU
20220831T050548,2600,5,10,149(0x95),-111,83,-11,0,23,450f06,24741,1280,REGISTERED,CONNECTED,CS_PS_MODE1,18,0,378952,377451607,1273504209,255790,2072,LGU
20220831T050550,2600,5,10,149(0x95),-111,83,-11,0,23,450f06,24741,1280,REGISTERED,CONNECTED,CS_PS_MODE1,18,0,380617,377451604,1273504213,255790,2071,LGU
20220831T050552,2600,5,10,149(0x95),-111,83,-11,0,23,450f06,24741,1280,REGISTERED,CONNECTED,CS_PS_MODE1,18,0,382614,377451595,1273504220,255760,2047,LGU
20220831T050554,2600,5,10,149(0x95),-111,83,-11,0,23,450f06,24741,1280,REGISTERED,CONNECTED,CS_PS_MODE1,18,0,384612,377451588,1273504223,255760,2044,LGU
20220831T050557,2600,5,10,149(0x95),-111,83,-11,0,23,450f06,24741,1280,REGISTERED,CONNECTED,CS_PS_MODE1,18,0,388274,377451582,1273504229,255790,2078,LGU
20220831T050559,2600,5,10,149(0x95),-111,83,-11,0,23,450f06,24741,1280,REGISTERED,CONNECTED,CS_PS_MODE1,18,0,390272,377451577,1273504232,255770,2059,LGU
20220831T050601,2600,5,10,149(0x95),-111,83,-11,0,23,450f06,24741,1280,REGISTERED,CONNECTED,CS_PS_MODE1,18,0,391604,377451573,1273504233,255790,2072,LGU
20220831T050603,2600,5,10,149(0x95),-111,83,-11,0,23,450f06,24741,1280,REGISTERED,CONNECTED,CS_PS_MODE1,18,0,394269,377451567,1273504231,255820,2106,LGU
20220831T050605,2600,5,10,149(0x95),-111,83,-11,0,23,450f06,24741,1280,REGISTERED,CONNECTED,CS_PS_MODE1,18,0,396267,377451564,1273504234,255840,2120,LGU
20220831T050607,2600,5,10,149(0x95),-111,83,-11,0,23,450f06,24741,1280,REGISTERED,CONNECTED,CS_PS_MODE1,18,0,398264,377451557,1273504237,255830,2110,LGU
20220831T050609,2600,5,10,149(0x95),-111,83,-11,0,23,450f06,24741,1280,REGISTERED,CONNECTED,CS_PS_MODE1,18,0,400262,377451552,1273504238,255790,2078,LGU
20220831T050612,2600,5,10,149(0x95),-111,83,-11,0,23,450f06,24741,1280,REGISTERED,CONNECTED,CS_PS_MODE1,18,0,402595,377451550,1273504243,255820,2102,LGU
20220831T050614,2600,5,10,149(0x95),-111,83,-11,0,23,450f06,24741,1280,REGISTERED,CONNECTED,CS_PS_MODE1,18,0,404592,377451547,1273504245,255810,2095,LGU
20220831T050616,2600,5,10,149(0x95),-111,83,-11,0,23,450f06,24741,1280,REGISTERED,CONNECTED,CS_PS_MODE1,18,0,406589,377451544,1273504246,255780,2065,LGU
20220831T050618,2600,5,10,149(0x95),-111,83,-11,0,23,450f06,24741,1280,REGISTERED,CONNECTED,CS_PS_MODE1,18,0,408587,377451543,1273504247,255770,2054,LGU
20220831T050620,2600,5,10,149(0x95),-111,83,-11,0,23,450f06,24741,1280,REGISTERED,CONNECTED,CS_PS_MODE1,18,0,410587,377451541,1273504251,255750,2035,LGU
20220831T050622,2600,5,10,149(0x95),-111,83,-11,0,23,450f06,24741,1280,REGISTERED,CONNECTED,CS_PS_MODE1,18,0,412584,377451535,1273504252,255760,2048,LGU
20220831T050624,2600,5,10,149(0x95),-111,83,-11,0,0,450f06,24741,1280,REGISTERED,CONNECTED,CS_PS_MODE1,18,0,414582,377451531,1273504247,255730,2010,LGU
20220831T050626,2600,5,10,149(0x95),-111,83,-11,0,23,450f06,24741,1280,REGISTERED,CONNECTED,CS_PS_MODE1,18,0,416912,377451525,1273504247,255730,2019,LGU
20220831T050629,2600,5,10,149(0x95),-111,83,-11,0,23,450f06,24741,1280,REGISTERED,CONNECTED,CS_PS_MODE1,18,0,419577,377451520,1273504243,255770,2054,LGU
20220831T050631,2600,5,10,149(0x95),-111,83,-11,0,23,450f06,24741,1280,REGISTERED,CONNECTED,CS_PS_MODE1,18,0,421575,377451519,1273504239,255720,2001,LGU
20220831T050633,2600,5,10,149(0x95),-111,83,-11,0,23,450f06,24741,1280,REGISTERED,CONNECTED,CS_PS_MODE1,18,0,423572,377451515,1273504238,255760,2045,LGU
20220831T050635,2600,5,10,149(0x95),-111,83,-11,0,21,450f06,24741,1280,REGISTERED,CONNECTED,CS_PS_MODE1,18,0,425572,377451508,1273504228,255810,2090,LGU
20220831T050637,2600,5,10,149(0x95),-111,89,-11,0,22,450f06,24741,1280,REGISTERED,CONNECTED,CS_PS_MODE1,18,0,427570,377451504,1273504218,255780,2065,LGU
20220831T050639,2600,5,10,149(0x95),-111,89,-11,0,23,450f06,24741,1280,REGISTERED,CONNECTED,CS_PS_MODE1,18,0,429570,377451497,1273504205,255740,2024,LGU
20220831T050641,2600,5,10,149(0x95),-111,89,-11,0,23,450f06,24741,1280,REGISTERED,CONNECTED,CS_PS_MODE1,18,0,431570,377451494,1273504194,255740,2026,LGU
20220831T050643,2600,5,10,149(0x95),-111,89,-11,0,23,450f06,24741,1280,REGISTERED,CONNECTED,CS_PS_MODE1,18,0,433562,377451491,1273504187,255740,2025,LGU
20220831T050646,2600,5,10,149(0x95),-111,89,-11,0,23,450f06,24741,1280,REGISTERED,CONNECTED,CS_PS_MODE1,18,0,436560,377451487,1273504178,255800,2087,LGU
20220831T050648,2600,5,10,149(0x95),-111,82,-11,0,22,450f06,24741,1280,REGISTERED,CONNECTED,CS_PS_MODE1,18,0,438557,377451487,1273504167,255800,2084,LGU
20220831T050650,2600,5,10,149(0x95),-111,82,-11,0,22,450f06,24741,1280,REGISTERED,CONNECTED,CS_PS_MODE1,18,0,440557,377451484,1273504162,255790,2078,LGU
20220831T050652,2600,5,10,149(0x95),-111,82,-11,0,23,450f06,24741,1280,REGISTERED,CONNECTED,CS_PS_MODE1,18,0,442554,377451485,1273504156,255780,2068,LGU
20220831T050654,2600,5,10,149(0x95),-111,82,-11,0,23,450f06,24741,1280,REGISTERED,CONNECTED,CS_PS_MODE1,18,0,444552,377451484,1273504152,255770,2050,LGU
20220831T050656,2600,5,10,149(0x95),-111,82,-11,0,22,450f06,24741,1280,REGISTERED,CONNECTED,CS_PS_MODE1,18,0,446549,377451482,1273504151,255730,2016,LGU
20220831T050658,2600,5,10,149(0x95),-111,82,-11,0,23,450f06,24741,1280,REGISTERED,CONNECTED,CS_PS_MODE1,18,0,448547,377451480,1273504147,255770,2054,LGU
20220831T050701,2600,5,10,149(0x95),-111,82,-11,0,23,450f06,24741,1280,REGISTERED,CONNECTED,CS_PS_MODE1,18,0,451545,377451476,1273504142,255750,2030,LGU
20220831T050703,2600,5,10,149(0x95),-111,82,-11,0,23,450f06,24741,1280,REGISTERED,CONNECTED,CS_PS_MODE1,18,0,453542,377451474,1273504138,255750,2030,LGU
20220831T050705,2600,5,10,149(0x95),-111,82,-11,0,23,450f06,24741,1280,REGISTERED,CONNECTED,CS_PS_MODE1,18,0,455540,377451473,1273504137,255760,2045,LGU
20220831T050707,2600,5,10,149(0x95),-111,82,-11,0,23,450f06,24741,1280,REGISTERED,CONNECTED,CS_PS_MODE1,18,0,457540,377451477,1273504135,255760,2048,LGU
20220831T050709,2600,5,10,149(0x95),-111,82,-11,0,23,450f06,24741,1280,REGISTERED,CONNECTED,CS_PS_MODE1,18,0,459537,377451480,1273504135,255750,2035,LGU
20220831T050711,2600,5,10,149(0x95),-111,82,-11,0,22,450f06,24741,1280,REGISTERED,CONNECTED,CS_PS_MODE1,18,0,461534,377451482,1273504137,255720,2007,LGU
20220831T050713,2600,5,10,149(0x95),-111,82,-11,0,23,450f06,24741,1280,REGISTERED,CONNECTED,CS_PS_MODE1,18,0,463532,377451484,1273504138,255710,1992,LGU
20220831T050715,2600,5,10,149(0x95),-111,82,-11,0,22,450f06,24741,1280,REGISTERED,CONNECTED,CS_PS_MODE1,18,0,465532,377451487,1273504133,255730,2015,LGU
20220831T050718,2600,5,10,149(0x95),-111,82,-11,0,23,450f06,24741,1280,REGISTERED,CONNECTED,CS_PS_MODE1,18,0,468862,377451494,1273504131,255700,1981,LGU
20220831T050720,2600,5,10,149(0x95),-111,88,-11,0,22,450f06,24741,1280,REGISTERED,CONNECTED,CS_PS_MODE1,18,0,470859,377451497,1273504132,255760,2044,LGU
20220831T050722,2600,5,10,149(0x95),-111,82,-11,0,22,450f06,24741,1280,REGISTERED,CONNECTED,CS_PS_MODE1,18,0,472857,377451500,1273504135,255800,2080,LGU
20220831T050724,2600,5,10,149(0x95),-111,82,-11,0,23,450f06,24741,1280,REGISTERED,CONNECTED,CS_PS_MODE1,18,0,474854,377451505,1273504137,255760,2042,LGU
20220831T050726,2600,5,10,149(0x95),-111,89,-11,0,23,450f06,24741,1280,REGISTERED,CONNECTED,CS_PS_MODE1,18,0,476852,377451508,1273504135,255760,2046,LGU
20220831T050728,2600,5,10,149(0x95),-111,89,-11,0,23,450f06,24741,1280,REGISTERED,CONNECTED,CS_PS_MODE1,18,0,478852,377451511,1273504134,255780,2069,LGU
20220831T050730,2600,5,10,149(0x95),-111,89,-11,0,23,450f06,24741,1280,REGISTERED,CONNECTED,CS_PS_MODE1,18,0,480849,377451517,1273504130,255760,2045,LGU
20220831T050732,2600,5,10,149(0x95),-111,89,-11,0,23,450f06,24741,1280,REGISTERED,CONNECTED,CS_PS_MODE1,18,0,482847,377451515,1273504126,255710,1995,LGU
20220831T050735,2600,5,10,149(0x95),-111,89,-11,0,23,450f06,24741,1280,REGISTERED,CONNECTED,CS_PS_MODE1,18,0,485512,377451516,1273504121,255750,2032,LGU
20220831T050737,2600,5,10,149(0x95),-111,89,-11,0,23,450f06,24741,1280,REGISTERED,CONNECTED,CS_PS_MODE1,18,0,487509,377451519,1273504111,255740,2022,LGU
20220831T050739,2600,5,10,149(0x95),-111,89,-11,0,23,450f06,24741,1280,REGISTERED,CONNECTED,CS_PS_MODE1,18,0,489507,377451522,1273504100,255790,2077,LGU
20220831T050741,2600,5,10,149(0x95),-111,89,-11,0,23,450f06,24741,1280,REGISTERED,CONNECTED,CS_PS_MODE1,18,0,491504,377451524,1273504097,255800,2082,LGU
20220831T050743,2600,5,10,149(0x95),-111,89,-11,0,23,450f06,24741,1280,REGISTERED,CONNECTED,CS_PS_MODE1,18,0,493502,377451523,1273504091,255780,2064,LGU
20220831T050745,2600,5,10,149(0x95),-111,89,-11,0,23,450f06,24741,1280,REGISTERED,CONNECTED,CS_PS_MODE1,18,0,495502,377451530,1273504089,255750,2039,LGU
20220831T050747,2600,5,10,149(0x95),-111,89,-11,0,23,450f06,24741,1280,REGISTERED,CONNECTED,CS_PS_MODE1,18,0,497499,377451537,1273504089,255800,2085,LGU
20220831T050750,2600,5,10,149(0x95),-111,89,-11,0,23,450f06,24741,1280,REGISTERED,CONNECTED,CS_PS_MODE1,18,0,501162,377451550,1273504088,255880,2164,LGU
20220831T050752,2600,5,10,149(0x95),-111,89,-11,0,23,450f06,24741,1280,REGISTERED,CONNECTED,CS_PS_MODE1,18,0,503159,377451556,1273504084,255910,2191,LGU
20220831T050754,2600,5,10,149(0x95),-111,89,-11,0,22,450f06,24741,1280,REGISTERED,CONNECTED,CS_PS_MODE1,18,0,505157,377451563,1273504080,255910,2196,LGU
20220831T050756,2600,5,10,149(0x95),-111,89,-11,0,23,450f06,24741,1280,REGISTERED,CONNECTED,CS_PS_MODE1,18,0,507157,377451574,1273504076,255890,2172,LGU
20220831T050758,2600,5,10,149(0x95),-111,89,-11,0,22,450f06,24741,1280,REGISTERED,CONNECTED,CS_PS_MODE1,18,0,509154,377451581,1273504072,255820,2103,LGU
20220831T050800,2600,5,10,149(0x95),-111,89,-11,0,23,450f06,24741,1280,REGISTERED,CONNECTED,CS_PS_MODE1,18,0,511152,377451588,1273504072,255810,2095,LGU
20220831T050802,2600,5,10,149(0x95),-111,89,-11,0,23,450f06,24741,1280,REGISTERED,CONNECTED,CS_PS_MODE1,18,0,513149,377451600,1273504068,255810,2094,LGU
20220831T050804,2600,5,10,149(0x95),-111,89,-11,0,23,450f06,24741,1280,REGISTERED,CONNECTED,CS_PS_MODE1,18,0,515147,377451608,1273504065,255810,2090,LGU
20220831T050807,2600,5,10,149(0x95),-111,89,-11,0,23,450f06,24741,1280,REGISTERED,CONNECTED,CS_PS_MODE1,18,0,517479,377451618,1273504062,255890,2178,LGU
20220831T050809,2600,5,10,149(0x95),-111,89,-11,0,23,450f06,24741,1280,REGISTERED,CONNECTED,CS_PS_MODE1,18,0,519477,377451623,1273504054,255870,2151,LGU
20220831T050811,2600,5,10,149(0x95),-111,89,-11,0,23,450f06,24741,1280,REGISTERED,CONNECTED,CS_PS_MODE1,18,0,521474,377451629,1273504044,255830,2113,LGU
20220831T050813,2600,5,10,149(0x95),-111,89,-11,0,23,450f06,24741,1280,REGISTERED,CONNECTED,CS_PS_MODE1,18,0,523805,377451639,1273504039,255850,2132,LGU
20220831T050815,2600,5,10,149(0x95),-111,89,-11,0,22,450f06,24741,1280,REGISTERED,CONNECTED,CS_PS_MODE1,18,0,525805,377451642,1273504036,255830,2119,LGU
20220831T050817,2600,5,10,149(0x95),-111,89,-11,0,23,450f06,24741,1280,REGISTERED,CONNECTED,CS_PS_MODE1,18,0,527802,377451644,1273504031,255870,2159,LGU
20220831T050819,2600,5,10,149(0x95),-111,89,-11,0,23,450f06,24741,1280,REGISTERED,CONNECTED,CS_PS_MODE1,18,0,529799,377451647,1273504027,255870,2156,LGU
20220831T050822,2600,5,10,149(0x95),-111,89,-11,0,23,450f06,24741,1280,REGISTERED,CONNECTED,CS_PS_MODE1,18,0,533129,377451650,1273504019,255870,2157,LGU
20220831T050824,2600,5,10,149(0x95),-111,83,-11,0,22,450f06,24741,1280,REGISTERED,CONNECTED,CS_PS_MODE1,18,0,535127,377451648,1273504017,255850,2135,LGU
20220831T050826,2600,5,10,149(0x95),-111,83,-11,0,23,450f06,24741,1280,REGISTERED,CONNECTED,CS_PS_MODE1,18,0,537127,377451647,1273504016,255910,2192,LGU
20220831T050828,2600,5,10,149(0x95),-111,83,-11,0,23,450f06,24741,1280,REGISTERED,CONNECTED,CS_PS_MODE1,18,0,539124,377451647,1273504011,255870,2155,LGU
20220831T050830,2600,5,10,149(0x95),-111,83,-11,0,22,450f06,24741,1280,REGISTERED,CONNECTED,CS_PS_MODE1,18,0,541122,377451649,1273504011,255850,2135,LGU
20220831T050832,2600,5,10,149(0x95),-111,83,-11,0,23,450f06,24741,1280,REGISTERED,CONNECTED,CS_PS_MODE1,18,0,543119,377451651,1273504013,255870,2158,LGU
20220831T050834,2600,5,10,149(0x95),-111,83,-11,0,23,450f06,24741,1280,REGISTERED,CONNECTED,CS_PS_MODE1,18,0,545117,377451651,1273504016,255870,2153,LGU
20220831T050836,2600,5,10,149(0x95),-111,83,-11,0,23,450f06,24741,1280,REGISTERED,CONNECTED,CS_PS_MODE1,18,0,547117,377451651,1273504021,255880,2162,LGU
20220831T050839,2600,5,10,149(0x95),-111,83,-11,0,23,450f06,24741,1280,REGISTERED,CONNECTED,CS_PS_MODE1,18,0,549779,377451656,1273504027,255850,2138,LGU
20220831T050841,2600,5,10,149(0x95),-111,83,-11,0,23,450f06,24741,1280,REGISTERED,CONNECTED,CS_PS_MODE1,18,0,551777,377451656,1273504030,255820,2105,LGU
20220831T050843,2600,5,10,149(0x95),-111,83,-11,0,23,450f06,24741,1280,REGISTERED,CONNECTED,CS_PS_MODE1,18,0,553777,377451661,1273504033,255830,2119,LGU
20220831T050845,2600,5,10,149(0x95),-111,83,-11,0,23,450f06,24741,1280,REGISTERED,CONNECTED,CS_PS_MODE1,18,0,555774,377451668,1273504033,255880,2165,LGU
20220831T050847,2600,5,10,149(0x95),-111,83,-11,0,23,450f06,24741,1280,REGISTERED,CONNECTED,CS_PS_MODE1,18,0,557772,377451672,1273504039,255900,2183,LGU
20220831T050849,2600,5,10,149(0x95),-111,83,-11,0,23,450f06,24741,1280,REGISTERED,CONNECTED,CS_PS_MODE1,18,0,559769,377451677,1273504047,255890,2176,LGU
20220831T050851,2600,5,10,149(0x95),-111,83,-11,0,23,450f06,24741,1280,REGISTERED,CONNECTED,CS_PS_MODE1,18,0,561767,377451680,1273504055,255850,2131,LGU
20220831T050854,2600,5,10,149(0x95),-106,83,-11,0,22,450f06,24741,1280,REGISTERED,CONNECTED,CS_PS_MODE1,18,0,565432,377451694,1273504058,255820,2104,LGU
20220831T050856,2600,5,10,149(0x95),-106,83,-11,0,23,450f06,24741,1280,REGISTERED,CONNECTED,CS_PS_MODE1,18,0,567429,377451700,1273504058,255820,2102,LGU
20220831T050858,2600,5,10,149(0x95),-106,83,-11,0,23,450f06,24741,1280,REGISTERED,CONNECTED,CS_PS_MODE1,18,0,569427,377451705,1273504054,255790,2076,LGU
20220831T050900,2600,5,10,149(0x95),-106,83,-11,0,23,450f06,24741,1280,REGISTERED,CONNECTED,CS_PS_MODE1,18,0,571424,377451754,1273504088,255970,2256,LGU
20220831T050902,2600,5,10,149(0x95),-112,83,-11,0,23,450f06,24741,1280,REGISTERED,CONNECTED,CS_PS_MODE1,18,0,573422,377451850,1273504196,255880,2161,LGU
20220831T050904,2600,5,10,149(0x95),-112,83,-11,0,22,450f06,24741,1280,REGISTERED,CONNECTED,CS_PS_MODE1,18,0,575422,377452033,1273504465,255900,2187,LGU
20220831T050906,2600,5,10,149(0x95),-112,83,-11,0,23,450f06,24741,1280,REGISTERED,CONNECTED,CS_PS_MODE1,18,0,576752,377452174,1273504599,255840,2120,LGU
20220831T050908,2600,5,10,149(0x95),-107,83,-11,0,22,450f06,24741,1280,REGISTERED,CONNECTED,CS_PS_MODE1,18,0,578752,377452331,1273504817,255700,1988,LGU
20220831T050911,2600,5,10,149(0x95),-107,83,-11,0,23,450f06,24741,1280,REGISTERED,CONNECTED,CS_PS_MODE1,18,0,581747,377452412,1273504881,254930,1217,LGU
20220831T050913,2600,5,10,149(0x95),-107,83,-11,0,23,450f06,24741,1280,REGISTERED,CONNECTED,CS_PS_MODE1,18,0,583745,377452408,1273504885,254940,1222,LGU
20220831T050915,2600,5,10,149(0x95),-107,83,-11,0,23,450f06,24741,1280,REGISTERED,CONNECTED,CS_PS_MODE1,18,0,585745,377452408,1273504890,254870,1154,LGU
20220831T050917,2600,5,10,149(0x95),-107,83,-11,0,22,450f06,24741,1280,REGISTERED,CONNECTED,CS_PS_MODE1,18,0,587742,377452414,1273504898,254790,1072,LGU
20220831T050919,2600,5,10,149(0x95),-107,83,-11,0,23,450f06,24741,1280,REGISTERED,CONNECTED,CS_PS_MODE1,18,0,589739,377452417,1273504909,254770,1058,LGU
20220831T050921,2600,5,10,149(0x95),-107,83,-11,0,23,450f06,24741,1280,REGISTERED,CONNECTED,CS_PS_MODE1,18,0,591737,377452424,1273504914,254800,1082,LGU
20220831T050923,2600,5,10,149(0x95),-107,83,-11,0,23,450f06,24741,1280,REGISTERED,CONNECTED,CS_PS_MODE1,18,0,593735,377452424,1273504920,254760,1043,LGU
20220831T050925,2600,5,10,149(0x95),-107,83,-11,0,23,450f06,24741,1280,REGISTERED,CONNECTED,CS_PS_MODE1,18,0,595735,377452424,1273504924,254740,1028,LGU
20220831T050928,2600,5,10,149(0x95),-107,83,-11,0,22,450f06,24741,1280,REGISTERED,CONNECTED,CS_PS_MODE1,18,0,598732,377452421,1273504931,254790,1076,LGU
20220831T050930,2600,5,10,149(0x95),-107,83,-11,0,23,450f06,24741,1280,REGISTERED,CONNECTED,CS_PS_MODE1,18,0,600729,377452417,1273504934,254760,1046,LGU
20220831T050932,2600,5,10,149(0x95),-107,83,-11,0,17,450f06,24741,1280,REGISTERED,CONNECTED,CS_PS_MODE1,18,0,602727,377452414,1273504938,254730,1015,LGU
20220831T050934,2600,5,10,149(0x95),-107,83,-11,0,15,450f06,24741,1280,REGISTERED,CONNECTED,CS_PS_MODE1,18,0,604724,377452409,1273504941,254720,1007,LGU
20220831T050936,2600,5,10,149(0x95),-107,83,-11,0,19,450f06,24741,1280,REGISTERED,CONNECTED,CS_PS_MODE1,18,0,606722,377452405,1273504942,254680,961,LGU
20220831T050938,2600,5,10,149(0x95),-107,83,-11,0,0,450f06,24741,1280,REGISTERED,CONNECTED,CS_PS_MODE1,18,0,608722,377452401,1273504945,254640,925,LGU
20220831T050940,2600,5,10,149(0x95),-107,83,-6,0,23,450f06,24741,1280,REGISTERED,CONNECTED,CS_PS_MODE1,18,0,610719,377452393,1273504947,254660,949,LGU
20220831T050943,2600,5,10,149(0x95),-107,83,-6,0,23,450f06,24741,1280,REGISTERED,CONNECTED,CS_PS_MODE1,18,0,613717,377452381,1273504950,254660,947,LGU
20220831T050945,2600,5,10,149(0x95),-107,83,-6,0,18,450f06,24741,1280,REGISTERED,CONNECTED,CS_PS_MODE1,18,0,615714,377452371,1273504954,254670,959,LGU
20220831T050947,2600,5,10,149(0x95),-107,83,-6,0,22,450f06,24741,1280,REGISTERED,CONNECTED,CS_PS_MODE1,18,0,618045,377452362,1273504957,254670,956,LGU
20220831T050949,2600,5,10,149(0x95),-107,83,-6,0,19,450f06,24741,1280,REGISTERED,CONNECTED,CS_PS_MODE1,18,0,620042,377452357,1273504961,254670,951,LGU
20220831T050951,2600,5,10,149(0x95),-107,83,-6,0,23,450f06,24741,1280,REGISTERED,CONNECTED,CS_PS_MODE1,18,0,622042,377452354,1273504969,254660,941,LGU
20220831T050953,2600,5,10,149(0x95),-107,83,-6,0,23,450f06,24741,1280,REGISTERED,CONNECTED,CS_PS_MODE1,18,0,624039,377452351,1273504976,254660,949,LGU
20220831T050955,2600,5,10,149(0x95),-107,83,-6,0,21,450f06,24741,1280,REGISTERED,CONNECTED,CS_PS_MODE1,18,0,626037,377452345,1273504982,254640,928,LGU
20220831T050957,2600,5,10,149(0x95),-107,83,-6,0,20,450f06,24741,1280,REGISTERED,CONNECTED,CS_PS_MODE1,18,0,628035,377452342,1273504990,254660,941,LGU
20220831T051000,2600,5,10,149(0x95),-107,83,-6,0,22,450f06,24741,1280,REGISTERED,CONNECTED,CS_PS_MODE1,18,0,630699,377452339,1273504997,254650,939,LGU
20220831T051002,2600,5,10,149(0x95),-107,76,-6,0,23,450f06,24741,1280,REGISTERED,CONNECTED,CS_PS_MODE1,18,0,632697,377452333,1273505001,254650,939,LGU
20220831T051004,2600,5,10,149(0x95),-107,76,-6,0,23,450f06,24741,1280,REGISTERED,CONNECTED,CS_PS_MODE1,18,0,634695,377452330,1273505004,254690,972,LGU
20220831T051006,2600,5,10,149(0x95),-107,76,-6,0,23,450f06,24741,1280,REGISTERED,CONNECTED,CS_PS_MODE1,18,0,636692,377452327,1273505008,254690,978,LGU
20220831T051008,2600,5,10,149(0x95),-107,82,-6,0,23,450f06,24741,1280,REGISTERED,CONNECTED,CS_PS_MODE1,18,0,638692,377452318,1273505010,254660,947,LGU
20220831T051010,2600,5,10,149(0x95),-107,82,-6,0,22,450f06,24741,1280,REGISTERED,CONNECTED,CS_PS_MODE1,18,0,640689,377452309,1273505014,254660,940,LGU
20220831T051012,2600,5,10,149(0x95),-107,82,-6,0,23,450f06,24741,1280,REGISTERED,CONNECTED,CS_PS_MODE1,18,0,642687,377452300,1273505018,254650,935,LGU
20220831T051015,2600,5,10,149(0x95),-107,82,-6,0,23,450f06,24741,1280,REGISTERED,CONNECTED,CS_PS_MODE1,18,0,646017,377452287,1273505025,254640,927,LGU
20220831T051017,2600,5,10,149(0x95),-107,75,-6,0,23,450f06,24741,1280,REGISTERED,CONNECTED,CS_PS_MODE1,18,0,648347,377452279,1273505030,254650,937,LGU
20220831T051019,2600,5,10,149(0x95),-107,75,-6,0,23,450f06,24741,1280,REGISTERED,CONNECTED,CS_PS_MODE1,18,0,650345,377452275,1273505033,254660,948,LGU
20220831T051021,2600,5,10,149(0x95),-107,75,-6,0,23,450f06,24741,1280,REGISTERED,CONNECTED,CS_PS_MODE1,18,0,652345,377452271,1273505037,254640,926,LGU
20220831T051023,2600,5,10,149(0x95),-107,75,-6,0,23,450f06,24741,1280,REGISTERED,CONNECTED,CS_PS_MODE1,18,0,654342,377452263,1273505040,254590,877,LGU
20220831T051025,2600,5,10,149(0x95),-107,81,-6,0,23,450f06,24741,1280,REGISTERED,CONNECTED,CS_PS_MODE1,18,0,656339,377452257,1273505044,254610,899,LGU
20220831T051027,2600,5,10,149(0x95),-107,81,-6,0,23,450f06,24741,1280,REGISTERED,CONNECTED,CS_PS_MODE1,18,0,658337,377452252,1273505048,254580,868,LGU
20220831T051029,2600,5,10,149(0x95),-107,81,-6,0,23,450f06,24741,1280,REGISTERED,CONNECTED,CS_PS_MODE1,18,0,660335,377452248,1273505052,254580,868,LGU
20220831T051032,2600,5,10,149(0x95),-107,81,-6,0,21,450f06,24741,1280,REGISTERED,CONNECTED,CS_PS_MODE1,18,0,662667,377452244,1273505059,254570,858,LGU
20220831T051034,2600,5,10,149(0x95),-107,81,-6,0,23,450f06,24741,1280,REGISTERED,CONNECTED,CS_PS_MODE1,18,0,664664,377452242,1273505063,254600,889,LGU
20220831T051036,2600,5,10,149(0x95),-107,81,-6,0,23,450f06,24741,1280,REGISTERED,CONNECTED,CS_PS_MODE1,18,0,666662,377452242,1273505066,254610,892,LGU
20220831T051038,2600,5,10,149(0x95),-107,81,-6,0,18,450f06,24741,1280,REGISTERED,CONNECTED,CS_PS_MODE1,18,0,668662,377452243,1273505065,254610,896,LGU
20220831T051040,2600,5,10,149(0x95),-107,81,-6,0,17,450f06,24741,1280,REGISTERED,CONNECTED,CS_PS_MODE1,18,0,670659,377452246,1273505061,254590,876,LGU
20220831T051042,2600,5,10,149(0x95),-107,81,-6,0,23,450f06,24741,1280,REGISTERED,CONNECTED,CS_PS_MODE1,18,0,672657,377452245,1273505057,254550,831,LGU
20220831T051044,2600,5,10,149(0x95),-107,81,-6,0,23,450f06,24741,1280,REGISTERED,CONNECTED,CS_PS_MODE1,18,0,674654,377452247,1273505053,254530,812,LGU
20220831T051046,2600,5,10,149(0x95),-107,81,-6,0,22,450f06,24741,1280,REGISTERED,CONNECTED,CS_PS_MODE1,18,0,676652,377452249,1273505044,254530,814,LGU
20220831T051049,2600,5,10,149(0x95),-107,81,-6,0,23,450f06,24741,1280,REGISTERED,CONNECTED,CS_PS_MODE1,18,0,679649,377452251,1273505034,254490,779,LGU
20220831T051051,2600,5,10,149(0x95),-107,81,-6,0,23,450f06,24741,1280,REGISTERED,CONNECTED,CS_PS_MODE1,18,0,681647,377452251,1273505025,254540,820,LGU
20220831T051053,2600,5,10,149(0x95),-107,81,-6,0,23,450f06,24741,1280,REGISTERED,CONNECTED,CS_PS_MODE1,18,0,683645,377452251,1273505017,254540,823,LGU
20220831T051055,2600,5,10,149(0x95),-107,81,-6,0,23,450f06,24741,1280,REGISTERED,CONNECTED,CS_PS_MODE1,18,0,685645,377452251,1273505010,254530,814,LGU
20220831T051057,2600,5,10,149(0x95),-107,81,-6,0,23,450f06,24741,1280,REGISTERED,CONNECTED,CS_PS_MODE1,18,0,687642,377452251,1273505006,254540,821,LGU
20220831T051059,2600,5,10,149(0x95),-107,81,-6,0,23,450f06,24741,1280,REGISTERED,CONNECTED,CS_PS_MODE1,18,0,689639,377452252,1273505005,254540,823,LGU
20220831T051101,2600,5,10,149(0x95),-107,81,-6,0,23,450f06,24741,1280,REGISTERED,CONNECTED,CS_PS_MODE1,18,0,691637,377452255,1273505007,254560,843,LGU
20220831T051104,2600,5,10,149(0x95),-107,81,-6,0,22,450f06,24741,1280,REGISTERED,CONNECTED,CS_PS_MODE1,18,0,694635,377452260,1273505011,254550,833,LGU
20220831T051106,2600,5,10,149(0x95),-107,81,-6,0,23,450f06,24741,1280,REGISTERED,CONNECTED,CS_PS_MODE1,18,0,696632,377452265,1273505015,254580,862,LGU
20220831T051108,2600,5,10,149(0x95),-107,81,-6,0,22,450f06,24741,1280,REGISTERED,CONNECTED,CS_PS_MODE1,18,0,698632,377452271,1273505018,254580,866,LGU
20220831T051110,2600,5,10,149(0x95),-107,81,-6,0,23,450f06,24741,1280,REGISTERED,CONNECTED,CS_PS_MODE1,18,0,700629,377452277,1273505023,254560,842,LGU
20220831T051112,2600,5,10,149(0x95),-107,81,-6,0,23,450f06,24741,1280,REGISTERED,CONNECTED,CS_PS_MODE1,18,0,702627,377452283,1273505027,254530,817,LGU
20220831T051114,2600,5,10,149(0x95),-107,81,-6,0,23,450f06,24741,1280,REGISTERED,CONNECTED,CS_PS_MODE1,18,0,704624,377452292,1273505033,254520,802,LGU
20220831T051116,2600,5,10,149(0x95),-107,81,-6,0,23,450f06,24741,1280,REGISTERED,CONNECTED,CS_PS_MODE1,18,0,706957,377452303,1273505035,254510,795,LGU
20220831T051118,2600,5,10,149(0x95),-107,81,-6,0,22,450f06,24741,1280,REGISTERED,CONNECTED,CS_PS_MODE1,18,0,708954,377452312,1273505040,254490,778,LGU
20220831T051121,2600,5,10,149(0x95),-107,81,-6,0,23,450f06,24741,1280,REGISTERED,CONNECTED,CS_PS_MODE1,18,0,711617,377452321,1273505041,254470,758,LGU
20220831T051123,2600,5,10,149(0x95),-107,81,-6,0,23,450f06,24741,1280,REGISTERED,CONNECTED,CS_PS_MODE1,18,0,713617,377452325,1273505042,254460,747,LGU
20220831T051125,2600,5,10,149(0x95),-107,81,-6,0,19,450f06,24741,1280,REGISTERED,CONNECTED,CS_PS_MODE1,18,0,715614,377452330,1273505043,254480,765,LGU
20220831T051127,2600,5,10,149(0x95),-107,81,-6,0,0,450f06,24741,1280,REGISTERED,CONNECTED,CS_PS_MODE1,18,0,717612,377452336,1273505039,254460,744,LGU
20220831T051129,2600,5,10,149(0x95),-107,81,-6,0,22,450f06,24741,1280,REGISTERED,CONNECTED,CS_PS_MODE1,18,0,719609,377452343,1273505030,254700,986,LGU
20220831T051131,2600,5,10,149(0x95),-107,81,-6,0,23,450f06,24741,1280,REGISTERED,CONNECTED,CS_PS_MODE1,18,0,721607,377452262,1273504864,255290,1576,LGU
20220831T051133,2600,5,10,149(0x95),-107,81,-6,0,23,450f06,24741,1280,REGISTERED,CONNECTED,CS_PS_MODE1,18,0,723607,377452174,1273504620,255310,1594,LGU
20220831T051135,2600,5,10,149(0x95),-107,81,-6,0,23,450f06,24741,1280,REGISTERED,CONNECTED,CS_PS_MODE1,18,0,725604,377452114,1273504357,255510,1794,LGU
20220831T051138,2600,5,10,149(0x95),-107,81,-6,0,23,450f06,24741,1280,REGISTERED,CONNECTED,CS_PS_MODE1,18,0,728935,377451973,1273503946,255610,1891,LGU
20220831T051140,2600,5,10,149(0x95),-107,81,-6,0,23,450f06,24741,1280,REGISTERED,CONNECTED,CS_PS_MODE1,18,0,730932,377451908,1273503721,255600,1889,LGU
20220831T051142,2600,5,10,149(0x95),-107,81,-6,0,22,450f06,24741,1280,REGISTERED,CONNECTED,CS_PS_MODE1,18,0,732929,377451908,1273503661,255080,1364,LGU
20220831T051144,2600,5,10,149(0x95),-107,81,-6,0,23,450f06,24741,1280,REGISTERED,CONNECTED,CS_PS_MODE1,18,0,734927,377451928,1273503658,255000,1288,LGU
20220831T051146,2600,5,10,149(0x95),-107,81,-6,0,23,450f06,24741,1280,REGISTERED,CONNECTED,CS_PS_MODE1,18,0,736927,377451927,1273503659,254890,1176,LGU
20220831T051148,2600,5,10,149(0x95),-107,81,-6,0,23,450f06,24741,1280,REGISTERED,CONNECTED,CS_PS_MODE1,18,0,738924,377451929,1273503648,254780,1066,LGU
20220831T051150,2600,5,10,149(0x95),-107,81,-6,0,22,450f06,24741,1280,REGISTERED,CONNECTED,CS_PS_MODE1,18,0,741254,377451943,1273503647,254750,1033,LGU
20220831T051153,2600,5,10,149(0x95),-107,81,-6,0,22,450f06,24741,1280,REGISTERED,CONNECTED,CS_PS_MODE1,18,0,743587,377451950,1273503655,254790,1077,LGU
20220831T051155,2600,5,10,149(0x95),-107,81,-6,0,23,450f06,24741,1280,REGISTERED,CONNECTED,CS_PS_MODE1,18,0,745584,377451962,1273503660,254800,1087,LGU
20220831T051157,2600,5,10,149(0x95),-107,81,-6,0,22,450f06,24741,1280,REGISTERED,CONNECTED,CS_PS_MODE1,18,0,747582,377451971,1273503663,254760,1042,LGU
20220831T051159,2600,5,10,149(0x95),-107,81,-6,0,22,450f06,24741,1280,REGISTERED,CONNECTED,CS_PS_MODE1,18,0,749579,377451981,1273503663,254770,1051,LGU
20220831T051201,2600,5,10,149(0x95),-107,81,-6,0,23,450f06,24741,1280,REGISTERED,CONNECTED,CS_PS_MODE1,18,0,751577,377451988,1273503662,254750,1032,LGU
20220831T051203,2600,5,10,149(0x95),-107,81,-6,0,23,450f06,24741,1280,REGISTERED,CONNECTED,CS_PS_MODE1,18,0,753577,377451996,1273503659,254770,1053,LGU
20220831T051205,2600,5,10,149(0x95),-107,81,-6,0,23,450f06,24741,1280,REGISTERED,CONNECTED,CS_PS_MODE1,18,0,755574,377452005,1273503656,254750,1039,LGU
20220831T051207,2600,5,10,149(0x95),-107,81,-6,0,23,450f06,24741,1280,REGISTERED,CONNECTED,CS_PS_MODE1,18,0,757572,377452014,1273503651,254730,1017,LGU
20220831T051210,2600,5,10,149(0x95),-107,81,-6,0,23,450f06,24741,1280,REGISTERED,CONNECTED,CS_PS_MODE1,18,0,761235,377452028,1273503636,254740,1028,LGU
20220831T051212,2600,5,10,149(0x95),-107,81,-6,0,23,450f06,24741,1280,REGISTERED,CONNECTED,CS_PS_MODE1,18,0,763232,377452033,1273503629,254760,1047,LGU
20220831T051214,2600,5,10,149(0x95),-107,81,-6,0,22,450f06,24741,1280,REGISTERED,CONNECTED,CS_PS_MODE1,18,0,765232,377452036,1273503620,254760,1046,LGU
20220831T051216,2600,5,10,149(0x95),-107,81,-6,0,23,450f06,24741,1280,REGISTERED,CONNECTED,CS_PS_MODE1,18,0,767229,377452041,1273503611,254750,1037,LGU
20220831T051218,2600,5,10,149(0x95),-107,81,-6,0,23,450f06,24741,1280,REGISTERED,CONNECTED,CS_PS_MODE1,18,0,769227,377452040,1273503602,254780,1068,LGU
20220831T051220,2600,5,10,149(0x95),-107,81,-6,0,23,450f06,24741,1280,REGISTERED,CONNECTED,CS_PS_MODE1,18,0,770559,377452038,1273503598,254800,1089,LGU
20220831T051222,2600,5,10,149(0x95),-107,81,-12,0,23,450f06,24741,1280,REGISTERED,CONNECTED,CS_PS_MODE1,18,0,772557,377452034,1273503595,254800,1082,LGU
20220831T051225,2600,5,10,149(0x95),-107,81,-12,0,23,450f06,24741,1280,REGISTERED,CONNECTED,CS_PS_MODE1,18,0,775554,377452034,1273503585,254790,1070,LGU
20220831T051227,2600,5,10,149(0x95),-107,81,-12,0,23,450f06,24741,1280,REGISTERED,CONNECTED,CS_PS_MODE1,18,0,777552,377452032,1273503581,254760,1043,LGU
20220831T051229,2600,5,10,149(0x95),-107,81,-12,0,23,450f06,24741,1280,REGISTERED,CONNECTED,CS_PS_MODE1,18,0,779549,377452033,1273503573,254790,1072,LGU
20220831T051231,2600,5,10,149(0x95),-107,81,-12,0,23,450f06,24741,1280,REGISTERED,CONNECTED,CS_PS_MODE1,18,0,781547,377452033,1273503564,254750,1031,LGU
20220831T051233,2600,5,10,149(0x95),-107,81,-12,0,23,450f06,24741,1280,REGISTERED,CONNECTED,CS_PS_MODE1,18,0,783545,377452033,1273503557,254740,1028,LGU
20220831T051235,2600,5,10,149(0x95),-107,81,-7,0,23,450f06,24741,1280,REGISTERED,CONNECTED,CS_PS_MODE1,18,0,785545,377452031,1273503551,254770,1059,LGU
20220831T051237,2600,5,10,149(0x95),-107,81,-7,0,23,450f06,24741,1280,REGISTERED,CONNECTED,CS_PS_MODE1,18,0,787542,377452030,1273503547,254760,1040,LGU
20220831T051239,2600,5,10,149(0x95),-107,81,-7,0,23,450f06,24741,1280,REGISTERED,CONNECTED,CS_PS_MODE1,18,0,789539,377452028,1273503546,254710,999,LGU
20220831T051242,2600,5,10,149(0x95),-107,81,-7,0,0,450f06,24741,1280,REGISTERED,CONNECTED,CS_PS_MODE1,18,0,792537,377452014,1273503545,254600,888,LGU
20220831T051244,2600,5,10,149(0x95),-107,81,-7,0,23,450f06,24741,1280,REGISTERED,CONNECTED,CS_PS_MODE1,18,0,794535,377452011,1273503542,254610,891,LGU
20220831T051246,2600,5,10,149(0x95),-107,81,-7,0,23,450f06,24741,1280,REGISTERED,CONNECTED,CS_PS_MODE1,18,0,796532,377452008,1273503535,254590,872,LGU
20220831T051248,2600,5,10,149(0x95),-107,81,-7,0,22,450f06,24741,1280,REGISTERED,CONNECTED,CS_PS_MODE1,18,0,798532,377452007,1273503531,254580,868,LGU
20220831T051250,2600,5,10,149(0x95),-107,81,-7,0,23,450f06,24741,1280,REGISTERED,CONNECTED,CS_PS_MODE1,18,0,800529,377452006,1273503531,254580,868,LGU
20220831T051252,2600,5,10,149(0x95),-107,81,-7,0,23,450f06,24741,1280,REGISTERED,CONNECTED,CS_PS_MODE1,18,0,802527,377452003,1273503531,254570,850,LGU
20220831T051254,2600,5,10,149(0x95),-107,81,-7,0,23,450f06,24741,1280,REGISTERED,CONNECTED,CS_PS_MODE1,18,0,804524,377452006,1273503527,254570,850,LGU
20220831T051256,2600,5,10,149(0x95),-107,81,-7,0,23,450f06,24741,1280,REGISTERED,CONNECTED,CS_PS_MODE1,18,0,806522,377452013,1273503524,254560,848,LGU
20220831T051259,2600,5,10,149(0x95),-107,81,-7,0,23,450f06,24741,1280,REGISTERED,CONNECTED,CS_PS_MODE1,18,0,809852,377452032,1273503517,254590,875,LGU
20220831T051301,2600,5,10,149(0x95),-107,81,-7,0,22,450f06,24741,1280,REGISTERED,CONNECTED,CS_PS_MODE1,18,0,811852,377452041,1273503517,254540,828,LGU
20220831T051303,2600,5,10,149(0x95),-107,81,-7,0,23,450f06,24741,1280,REGISTERED,CONNECTED,CS_PS_MODE1,18,0,813849,377452048,1273503515,254490,770,LGU
20220831T051305,2600,5,10,149(0x95),-107,81,-7,0,23,450f06,24741,1280,REGISTERED,CONNECTED,CS_PS_MODE1,18,0,815847,377452054,1273503515,254480,761,LGU
20220831T051307,2600,5,10,149(0x95),-107,81,-7,0,23,450f06,24741,1280,REGISTERED,CONNECTED,CS_PS_MODE1,18,0,817845,377452057,1273503515,254450,737,LGU
20220831T051309,2600,5,10,149(0x95),-107,81,-7,0,23,450f06,24741,1280,REGISTERED,CONNECTED,CS_PS_MODE1,18,0,819842,377452057,1273503518,254460,745,LGU
20220831T051311,2600,5,10,149(0x95),-107,81,-7,0,23,450f06,24741,1280,REGISTERED,CONNECTED,CS_PS_MODE1,18,0,821840,377452049,1273503526,254440,726,LGU
20220831T051314,2600,5,10,149(0x95),-107,81,-7,0,23,450f06,24741,1280,REGISTERED,CONNECTED,CS_PS_MODE1,18,0,824504,377452034,1273503538,254450,735,LGU
20220831T051316,2600,5,10,149(0x95),-107,81,-7,0,22,450f06,24741,1280,REGISTERED,CONNECTED,CS_PS_MODE1,18,0,826502,377452021,1273503548,254490,771,LGU
20220831T051318,2600,5,10,149(0x95),-107,81,-7,0,23,450f06,24741,1280,REGISTERED,CONNECTED,CS_PS_MODE1,18,0,828502,377452006,1273503560,254470,753,LGU
20220831T051320,2600,5,10,149(0x95),-107,81,-7,0,23,450f06,24741,1280,REGISTERED,CONNECTED,CS_PS_MODE1,18,0,830499,377451989,1273503573,254440,722,LGU
20220831T051322,2600,5,10,149(0x95),-107,81,-7,0,23,450f06,24741,1280,REGISTERED,CONNECTED,CS_PS_MODE1,18,0,832497,377451974,1273503581,254420,704,LGU
20220831T051324,2600,5,10,149(0x95),-107,81,-7,0,23,450f06,24741,1280,REGISTERED,CONNECTED,CS_PS_MODE1,18,0,834495,377451965,1273503589,254390,674,LGU
20220831T051326,2600,5,10,149(0x95),-107,81,-7,0,23,450f06,24741,1280,REGISTERED,CONNECTED,CS_PS_MODE1,18,0,836492,377451959,1273503594,254380,660,LGU
20220831T051328,2600,5,10,149(0x95),-107,81,-7,0,23,450f06,24741,1280,REGISTERED,CONNECTED,CS_PS_MODE1,18,0,838492,377451955,1273503596,254380,664,LGU
20220831T051331,2600,5,10,149(0x95),-107,81,-7,0,23,450f06,24741,1280,REGISTERED,CONNECTED,CS_PS_MODE1,18,0,842154,377451954,1273503598,254360,648,LGU
20220831T051333,2600,5,10,149(0x95),-107,81,-7,0,23,450f06,24741,1280,REGISTERED,CONNECTED,CS_PS_MODE1,18,0,844152,377451953,1273503599,254340,621,LGU
20220831T051335,2600,5,10,149(0x95),-107,81,-7,0,23,450f06,24741,1280,REGISTERED,CONNECTED,CS_PS_MODE1,18,0,846149,377451953,1273503600,254340,620,LGU
20220831T051337,2600,5,10,149(0x95),-107,81,-7,0,23,450f06,24741,1280,REGISTERED,CONNECTED,CS_PS_MODE1,18,0,848147,377451950,1273503602,254310,596,LGU
20220831T051339,2600,5,10,149(0x95),-107,81,-7,0,22,450f06,24741,1280,REGISTERED,CONNECTED,CS_PS_MODE1,18,0,850147,377451950,1273503604,254320,609,LGU
20220831T051341,2600,5,10,149(0x95),-107,81,-7,0,23,450f06,24741,1280,REGISTERED,CONNECTED,CS_PS_MODE1,18,0,852145,377451944,1273503605,254290,572,LGU
20220831T051343,2600,5,10,149(0x95),-107,81,-7,0,23,450f06,24741,1280,REGISTERED,CONNECTED,CS_PS_MODE1,18,0,854142,377451941,1273503609,254330,613,LGU
20220831T051345,2600,5,10,149(0x95),-107,81,-7,0,23,450f06,24741,1280,REGISTERED,CONNECTED,CS_PS_MODE1,18,0,856140,377451939,1273503611,254350,630,LGU
20220831T051348,2600,5,10,149(0x95),-107,81,-7,0,23,450f06,24741,1280,REGISTERED,CONNECTED,CS_PS_MODE1,18,0,858470,377451939,1273503612,254390,671,LGU
20220831T051350,2600,5,10,149(0x95),-107,81,-7,0,23,450f06,24741,1280,REGISTERED,CONNECTED,CS_PS_MODE1,18,0,860469,377451946,1273503611,254380,661,LGU
20220831T051352,2600,5,10,149(0x95),-107,81,-7,0,23,450f06,24741,1280,REGISTERED,CONNECTED,CS_PS_MODE1,18,0,862467,377451957,1273503608,254390,670,LGU
20220831T051354,2600,5,10,149(0x95),-107,81,-7,0,23,450f06,24741,1280,REGISTERED,CONNECTED,CS_PS_MODE1,18,0,864464,377451969,1273503605,254350,638,LGU
20220831T051356,2600,5,10,149(0x95),-107,81,-7,0,22,450f06,24741,1280,REGISTERED,CONNECTED,CS_PS_MODE1,18,0,866797,377451977,1273503605,254360,640,LGU
20220831T051358,2600,5,10,149(0x95),-107,81,-7,0,23,450f06,24741,1280,REGISTERED,CONNECTED,CS_PS_MODE1,18,0,868795,377451979,1273503605,254340,624,LGU
20220831T051400,2600,5,10,149(0x95),-107,81,-7,0,23,450f06,24741,1280,REGISTERED,CONNECTED,CS_PS_MODE1,18,0,870792,377451980,1273503608,254310,592,LGU
20220831T051403,2600,5,10,149(0x95),-107,81,-7,0,23,450f06,24741,1280,REGISTERED,CONNECTED,CS_PS_MODE1,18,0,874454,377451986,1273503604,254250,538,LGU
20220831T051405,2600,5,10,149(0x95),-107,81,-7,0,23,450f06,24741,1280,REGISTERED,CONNECTED,CS_PS_MODE1,18,0,876452,377451988,1273503603,254250,532,LGU
20220831T051407,2600,5,10,149(0x95),-107,81,-7,0,23,450f06,24741,1280,REGISTERED,CONNECTED,CS_PS_MODE1,18,0,878452,377451989,1273503600,254230,511,LGU
20220831T051409,2600,5,10,149(0x95),-107,81,-7,0,23,450f06,24741,1280,REGISTERED,CONNECTED,CS_PS_MODE1,18,0,880449,377451990,1273503598,254200,481,LGU
20220831T051411,2600,5,10,149(0x95),-107,81,-7,0,23,450f06,24741,1280,REGISTERED,CONNECTED,CS_PS_MODE1,18,0,882447,377451996,1273503595,254220,503,LGU
20220831T051413,2600,5,10,149(0x95),-107,81,-7,0,23,450f06,24741,1280,REGISTERED,CONNECTED,CS_PS_MODE1,18,0,884445,377451998,1273503591,254190,476,LGU
20220831T051415,2600,5,10,149(0x95),-107,81,-7,0,22,450f06,24741,1280,REGISTERED,CONNECTED,CS_PS_MODE1,18,0,886442,377452002,1273503586,254200,482,LGU
20220831T051417,2600,5,10,149(0x95),-107,81,-7,0,23,450f06,24741,1280,REGISTERED,CONNECTED,CS_PS_MODE1,18,0,888440,377452008,1273503578,254210,492,LGU
20220831T051420,2600,5,10,149(0x95),-107,81,-7,0,23,450f06,24741,1280,REGISTERED,CONNECTED,CS_PS_MODE1,18,0,890772,377452010,1273503569,254210,496,LGU
20220831T051422,2600,5,10,149(0x95),-107,81,-7,0,23,450f06,24741,1280,REGISTERED,CONNECTED,CS_PS_MODE1,18,0,892769,377452011,1273503563,254170,450,LGU
20220831T051424,2600,5,10,149(0x95),-107,81,-7,0,23,450f06,24741,1280,REGISTERED,CONNECTED,CS_PS_MODE1,18,0,894767,377452010,1273503561,254140,425,LGU
20220831T051426,2600,5,10,149(0x95),-107,81,-7,0,23,450f06,24741,1280,REGISTERED,CONNECTED,CS_PS_MODE1,18,0,896767,377452006,1273503562,254130,412,LGU
20220831T051428,2600,5,10,149(0x95),-107,81,-7,0,23,450f06,24741,1280,REGISTERED,CONNECTED,CS_PS_MODE1,18,0,898764,377452001,1273503562,254150,434,LGU
20220831T051430,2600,5,10,149(0x95),-107,81,-7,0,23,450f06,24741,1280,REGISTERED,CONNECTED,CS_PS_MODE1,18,0,900762,377451998,1273503564,254120,405,LGU
20220831T051432,2600,5,10,149(0x95),-107,81,-7,0,23,450f06,24741,1280,REGISTERED,CONNECTED,CS_PS_MODE1,18,0,902759,377451998,1273503564,254100,385,LGU
20220831T051435,2600,5,10,149(0x95),-107,81,-7,0,23,450f06,24741,1280,REGISTERED,CONNECTED,CS_PS_MODE1,18,0,905757,377451997,1273503568,254100,382,LGU
20220831T051437,2600,5,10,149(0x95),-107,81,-7,0,23,450f06,24741,1280,REGISTERED,CONNECTED,CS_PS_MODE1,18,0,907754,377451997,1273503569,254060,343,LGU
20220831T051439,2600,5,10,149(0x95),-107,81,-7,0,23,450f06,24741,1280,REGISTERED,CONNECTED,CS_PS_MODE1,18,0,909752,377451999,1273503570,254040,321,LGU
20220831T051441,2600,5,10,149(0x95),-107,81,-7,0,23,450f06,24741,1280,REGISTERED,CONNECTED,CS_PS_MODE1,18,0,911752,377452006,1273503569,254010,298,LGU
20220831T051443,2600,5,10,149(0x95),-107,81,-7,0,23,450f06,24741,1280,REGISTERED,CONNECTED,CS_PS_MODE1,18,0,913749,377452012,1273503567,253970,255,LGU
20220831T051445,2600,5,10,149(0x95),-107,81,-7,0,23,450f06,24741,1280,REGISTERED,CONNECTED,CS_PS_MODE1,18,0,915747,377452019,1273503564,253970,253,LGU
20220831T051447,2600,5,10,149(0x95),-107,81,-7,0,23,450f06,24741,1280,REGISTERED,CONNECTED,CS_PS_MODE1,18,0,917745,377452028,1273503559,253960,244,LGU
20220831T051449,2600,5,10,149(0x95),-107,81,-7,0,23,450f06,24741,1280,REGISTERED,CONNECTED,CS_PS_MODE1,18,0,919742,377452036,1273503556,253920,205,LGU
20220831T051452,2600,5,10,149(0x95),-107,81,-7,0,23,450f06,24741,1280,REGISTERED,CONNECTED,CS_PS_MODE1,18,0,922740,377452042,1273503550,253870,156,LGU
20220831T051454,2600,5,10,149(0x95),-107,81,-7,0,23,450f06,24741,1280,REGISTERED,CONNECTED,CS_PS_MODE1,18,0,925072,377452050,1273503544,253890,173,LGU
20220831T051456,2600,5,10,149(0x95),-107,81,-7,0,23,450f06,24741,1280,REGISTERED,CONNECTED,CS_PS_MODE1,18,0,926737,377452058,1273503537,253920,200,LGU
20220831T051458,2600,5,10,149(0x95),-107,81,-7,0,22,450f06,24741,1280,REGISTERED,CONNECTED,CS_PS_MODE1,18,0,929070,377452067,1273503528,253900,187,LGU
20220831T051500,2600,5,10,149(0x95),-107,81,-7,0,23,450f06,24741,1280,REGISTERED,CONNECTED,CS_PS_MODE1,18,0,931072,377452073,1273503522,253910,192,LGU
20220831T051502,2600,5,10,149(0x95),-107,81,-7,0,23,450f06,24741,1280,REGISTERED,CONNECTED,CS_PS_MODE1,18,0,933062,377452077,1273503518,253900,189,LGU
20220831T051504,2600,5,10,149(0x95),-107,81,-7,0,23,450f06,24741,1280,REGISTERED,CONNECTED,CS_PS_MODE1,18,0,935062,377452082,1273503513,253940,223,LGU
20220831T051506,2600,5,10,149(0x95),-107,81,-7,0,23,450f06,24741,1280,REGISTERED,CONNECTED,CS_PS_MODE1,18,0,937059,377452084,1273503512,253940,220,LGU
20220831T051509,2600,5,10,149(0x95),-107,81,-7,0,22,450f06,24741,1280,REGISTERED,CONNECTED,CS_PS_MODE1,18,0,939722,377452089,1273503509,253950,237,LGU
20220831T051511,2600,5,10,149(0x95),-107,81,-7,0,23,450f06,24741,1280,REGISTERED,CONNECTED,CS_PS_MODE1,18,0,941722,377452090,1273503509,253960,242,LGU
20220831T051513,2600,5,10,149(0x95),-107,81,-7,0,23,450f06,24741,1280,REGISTERED,CONNECTED,CS_PS_MODE1,18,0,943719,377452088,1273503509,253950,231,LGU
20220831T051515,2600,5,10,149(0x95),-107,81,-7,0,23,450f06,24741,1280,REGISTERED,CONNECTED,CS_PS_MODE1,18,0,945717,377452084,1273503511,253930,211,LGU
20220831T051517,2600,5,10,149(0x95),-107,81,-7,0,23,450f06,24741,1280,REGISTERED,CONNECTED,CS_PS_MODE1,18,0,947714,377452083,1273503511,253910,194,LGU
20220831T051519,2600,5,10,149(0x95),-107,81,-7,0,23,450f06,24741,1280,REGISTERED,CONNECTED,CS_PS_MODE1,18,0,949712,377452083,1273503507,253870,156,LGU
20220831T051521,2600,5,10,149(0x95),-107,81,-7,0,23,450f06,24741,1280,REGISTERED,CONNECTED,CS_PS_MODE1,18,0,951712,377452084,1273503506,253890,177,LGU
20220831T051523,2600,5,10,149(0x95),-107,81,-7,0,23,450f06,24741,1280,REGISTERED,CONNECTED,CS_PS_MODE1,18,0,953709,377452083,1273503506,253820,101,LGU
20220831T051526,2600,5,10,149(0x95),-107,81,-7,0,23,450f06,24741,1280,REGISTERED,CONNECTED,CS_PS_MODE1,18,0,957372,377452085,1273503506,253770,54,LGU
20220831T051528,2600,5,10,149(0x95),-107,81,-7,0,23,450f06,24741,1280,REGISTERED,CONNECTED,CS_PS_MODE1,18,0,959370,377452082,1273503505,253730,17,LGU
20220831T051530,2600,5,10,149(0x95),-107,81,-7,0,22,450f06,24741,1280,REGISTERED,CONNECTED,CS_PS_MODE1,18,0,961367,377452080,1273503504,253710,-1,LGU
20220831T051532,2600,5,10,149(0x95),-107,81,-7,0,23,450f06,24741,1280,REGISTERED,CONNECTED,CS_PS_MODE1,18,0,963367,377452078,1273503503,253730,16,LGU
20220831T051534,2600,5,10,149(0x95),-107,81,-7,0,23,450f06,24741,1280,REGISTERED,CONNECTED,CS_PS_MODE1,18,0,965364,377452078,1273503500,253690,-25,LGU
20220831T051536,2600,5,10,149(0x95),-107,81,-7,0,22,450f06,24741,1280,REGISTERED,CONNECTED,CS_PS_MODE1,18,0,967362,377452079,1273503498,253690,-21,LGU
20220831T051538,2600,5,10,149(0x95),-107,81,-7,0,23,450f06,24741,1280,REGISTERED,CONNECTED,CS_PS_MODE1,18,0,969359,377452080,1273503497,253740,26,LGU
20220831T051541,2600,5,10,149(0x95),-107,81,-7,0,23,450f06,24741,1280,REGISTERED,CONNECTED,CS_PS_MODE1,18,0,971692,377452082,1273503495,253760,40,LGU
20220831T051543,2600,5,10,149(0x95),-107,81,-7,0,22,450f06,24741,1280,REGISTERED,CONNECTED,CS_PS_MODE1,18,0,973689,377452083,1273503495,253730,16,LGU
20220831T051545,2600,5,10,149(0x95),-107,81,-7,0,22,450f06,24741,1280,REGISTERED,CONNECTED,CS_PS_MODE1,18,0,975687,377452082,1273503493,253730,10,LGU
20220831T051547,2600,5,10,149(0x95),-107,81,-7,0,23,450f06,24741,1280,REGISTERED,CONNECTED,CS_PS_MODE1,18,0,977684,377452079,1273503494,253690,-21,LGU
20220831T051549,2600,5,10,149(0x95),-107,81,-7,0,23,450f06,24741,1280,REGISTERED,CONNECTED,CS_PS_MODE1,18,0,979682,377452073,1273503497,253690,-23,LGU
20220831T051551,2600,5,10,149(0x95),-107,81,-7,0,23,450f06,24741,1280,REGISTERED,CONNECTED,CS_PS_MODE1,18,0,981682,377452070,1273503498,253690,-23,LGU
20220831T051553,2600,5,10,149(0x95),-107,81,-7,0,23,450f06,24741,1280,REGISTERED,CONNECTED,CS_PS_MODE1,18,0,983679,377452066,1273503501,253690,-20,LGU
20220831T051555,2600,5,10,149(0x95),-107,81,-7,0,23,450f06,24741,1280,REGISTERED,CONNECTED,CS_PS_MODE1,18,0,985677,377452063,1273503502,253710,-8,LGU
20220831T051558,2600,5,10,149(0x95),-107,81,-7,0,23,450f06,24741,1280,REGISTERED,CONNECTED,CS_PS_MODE1,18,0,988674,377452059,1273503502,253700,-15,LGU
20220831T051600,2600,5,10,149(0x95),-107,81,-7,0,23,450f06,24741,1280,REGISTERED,CONNECTED,CS_PS_MODE1,18,0,990672,377452054,1273503498,253690,-22,LGU
20220831T051602,2600,5,10,149(0x95),-107,81,-7,0,23,450f06,24741,1280,REGISTERED,CONNECTED,CS_PS_MODE1,18,0,992669,377452047,1273503493,253650,-63,LGU
20220831T051604,2600,5,10,149(0x95),-107,81,-7,0,23,450f06,24741,1280,REGISTERED,CONNECTED,CS_PS_MODE1,18,0,994667,377452042,1273503487,253640,-73,LGU
20220831T051606,2600,5,10,149(0x95),-107,81,-7,0,23,450f06,24741,1280,REGISTERED,CONNECTED,CS_PS_MODE1,18,0,996667,377452038,1273503482,253650,-60,LGU
20220831T051608,2600,5,10,149(0x95),-107,81,-7,0,23,450f06,24741,1280,REGISTERED,CONNECTED,CS_PS_MODE1,18,0,998664,377452032,1273503478,253670,-42,LGU
